ACQ Timestamp (Server Time in UTC), MessageID, Data Value For: GNSS-6452-$GPGGA
2021-06-16 12:07:14Z, 6cda8203-a249-e411-b0cc-f8bc1246af59, $GPGGA,120713.00,4437.5828,N,12402.8866,W,1,10,0.8,17.7,M,-21.8,M,,*60
2021-06-16 12:07:15Z, 6cda8203-a249-e411-b0cc-f8bc1246af59, $GPGGA,120714.00,4437.5828,N,12402.8866,W,1,10,0.8,17.7,M,-21.8,M,,*67
2021-06-16 12:07:17Z, 6cda8203-a249-e411-b0cc-f8bc1246af59, $GPGGA,120716.00,4437.5828,N,12402.8866,W,1,10,0.8,17.7,M,-21.8,M,,*65
2021-06-16 12:07:18Z, 6cda8203-a249-e411-b0cc-f8bc1246af59, $GPGGA,120717.00,4437.5828,N,12402.8866,W,1,10,0.8,17.7,M,-21.8,M,,*64
2021-06-16 12:07:20Z, 6cda8203-a249-e411-b0cc-f8bc1246af59, $GPGGA,120719.00,4437.5828,N,12402.8867,W,1,10,0.8,17.7,M,-21.8,M,,*6B
2021-06-16 12:07:21Z, 6cda8203-a249-e411-b0cc-f8bc1246af59, $GPGGA,120720.00,4437.5828,N,12402.8867,W,1,10,0.8,17.7,M,-21.8,M,,*61
2021-06-16 12:07:23Z, 6cda8203-a249-e411-b0cc-f8bc1246af59, $GPGGA,120722.00,4437.5828,N,12402.8867,W,1,10,0.8,17.7,M,-21.8,M,,*63
2021-06-16 12:07:24Z, 6cda8203-a249-e411-b0cc-f8bc1246af59, $GPGGA,120723.00,4437.5830,N,12402.8874,W,1,10,0.8,17.5,M,-21.8,M,,*6B
2021-06-16 12:07:26Z, 6cda8203-a249-e411-b0cc-f8bc1246af59, $GPGGA,120725.00,4437.5831,N,12402.8880,W,1,10,0.8,17.3,M,-21.8,M,,*61
2021-06-16 12:07:27Z, 6cda8203-a249-e411-b0cc-f8bc1246af59, $GPGGA,120726.00,4437.5832,N,12402.8878,W,1,10,0.8,17.1,M,-21.8,M,,*64
2021-06-16 12:07:29Z, 6cda8203-a249-e411-b0cc-f8bc1246af59, $GPGGA,120728.00,4437.5844,N,12402.8877,W,1,10,0.8,16.6,M,-21.8,M,,*62
2021-06-16 12:07:30Z, 6cda8203-a249-e411-b0cc-f8bc1246af59, $GPGGA,120729.00,4437.5844,N,12402.8876,W,1,10,0.8,16.5,M,-21.8,M,,*61
2021-06-16 12:07:32Z, 6cda8203-a249-e411-b0cc-f8bc1246af59, $GPGGA,120731.00,4437.5845,N,12402.8880,W,1,10,0.8,16.2,M,-21.8,M,,*67
2021-06-16 12:07:33Z, 6cda8203-a249-e411-b0cc-f8bc1246af59, $GPGGA,120732.00,4437.5847,N,12402.8881,W,1,10,0.8,16.1,M,-21.8,M,,*64
2021-06-16 12:07:34Z, 6cda8203-a249-e411-b0cc-f8bc1246af59, $GPGGA,120733.00,4437.5846,N,12402.8880,W,1,10,0.8,15.9,M,-21.8,M,,*6E
2021-06-16 12:07:35Z, 6cda8203-a249-e411-b0cc-f8bc1246af59, $GPGGA,120734.00,4437.5847,N,12402.8880,W,1,10,0.8,15.7,M,-21.8,M,,*66
2021-06-16 12:07:36Z, 6cda8203-a249-e411-b0cc-f8bc1246af59, $GPGGA,120735.00,4437.5847,N,12402.8880,W,1,10,0.8,15.6,M,-21.8,M,,*66
2021-06-16 12:07:37Z, 6cda8203-a249-e411-b0cc-f8bc1246af59, $GPGGA,120736.00,4437.5845,N,12402.8880,W,1,10,0.8,15.4,M,-21.8,M,,*65
2021-06-16 12:07:39Z, 6cda8203-a249-e411-b0cc-f8bc1246af59, $GPGGA,120737.00,4437.5844,N,12402.8879,W,1,10,0.8,15.3,M,-21.8,M,,*64
2021-06-16 12:07:40Z, 6cda8203-a249-e411-b0cc-f8bc1246af59, $GPGGA,120739.00,4437.5840,N,12402.8880,W,1,10,0.8,15.3,M,-21.8,M,,*68
2021-06-16 12:07:41Z, 6cda8203-a249-e411-b0cc-f8bc1246af59, $GPGGA,120740.00,4437.5839,N,12402.8880,W,1,10,0.8,15.2,M,-21.8,M,,*69
2021-06-16 12:07:43Z, 6cda8203-a249-e411-b0cc-f8bc1246af59, $GPGGA,120742.00,4437.5837,N,12402.8880,W,1,10,0.8,15.1,M,-21.8,M,,*66
2021-06-16 12:07:44Z, 6cda8203-a249-e411-b0cc-f8bc1246af59, $GPGGA,120743.00,4437.5836,N,12402.8880,W,1,10,0.8,15.0,M,-21.8,M,,*67
2021-06-16 12:07:46Z, 6cda8203-a249-e411-b0cc-f8bc1246af59, $GPGGA,120745.00,4437.5834,N,12402.8880,W,1,10,0.8,15.0,M,-21.8,M,,*63
2021-06-16 12:07:47Z, 6cda8203-a249-e411-b0cc-f8bc1246af59, $GPGGA,120746.00,4437.5834,N,12402.8879,W,1,10,0.8,15.0,M,-21.8,M,,*66
2021-06-16 12:07:49Z, 6cda8203-a249-e411-b0cc-f8bc1246af59, $GPGGA,120748.00,4437.5832,N,12402.8877,W,1,10,0.8,14.9,M,-21.8,M,,*68
2021-06-16 12:07:50Z, 6cda8203-a249-e411-b0cc-f8bc1246af59, $GPGGA,120749.00,4437.5831,N,12402.8877,W,1,10,0.8,14.9,M,-21.8,M,,*6A
2021-06-16 12:07:52Z, 6cda8203-a249-e411-b0cc-f8bc1246af59, $GPGGA,120751.00,4437.5829,N,12402.8874,W,1,10,0.8,15.0,M,-21.8,M,,*61
2021-06-16 12:07:53Z, 6cda8203-a249-e411-b0cc-f8bc1246af59, $GPGGA,120752.00,4437.5830,N,12402.8873,W,1,10,0.8,15.0,M,-21.8,M,,*6D
2021-06-16 12:07:55Z, 6cda8203-a249-e411-b0cc-f8bc1246af59, $GPGGA,120754.00,4437.5831,N,12402.8872,W,1,10,0.8,15.0,M,-21.8,M,,*6B
2021-06-16 12:07:56Z, 6cda8203-a249-e411-b0cc-f8bc1246af59, $GPGGA,120755.00,4437.5833,N,12402.8870,W,1,10,0.8,15.0,M,-21.8,M,,*6A
2021-06-16 12:07:58Z, 6cda8203-a249-e411-b0cc-f8bc1246af59, $GPGGA,120757.00,4437.5835,N,12402.8866,W,1,10,0.8,15.2,M,-21.8,M,,*6B
2021-06-16 12:07:59Z, 6cda8203-a249-e411-b0cc-f8bc1246af59, $GPGGA,120758.00,4437.5837,N,12402.8868,W,1,10,0.8,15.2,M,-21.8,M,,*68
2021-06-16 12:08:01Z, 6cda8203-a249-e411-b0cc-f8bc1246af59, $GPGGA,120800.00,4437.5840,N,12402.8866,W,1,10,0.8,15.3,M,-21.8,M,,*65
2021-06-16 12:08:02Z, 6cda8203-a249-e411-b0cc-f8bc1246af59, $GPGGA,120801.00,4437.5843,N,12402.8864,W,1,10,0.8,15.2,M,-21.8,M,,*64
2021-06-16 12:08:04Z, 6cda8203-a249-e411-b0cc-f8bc1246af59, $GPGGA,120803.00,4437.5845,N,12402.8856,W,1,10,0.8,15.4,M,-21.8,M,,*67
2021-06-16 12:08:05Z, 6cda8203-a249-e411-b0cc-f8bc1246af59, $GPGGA,120804.00,4437.5844,N,12402.8858,W,1,10,0.8,15.5,M,-21.8,M,,*6E
2021-06-16 12:08:07Z, 6cda8203-a249-e411-b0cc-f8bc1246af59, $GPGGA,120806.00,4437.5850,N,12402.8855,W,1,10,0.8,15.7,M,-21.8,M,,*66
2021-06-16 12:08:08Z, 6cda8203-a249-e411-b0cc-f8bc1246af59, $GPGGA,120807.00,4437.5851,N,12402.8853,W,1,10,0.8,15.7,M,-21.8,M,,*60
2021-06-16 12:08:10Z, 6cda8203-a249-e411-b0cc-f8bc1246af59, $GPGGA,120809.00,4437.5854,N,12402.8852,W,1,10,0.8,15.8,M,-21.8,M,,*65
2021-06-16 12:08:11Z, 6cda8203-a249-e411-b0cc-f8bc1246af59, $GPGGA,120810.00,4437.5855,N,12402.8854,W,1,10,0.8,16.0,M,-21.8,M,,*61
2021-06-16 12:08:13Z, 6cda8203-a249-e411-b0cc-f8bc1246af59, $GPGGA,120812.00,4437.5854,N,12402.8856,W,1,10,0.8,16.2,M,-21.8,M,,*62
2021-06-16 12:08:14Z, 6cda8203-a249-e411-b0cc-f8bc1246af59, $GPGGA,120813.00,4437.5855,N,12402.8859,W,1,10,0.8,16.3,M,-21.8,M,,*6C
2021-06-16 12:08:16Z, 6cda8203-a249-e411-b0cc-f8bc1246af59, $GPGGA,120815.00,4437.5855,N,12402.8863,W,1,10,0.8,16.5,M,-21.8,M,,*65
2021-06-16 12:08:17Z, 6cda8203-a249-e411-b0cc-f8bc1246af59, $GPGGA,120816.00,4437.5855,N,12402.8865,W,1,10,0.8,16.5,M,-21.8,M,,*60
2021-06-16 12:08:19Z, 6cda8203-a249-e411-b0cc-f8bc1246af59, $GPGGA,120818.00,4437.5858,N,12402.8865,W,1,10,0.8,16.4,M,-21.8,M,,*62
2021-06-16 12:08:20Z, 6cda8203-a249-e411-b0cc-f8bc1246af59, $GPGGA,120819.00,4437.5859,N,12402.8865,W,1,10,0.8,16.4,M,-21.8,M,,*62
2021-06-16 12:08:22Z, 6cda8203-a249-e411-b0cc-f8bc1246af59, $GPGGA,120821.00,4437.5860,N,12402.8861,W,1,10,0.8,16.3,M,-21.8,M,,*60
2021-06-16 12:08:23Z, 6cda8203-a249-e411-b0cc-f8bc1246af59, $GPGGA,120822.00,4437.5860,N,12402.8861,W,1,10,0.8,16.3,M,-21.8,M,,*63
2021-06-16 12:08:25Z, 6cda8203-a249-e411-b0cc-f8bc1246af59, $GPGGA,120824.00,4437.5858,N,12402.8862,W,1,10,0.8,16.4,M,-21.8,M,,*6A
2021-06-16 12:08:26Z, 6cda8203-a249-e411-b0cc-f8bc1246af59, $GPGGA,120825.00,4437.5859,N,12402.8862,W,1,10,0.8,16.5,M,-21.8,M,,*6B
2021-06-16 12:08:28Z, 6cda8203-a249-e411-b0cc-f8bc1246af59, $GPGGA,120827.00,4437.5860,N,12402.8864,W,1,10,0.8,16.6,M,-21.8,M,,*66
2021-06-16 12:08:29Z, 6cda8203-a249-e411-b0cc-f8bc1246af59, $GPGGA,120828.00,4437.5859,N,12402.8863,W,1,10,0.8,16.7,M,-21.8,M,,*65
2021-06-16 12:08:31Z, 6cda8203-a249-e411-b0cc-f8bc1246af59, $GPGGA,120830.00,4437.5860,N,12402.8863,W,1,10,0.8,16.8,M,-21.8,M,,*69
2021-06-16 12:08:32Z, 6cda8203-a249-e411-b0cc-f8bc1246af59, $GPGGA,120831.00,4437.5859,N,12402.8862,W,1,10,0.8,17.0,M,-21.8,M,,*6A
2021-06-16 12:08:34Z, 6cda8203-a249-e411-b0cc-f8bc1246af59, $GPGGA,120833.00,4437.5858,N,12402.8861,W,1,10,0.8,17.0,M,-21.8,M,,*6A
2021-06-16 12:08:35Z, 6cda8203-a249-e411-b0cc-f8bc1246af59, $GPGGA,120834.00,4437.5858,N,12402.8856,W,1,10,0.8,17.3,M,-21.8,M,,*6A
2021-06-16 12:08:37Z, 6cda8203-a249-e411-b0cc-f8bc1246af59, $GPGGA,120836.00,4437.5858,N,12402.8855,W,1,10,0.8,17.2,M,-21.8,M,,*6A
2021-06-16 12:08:38Z, 6cda8203-a249-e411-b0cc-f8bc1246af59, $GPGGA,120837.00,4437.5857,N,12402.8853,W,1,10,0.8,17.1,M,-21.8,M,,*61
2021-06-16 12:08:40Z, 6cda8203-a249-e411-b0cc-f8bc1246af59, $GPGGA,120839.00,4437.5858,N,12402.8848,W,1,10,0.8,17.3,M,-21.8,M,,*68
2021-06-16 12:08:41Z, 6cda8203-a249-e411-b0cc-f8bc1246af59, $GPGGA,120840.00,4437.5859,N,12402.8849,W,1,10,0.8,17.4,M,-21.8,M,,*61
2021-06-16 12:08:43Z, 6cda8203-a249-e411-b0cc-f8bc1246af59, $GPGGA,120842.00,4437.5860,N,12402.8848,W,1,10,0.8,17.9,M,-21.8,M,,*65
2021-06-16 12:08:44Z, 6cda8203-a249-e411-b0cc-f8bc1246af59, $GPGGA,120843.00,4437.5860,N,12402.8848,W,1,10,0.8,18.0,M,-21.8,M,,*62
2021-06-16 12:08:46Z, 6cda8203-a249-e411-b0cc-f8bc1246af59, $GPGGA,120845.00,4437.5858,N,12402.8854,W,1,10,0.8,18.2,M,-21.8,M,,*60
2021-06-16 12:08:47Z, 6cda8203-a249-e411-b0cc-f8bc1246af59, $GPGGA,120846.00,4437.5858,N,12402.8852,W,1,10,0.8,18.2,M,-21.8,M,,*65
2021-06-16 12:08:49Z, 6cda8203-a249-e411-b0cc-f8bc1246af59, $GPGGA,120848.00,4437.5853,N,12402.8856,W,1,10,0.8,18.5,M,-21.8,M,,*63
2021-06-16 12:08:50Z, 6cda8203-a249-e411-b0cc-f8bc1246af59, $GPGGA,120849.00,4437.5851,N,12402.8857,W,1,10,0.8,18.8,M,-21.8,M,,*6C
2021-06-16 12:08:52Z, 6cda8203-a249-e411-b0cc-f8bc1246af59, $GPGGA,120851.00,4437.5849,N,12402.8858,W,1,10,0.8,18.9,M,-21.8,M,,*62
2021-06-16 12:08:53Z, 6cda8203-a249-e411-b0cc-f8bc1246af59, $GPGGA,120852.00,4437.5848,N,12402.8856,W,1,10,0.8,18.9,M,-21.8,M,,*6E
2021-06-16 12:08:55Z, 6cda8203-a249-e411-b0cc-f8bc1246af59, $GPGGA,120854.00,4437.5850,N,12402.8857,W,1,10,0.8,18.9,M,-21.8,M,,*60
2021-06-16 12:08:56Z, 6cda8203-a249-e411-b0cc-f8bc1246af59, $GPGGA,120855.00,4437.5852,N,12402.8857,W,1,10,0.8,18.9,M,-21.8,M,,*63
2021-06-16 12:08:58Z, 6cda8203-a249-e411-b0cc-f8bc1246af59, $GPGGA,120857.00,4437.5854,N,12402.8855,W,1,10,0.8,18.9,M,-21.8,M,,*65
2021-06-16 12:08:59Z, 6cda8203-a249-e411-b0cc-f8bc1246af59, $GPGGA,120858.00,4437.5853,N,12402.8853,W,1,10,0.8,18.8,M,-21.8,M,,*6A
2021-06-16 12:09:01Z, 6cda8203-a249-e411-b0cc-f8bc1246af59, $GPGGA,120900.00,4437.5852,N,12402.8853,W,1,10,0.8,18.6,M,-21.8,M,,*69
2021-06-16 12:09:02Z, 6cda8203-a249-e411-b0cc-f8bc1246af59, $GPGGA,120901.00,4437.5851,N,12402.8855,W,1,10,0.8,18.5,M,-21.8,M,,*6E
2021-06-16 12:09:04Z, 6cda8203-a249-e411-b0cc-f8bc1246af59, $GPGGA,120903.00,4437.5851,N,12402.8853,W,1,10,0.8,18.5,M,-21.8,M,,*6A
2021-06-16 12:09:05Z, 6cda8203-a249-e411-b0cc-f8bc1246af59, $GPGGA,120904.00,4437.5851,N,12402.8852,W,1,10,0.8,18.4,M,-21.8,M,,*6D
2021-06-16 12:09:07Z, 6cda8203-a249-e411-b0cc-f8bc1246af59, $GPGGA,120906.00,4437.5852,N,12402.8852,W,1,10,0.8,18.4,M,-21.8,M,,*6C
2021-06-16 12:09:08Z, 6cda8203-a249-e411-b0cc-f8bc1246af59, $GPGGA,120907.00,4437.5851,N,12402.8852,W,1,10,0.8,18.3,M,-21.8,M,,*69
2021-06-16 12:09:10Z, 6cda8203-a249-e411-b0cc-f8bc1246af59, $GPGGA,120909.00,4437.5852,N,12402.8848,W,1,10,0.8,18.3,M,-21.8,M,,*6F
2021-06-16 12:09:11Z, 6cda8203-a249-e411-b0cc-f8bc1246af59, $GPGGA,120910.00,4437.5854,N,12402.8846,W,1,10,0.8,18.3,M,-21.8,M,,*6F
2021-06-16 12:09:13Z, 6cda8203-a249-e411-b0cc-f8bc1246af59, $GPGGA,120912.00,4437.5856,N,12402.8843,W,1,10,0.8,18.3,M,-21.8,M,,*6A
2021-06-16 12:09:14Z, 6cda8203-a249-e411-b0cc-f8bc1246af59, $GPGGA,120913.00,4437.5856,N,12402.8839,W,1,10,0.8,18.3,M,-21.8,M,,*66
2021-06-16 12:09:16Z, 6cda8203-a249-e411-b0cc-f8bc1246af59, $GPGGA,120915.00,4437.5859,N,12402.8835,W,1,10,0.8,18.4,M,-21.8,M,,*64
2021-06-16 12:09:17Z, 6cda8203-a249-e411-b0cc-f8bc1246af59, $GPGGA,120916.00,4437.5860,N,12402.8837,W,1,10,0.8,18.5,M,-21.8,M,,*6E
2021-06-16 12:09:19Z, 6cda8203-a249-e411-b0cc-f8bc1246af59, $GPGGA,120918.00,4437.5862,N,12402.8834,W,1,10,0.8,18.6,M,-21.8,M,,*62
2021-06-16 12:09:20Z, 6cda8203-a249-e411-b0cc-f8bc1246af59, $GPGGA,120919.00,4437.5865,N,12402.8833,W,1,10,0.8,18.7,M,-21.8,M,,*62
2021-06-16 12:09:22Z, 6cda8203-a249-e411-b0cc-f8bc1246af59, $GPGGA,120921.00,4437.5866,N,12402.8836,W,1,10,0.8,18.5,M,-21.8,M,,*6D
2021-06-16 12:09:23Z, 6cda8203-a249-e411-b0cc-f8bc1246af59, $GPGGA,120922.00,4437.5865,N,12402.8837,W,1,10,0.8,18.6,M,-21.8,M,,*6F
2021-06-16 12:09:25Z, 6cda8203-a249-e411-b0cc-f8bc1246af59, $GPGGA,120924.00,4437.5866,N,12402.8836,W,1,10,0.8,18.6,M,-21.8,M,,*6B
2021-06-16 12:09:26Z, 6cda8203-a249-e411-b0cc-f8bc1246af59, $GPGGA,120925.00,4437.5868,N,12402.8837,W,1,10,0.8,18.7,M,-21.8,M,,*64
2021-06-16 12:09:28Z, 6cda8203-a249-e411-b0cc-f8bc1246af59, $GPGGA,120927.00,4437.5867,N,12402.8836,W,1,10,0.8,18.6,M,-21.8,M,,*69
2021-06-16 12:09:29Z, 6cda8203-a249-e411-b0cc-f8bc1246af59, $GPGGA,120928.00,4437.5867,N,12402.8836,W,1,10,0.8,18.5,M,-21.8,M,,*65
2021-06-16 12:09:31Z, 6cda8203-a249-e411-b0cc-f8bc1246af59, $GPGGA,120930.00,4437.5866,N,12402.8840,W,1,10,0.8,18.6,M,-21.8,M,,*6F
2021-06-16 12:09:32Z, 6cda8203-a249-e411-b0cc-f8bc1246af59, $GPGGA,120931.00,4437.5865,N,12402.8840,W,1,10,0.8,18.8,M,-21.8,M,,*63
2021-06-16 12:09:34Z, 6cda8203-a249-e411-b0cc-f8bc1246af59, $GPGGA,120933.00,4437.5863,N,12402.8837,W,1,10,0.8,19.0,M,-21.8,M,,*6E
2021-06-16 12:09:35Z, 6cda8203-a249-e411-b0cc-f8bc1246af59, $GPGGA,120934.00,4437.5863,N,12402.8835,W,1,10,0.8,19.1,M,-21.8,M,,*6A
2021-06-16 12:09:37Z, 6cda8203-a249-e411-b0cc-f8bc1246af59, $GPGGA,120936.00,4437.5864,N,12402.8835,W,1,10,0.8,19.0,M,-21.8,M,,*6E
2021-06-16 12:09:38Z, 6cda8203-a249-e411-b0cc-f8bc1246af59, $GPGGA,120937.00,4437.5864,N,12402.8835,W,1,10,0.8,19.0,M,-21.8,M,,*6F
2021-06-16 12:09:39Z, 6cda8203-a249-e411-b0cc-f8bc1246af59, $GPGGA,120938.00,4437.5865,N,12402.8834,W,1,10,0.8,19.0,M,-21.8,M,,*60
2021-06-16 12:09:40Z, 6cda8203-a249-e411-b0cc-f8bc1246af59, $GPGGA,120939.00,4437.5866,N,12402.8833,W,1,10,0.8,19.0,M,-21.8,M,,*65
2021-06-16 12:09:41Z, 6cda8203-a249-e411-b0cc-f8bc1246af59, $GPGGA,120940.00,4437.5867,N,12402.8833,W,1,10,0.8,19.0,M,-21.8,M,,*6A
2021-06-16 12:09:42Z, 6cda8203-a249-e411-b0cc-f8bc1246af59, $GPGGA,120941.00,4437.5867,N,12402.8833,W,1,10,0.8,18.9,M,-21.8,M,,*63
2021-06-16 12:09:44Z, 6cda8203-a249-e411-b0cc-f8bc1246af59, $GPGGA,120942.00,4437.5867,N,12402.8834,W,1,10,0.8,18.9,M,-21.8,M,,*67
2021-06-16 12:09:45Z, 6cda8203-a249-e411-b0cc-f8bc1246af59, $GPGGA,120944.00,4437.5867,N,12402.8839,W,1,10,0.8,18.7,M,-21.8,M,,*62
2021-06-16 12:09:46Z, 6cda8203-a249-e411-b0cc-f8bc1246af59, $GPGGA,120945.00,4437.5867,N,12402.8840,W,1,10,0.8,18.7,M,-21.8,M,,*6D
2021-06-16 12:09:48Z, 6cda8203-a249-e411-b0cc-f8bc1246af59, $GPGGA,120947.00,4437.5867,N,12402.8840,W,1,10,0.8,18.8,M,-21.8,M,,*60
2021-06-16 12:09:49Z, 6cda8203-a249-e411-b0cc-f8bc1246af59, $GPGGA,120948.00,4437.5867,N,12402.8840,W,1,10,0.8,18.9,M,-21.8,M,,*6E
2021-06-16 12:09:51Z, 6cda8203-a249-e411-b0cc-f8bc1246af59, $GPGGA,120950.00,4437.5865,N,12402.8843,W,1,10,0.8,19.0,M,-21.8,M,,*6E
2021-06-16 12:09:52Z, 6cda8203-a249-e411-b0cc-f8bc1246af59, $GPGGA,120951.00,4437.5864,N,12402.8844,W,1,10,0.8,19.0,M,-21.8,M,,*69
2021-06-16 12:09:54Z, 6cda8203-a249-e411-b0cc-f8bc1246af59, $GPGGA,120953.00,4437.5860,N,12402.8846,W,1,10,0.8,19.1,M,-21.8,M,,*6C
2021-06-16 12:09:55Z, 6cda8203-a249-e411-b0cc-f8bc1246af59, $GPGGA,120954.00,4437.5858,N,12402.8848,W,1,10,0.8,19.2,M,-21.8,M,,*6D
2021-06-16 12:09:57Z, 6cda8203-a249-e411-b0cc-f8bc1246af59, $GPGGA,120956.00,4437.5855,N,12402.8849,W,1,10,0.8,19.1,M,-21.8,M,,*60
2021-06-16 12:09:58Z, 6cda8203-a249-e411-b0cc-f8bc1246af59, $GPGGA,120957.00,4437.5857,N,12402.8848,W,1,10,0.8,19.2,M,-21.8,M,,*61
2021-06-16 12:10:00Z, 6cda8203-a249-e411-b0cc-f8bc1246af59, $GPGGA,120959.00,4437.5856,N,12402.8849,W,1,10,0.8,19.4,M,-21.8,M,,*69
2021-06-16 12:10:01Z, 6cda8203-a249-e411-b0cc-f8bc1246af59, $GPGGA,121000.00,4437.5856,N,12402.8848,W,1,10,0.8,19.5,M,-21.8,M,,*6D
2021-06-16 12:10:03Z, 6cda8203-a249-e411-b0cc-f8bc1246af59, $GPGGA,121002.00,4437.5858,N,12402.8848,W,1,10,0.8,19.6,M,-21.8,M,,*62
2021-06-16 12:10:04Z, 6cda8203-a249-e411-b0cc-f8bc1246af59, $GPGGA,121003.00,4437.5859,N,12402.8848,W,1,10,0.8,19.6,M,-21.8,M,,*62
2021-06-16 12:10:06Z, 6cda8203-a249-e411-b0cc-f8bc1246af59, $GPGGA,121005.00,4437.5862,N,12402.8846,W,1,10,0.8,19.8,M,-21.8,M,,*6C
2021-06-16 12:10:07Z, 6cda8203-a249-e411-b0cc-f8bc1246af59, $GPGGA,121006.00,4437.5863,N,12402.8844,W,1,10,0.8,19.8,M,-21.8,M,,*6C
2021-06-16 12:10:09Z, 6cda8203-a249-e411-b0cc-f8bc1246af59, $GPGGA,121008.00,4437.5864,N,12402.8841,W,1,10,0.8,19.8,M,-21.8,M,,*60
2021-06-16 12:10:10Z, 6cda8203-a249-e411-b0cc-f8bc1246af59, $GPGGA,121009.00,4437.5864,N,12402.8840,W,1,10,0.8,19.8,M,-21.8,M,,*60
2021-06-16 12:10:12Z, 6cda8203-a249-e411-b0cc-f8bc1246af59, $GPGGA,121011.00,4437.5865,N,12402.8840,W,1,10,0.8,19.6,M,-21.8,M,,*66
2021-06-16 12:10:13Z, 6cda8203-a249-e411-b0cc-f8bc1246af59, $GPGGA,121012.00,4437.5866,N,12402.8841,W,1,10,0.8,19.5,M,-21.8,M,,*64
2021-06-16 12:10:15Z, 6cda8203-a249-e411-b0cc-f8bc1246af59, $GPGGA,121014.00,4437.5866,N,12402.8840,W,1,10,0.8,19.4,M,-21.8,M,,*62
2021-06-16 12:10:16Z, 6cda8203-a249-e411-b0cc-f8bc1246af59, $GPGGA,121015.00,4437.5864,N,12402.8842,W,1,10,0.8,19.3,M,-21.8,M,,*64
2021-06-16 12:10:18Z, 6cda8203-a249-e411-b0cc-f8bc1246af59, $GPGGA,121017.00,4437.5864,N,12402.8845,W,1,10,0.8,19.4,M,-21.8,M,,*66
2021-06-16 12:10:19Z, 6cda8203-a249-e411-b0cc-f8bc1246af59, $GPGGA,121018.00,4437.5863,N,12402.8845,W,1,10,0.8,19.5,M,-21.8,M,,*6F
2021-06-16 12:10:21Z, 6cda8203-a249-e411-b0cc-f8bc1246af59, $GPGGA,121020.00,4437.5862,N,12402.8840,W,1,10,0.8,19.3,M,-21.8,M,,*66
2021-06-16 12:10:22Z, 6cda8203-a249-e411-b0cc-f8bc1246af59, $GPGGA,121021.00,4437.5861,N,12402.8837,W,1,10,0.8,19.2,M,-21.8,M,,*65
2021-06-16 12:10:24Z, 6cda8203-a249-e411-b0cc-f8bc1246af59, $GPGGA,121023.00,4437.5859,N,12402.8832,W,1,10,0.8,19.2,M,-21.8,M,,*69
2021-06-16 12:10:25Z, 6cda8203-a249-e411-b0cc-f8bc1246af59, $GPGGA,121024.00,4437.5859,N,12402.8831,W,1,10,0.8,19.2,M,-21.8,M,,*6D
2021-06-16 12:10:27Z, 6cda8203-a249-e411-b0cc-f8bc1246af59, $GPGGA,121026.00,4437.5858,N,12402.8830,W,1,10,0.8,19.1,M,-21.8,M,,*6C
2021-06-16 12:10:28Z, 6cda8203-a249-e411-b0cc-f8bc1246af59, $GPGGA,121027.00,4437.5856,N,12402.8828,W,1,10,0.8,19.1,M,-21.8,M,,*6A
2021-06-16 12:10:30Z, 6cda8203-a249-e411-b0cc-f8bc1246af59, $GPGGA,121029.00,4437.5854,N,12402.8827,W,1,10,0.8,19.1,M,-21.8,M,,*69
2021-06-16 12:10:31Z, 6cda8203-a249-e411-b0cc-f8bc1246af59, $GPGGA,121030.00,4437.5854,N,12402.8825,W,1,10,0.8,19.0,M,-21.8,M,,*62
2021-06-16 12:10:33Z, 6cda8203-a249-e411-b0cc-f8bc1246af59, $GPGGA,121032.00,4437.5852,N,12402.8825,W,1,10,0.8,18.8,M,-21.8,M,,*6F
2021-06-16 12:10:34Z, 6cda8203-a249-e411-b0cc-f8bc1246af59, $GPGGA,121033.00,4437.5851,N,12402.8826,W,1,10,0.8,18.8,M,-21.8,M,,*6E
2021-06-16 12:10:36Z, 6cda8203-a249-e411-b0cc-f8bc1246af59, $GPGGA,121035.00,4437.5851,N,12402.8826,W,1,10,0.8,18.7,M,-21.8,M,,*67
2021-06-16 12:10:37Z, 6cda8203-a249-e411-b0cc-f8bc1246af59, $GPGGA,121036.00,4437.5851,N,12402.8827,W,1,10,0.8,18.7,M,-21.8,M,,*65
2021-06-16 12:10:39Z, 6cda8203-a249-e411-b0cc-f8bc1246af59, $GPGGA,121038.00,4437.5851,N,12402.8829,W,1,10,0.8,18.7,M,-21.8,M,,*65
2021-06-16 12:10:40Z, 6cda8203-a249-e411-b0cc-f8bc1246af59, $GPGGA,121039.00,4437.5852,N,12402.8829,W,1,10,0.8,18.7,M,-21.8,M,,*67
2021-06-16 12:10:42Z, 6cda8203-a249-e411-b0cc-f8bc1246af59, $GPGGA,121041.00,4437.5854,N,12402.8830,W,1,10,0.8,18.7,M,-21.8,M,,*66
2021-06-16 12:10:43Z, 6cda8203-a249-e411-b0cc-f8bc1246af59, $GPGGA,121042.00,4437.5855,N,12402.8831,W,1,10,0.8,18.6,M,-21.8,M,,*64
2021-06-16 12:10:45Z, 6cda8203-a249-e411-b0cc-f8bc1246af59, $GPGGA,121044.00,4437.5856,N,12402.8831,W,1,10,0.8,18.6,M,-21.8,M,,*61
2021-06-16 12:10:46Z, 6cda8203-a249-e411-b0cc-f8bc1246af59, $GPGGA,121045.00,4437.5857,N,12402.8829,W,1,10,0.8,18.6,M,-21.8,M,,*68
2021-06-16 12:10:48Z, 6cda8203-a249-e411-b0cc-f8bc1246af59, $GPGGA,121047.00,4437.5856,N,12402.8830,W,1,10,0.8,18.4,M,-21.8,M,,*61
2021-06-16 12:10:49Z, 6cda8203-a249-e411-b0cc-f8bc1246af59, $GPGGA,121048.00,4437.5857,N,12402.8830,W,1,10,0.8,18.3,M,-21.8,M,,*68
2021-06-16 12:10:51Z, 6cda8203-a249-e411-b0cc-f8bc1246af59, $GPGGA,121050.00,4437.5854,N,12402.8830,W,1,10,0.8,18.2,M,-21.8,M,,*63
2021-06-16 12:10:52Z, 6cda8203-a249-e411-b0cc-f8bc1246af59, $GPGGA,121051.00,4437.5852,N,12402.8829,W,1,10,0.8,18.1,M,-21.8,M,,*6F
2021-06-16 12:10:54Z, 6cda8203-a249-e411-b0cc-f8bc1246af59, $GPGGA,121053.00,4437.5849,N,12402.8833,W,1,10,0.8,18.1,M,-21.8,M,,*6C
2021-06-16 12:10:55Z, 6cda8203-a249-e411-b0cc-f8bc1246af59, $GPGGA,121054.00,4437.5849,N,12402.8836,W,1,10,0.8,18.1,M,-21.8,M,,*6E
2021-06-16 12:10:57Z, 6cda8203-a249-e411-b0cc-f8bc1246af59, $GPGGA,121056.00,4437.5851,N,12402.8837,W,1,10,0.8,18.2,M,-21.8,M,,*67
2021-06-16 12:10:58Z, 6cda8203-a249-e411-b0cc-f8bc1246af59, $GPGGA,121057.00,4437.5848,N,12402.8844,W,1,10,0.8,18.3,M,-21.8,M,,*6B
2021-06-16 12:11:00Z, 6cda8203-a249-e411-b0cc-f8bc1246af59, $GPGGA,121059.00,4437.5845,N,12402.8854,W,1,10,0.8,18.5,M,-21.8,M,,*6F
2021-06-16 12:11:01Z, 6cda8203-a249-e411-b0cc-f8bc1246af59, $GPGGA,121100.00,4437.5844,N,12402.8856,W,1,10,0.8,18.5,M,-21.8,M,,*61
2021-06-16 12:11:03Z, 6cda8203-a249-e411-b0cc-f8bc1246af59, $GPGGA,121102.00,4437.5843,N,12402.8861,W,1,10,0.8,18.7,M,-21.8,M,,*62
2021-06-16 12:11:04Z, 6cda8203-a249-e411-b0cc-f8bc1246af59, $GPGGA,121103.00,4437.5844,N,12402.8863,W,1,10,0.8,18.6,M,-21.8,M,,*67
2021-06-16 12:11:06Z, 6cda8203-a249-e411-b0cc-f8bc1246af59, $GPGGA,121105.00,4437.5844,N,12402.8867,W,1,10,0.8,18.6,M,-21.8,M,,*65
2021-06-16 12:11:07Z, 6cda8203-a249-e411-b0cc-f8bc1246af59, $GPGGA,121106.00,4437.5845,N,12402.8870,W,1,10,0.8,18.6,M,-21.8,M,,*61
2021-06-16 12:11:09Z, 6cda8203-a249-e411-b0cc-f8bc1246af59, $GPGGA,121108.00,4437.5844,N,12402.8875,W,1,10,0.8,18.5,M,-21.8,M,,*68
2021-06-16 12:11:10Z, 6cda8203-a249-e411-b0cc-f8bc1246af59, $GPGGA,121109.00,4437.5847,N,12402.8880,W,1,10,0.8,18.5,M,-21.8,M,,*60
2021-06-16 12:11:12Z, 6cda8203-a249-e411-b0cc-f8bc1246af59, $GPGGA,121111.00,4437.5852,N,12402.8883,W,1,10,0.8,18.5,M,-21.8,M,,*6E
2021-06-16 12:11:13Z, 6cda8203-a249-e411-b0cc-f8bc1246af59, $GPGGA,121112.00,4437.5852,N,12402.8884,W,1,10,0.8,18.5,M,-21.8,M,,*6A
2021-06-16 12:11:15Z, 6cda8203-a249-e411-b0cc-f8bc1246af59, $GPGGA,121114.00,4437.5858,N,12402.8889,W,1,10,0.8,18.5,M,-21.8,M,,*6B
2021-06-16 12:11:16Z, 6cda8203-a249-e411-b0cc-f8bc1246af59, $GPGGA,121115.00,4437.5861,N,12402.8889,W,1,10,0.8,18.6,M,-21.8,M,,*63
2021-06-16 12:11:18Z, 6cda8203-a249-e411-b0cc-f8bc1246af59, $GPGGA,121117.00,4437.5867,N,12402.8886,W,1,10,0.8,18.6,M,-21.8,M,,*68
2021-06-16 12:11:19Z, 6cda8203-a249-e411-b0cc-f8bc1246af59, $GPGGA,121118.00,4437.5867,N,12402.8886,W,1,10,0.8,18.6,M,-21.8,M,,*67
2021-06-16 12:11:21Z, 6cda8203-a249-e411-b0cc-f8bc1246af59, $GPGGA,121120.00,4437.5869,N,12402.8883,W,1,10,0.8,18.4,M,-21.8,M,,*65
2021-06-16 12:11:22Z, 6cda8203-a249-e411-b0cc-f8bc1246af59, $GPGGA,121121.00,4437.5868,N,12402.8883,W,1,10,0.8,18.4,M,-21.8,M,,*65
2021-06-16 12:11:24Z, 6cda8203-a249-e411-b0cc-f8bc1246af59, $GPGGA,121123.00,4437.5867,N,12402.8882,W,1,10,0.8,18.3,M,-21.8,M,,*6E
2021-06-16 12:11:25Z, 6cda8203-a249-e411-b0cc-f8bc1246af59, $GPGGA,121124.00,4437.5865,N,12402.8884,W,1,10,0.8,18.3,M,-21.8,M,,*6D
2021-06-16 12:11:27Z, 6cda8203-a249-e411-b0cc-f8bc1246af59, $GPGGA,121126.00,4437.5862,N,12402.8880,W,1,10,0.8,18.5,M,-21.8,M,,*6A
2021-06-16 12:11:28Z, 6cda8203-a249-e411-b0cc-f8bc1246af59, $GPGGA,121127.00,4437.5861,N,12402.8876,W,1,10,0.8,18.6,M,-21.8,M,,*62
2021-06-16 12:11:30Z, 6cda8203-a249-e411-b0cc-f8bc1246af59, $GPGGA,121129.00,4437.5858,N,12402.8873,W,1,10,0.8,18.8,M,-21.8,M,,*6D
2021-06-16 12:11:31Z, 6cda8203-a249-e411-b0cc-f8bc1246af59, $GPGGA,121130.00,4437.5857,N,12402.8873,W,1,10,0.8,18.8,M,-21.8,M,,*6A
2021-06-16 12:11:33Z, 6cda8203-a249-e411-b0cc-f8bc1246af59, $GPGGA,121132.00,4437.5856,N,12402.8874,W,1,10,0.8,18.5,M,-21.8,M,,*63
2021-06-16 12:11:34Z, 6cda8203-a249-e411-b0cc-f8bc1246af59, $GPGGA,121133.00,4437.5856,N,12402.8874,W,1,10,0.8,18.5,M,-21.8,M,,*62
2021-06-16 12:11:36Z, 6cda8203-a249-e411-b0cc-f8bc1246af59, $GPGGA,121135.00,4437.5856,N,12402.8873,W,1,10,0.8,18.6,M,-21.8,M,,*60
2021-06-16 12:11:37Z, 6cda8203-a249-e411-b0cc-f8bc1246af59, $GPGGA,121136.00,4437.5857,N,12402.8873,W,1,10,0.8,18.5,M,-21.8,M,,*61
2021-06-16 12:11:39Z, 6cda8203-a249-e411-b0cc-f8bc1246af59, $GPGGA,121138.00,4437.5857,N,12402.8881,W,1,10,0.8,18.1,M,-21.8,M,,*66
2021-06-16 12:11:40Z, 6cda8203-a249-e411-b0cc-f8bc1246af59, $GPGGA,121139.00,4437.5857,N,12402.8880,W,1,10,0.8,18.0,M,-21.8,M,,*67
2021-06-16 12:11:42Z, 6cda8203-a249-e411-b0cc-f8bc1246af59, $GPGGA,121141.00,4437.5854,N,12402.8880,W,1,10,0.8,18.0,M,-21.8,M,,*6B
2021-06-16 12:11:43Z, 6cda8203-a249-e411-b0cc-f8bc1246af59, $GPGGA,121142.00,4437.5854,N,12402.8883,W,1,10,0.8,18.1,M,-21.8,M,,*6A
2021-06-16 12:11:44Z, 6cda8203-a249-e411-b0cc-f8bc1246af59, $GPGGA,121143.00,4437.5854,N,12402.8884,W,1,10,0.8,18.1,M,-21.8,M,,*6C
2021-06-16 12:11:45Z, 6cda8203-a249-e411-b0cc-f8bc1246af59, $GPGGA,121144.00,4437.5856,N,12402.8885,W,1,10,0.8,18.2,M,-21.8,M,,*6B
2021-06-16 12:11:47Z, 6cda8203-a249-e411-b0cc-f8bc1246af59, $GPGGA,121145.00,4437.5856,N,12402.8886,W,1,10,0.8,18.3,M,-21.8,M,,*68
2021-06-16 12:11:47Z, 6cda8203-a249-e411-b0cc-f8bc1246af59, $GPGGA,121146.00,4437.5856,N,12402.8886,W,1,10,0.8,18.3,M,-21.8,M,,*6B
2021-06-16 12:11:49Z, 6cda8203-a249-e411-b0cc-f8bc1246af59, $GPGGA,121148.00,4437.5858,N,12402.8886,W,1,10,0.8,18.4,M,-21.8,M,,*6C
2021-06-16 12:11:50Z, 6cda8203-a249-e411-b0cc-f8bc1246af59, $GPGGA,121149.00,4437.5857,N,12402.8888,W,1,10,0.8,18.4,M,-21.8,M,,*6C
2021-06-16 12:11:52Z, 6cda8203-a249-e411-b0cc-f8bc1246af59, $GPGGA,121151.00,4437.5857,N,12402.8890,W,1,10,0.8,18.4,M,-21.8,M,,*6C
2021-06-16 12:11:53Z, 6cda8203-a249-e411-b0cc-f8bc1246af59, $GPGGA,121152.00,4437.5856,N,12402.8888,W,1,10,0.8,18.4,M,-21.8,M,,*67
2021-06-16 12:11:55Z, 6cda8203-a249-e411-b0cc-f8bc1246af59, $GPGGA,121154.00,4437.5854,N,12402.8891,W,1,10,0.8,18.1,M,-21.8,M,,*6E
2021-06-16 12:11:56Z, 6cda8203-a249-e411-b0cc-f8bc1246af59, $GPGGA,121155.00,4437.5853,N,12402.8891,W,1,10,0.8,17.9,M,-21.8,M,,*6F
2021-06-16 12:11:58Z, 6cda8203-a249-e411-b0cc-f8bc1246af59, $GPGGA,121157.00,4437.5854,N,12402.8890,W,1,10,0.8,17.7,M,-21.8,M,,*65
2021-06-16 12:11:59Z, 6cda8203-a249-e411-b0cc-f8bc1246af59, $GPGGA,121158.00,4437.5854,N,12402.8894,W,1,10,0.8,17.5,M,-21.8,M,,*6C
2021-06-16 12:12:01Z, 6cda8203-a249-e411-b0cc-f8bc1246af59, $GPGGA,121200.00,4437.5853,N,12402.8894,W,1,10,0.8,17.4,M,-21.8,M,,*64
2021-06-16 12:12:02Z, 6cda8203-a249-e411-b0cc-f8bc1246af59, $GPGGA,121201.00,4437.5853,N,12402.8895,W,1,10,0.8,17.3,M,-21.8,M,,*63
2021-06-16 12:12:04Z, 6cda8203-a249-e411-b0cc-f8bc1246af59, $GPGGA,121203.00,4437.5854,N,12402.8890,W,1,10,0.8,17.0,M,-21.8,M,,*60
2021-06-16 12:12:05Z, 6cda8203-a249-e411-b0cc-f8bc1246af59, $GPGGA,121204.00,4437.5855,N,12402.8887,W,1,10,0.8,17.0,M,-21.8,M,,*60
2021-06-16 12:12:07Z, 6cda8203-a249-e411-b0cc-f8bc1246af59, $GPGGA,121206.00,4437.5856,N,12402.8881,W,1,10,0.8,16.8,M,-21.8,M,,*6E
2021-06-16 12:12:08Z, 6cda8203-a249-e411-b0cc-f8bc1246af59, $GPGGA,121207.00,4437.5857,N,12402.8877,W,1,10,0.8,16.8,M,-21.8,M,,*67
2021-06-16 12:12:10Z, 6cda8203-a249-e411-b0cc-f8bc1246af59, $GPGGA,121209.00,4437.5856,N,12402.8874,W,1,10,0.8,16.7,M,-21.8,M,,*64
2021-06-16 12:12:11Z, 6cda8203-a249-e411-b0cc-f8bc1246af59, $GPGGA,121210.00,4437.5857,N,12402.8874,W,1,10,0.8,16.7,M,-21.8,M,,*6D
2021-06-16 12:12:13Z, 6cda8203-a249-e411-b0cc-f8bc1246af59, $GPGGA,121212.00,4437.5858,N,12402.8870,W,1,10,0.8,16.8,M,-21.8,M,,*6B
2021-06-16 12:12:14Z, 6cda8203-a249-e411-b0cc-f8bc1246af59, $GPGGA,121213.00,4437.5857,N,12402.8865,W,1,10,0.8,16.8,M,-21.8,M,,*61
2021-06-16 12:12:16Z, 6cda8203-a249-e411-b0cc-f8bc1246af59, $GPGGA,121215.00,4437.5852,N,12402.8856,W,1,10,0.8,17.0,M,-21.8,M,,*6B
2021-06-16 12:12:17Z, 6cda8203-a249-e411-b0cc-f8bc1246af59, $GPGGA,121216.00,4437.5851,N,12402.8854,W,1,10,0.8,17.1,M,-21.8,M,,*68
2021-06-16 12:12:19Z, 6cda8203-a249-e411-b0cc-f8bc1246af59, $GPGGA,121218.00,4437.5853,N,12402.8848,W,1,10,0.8,17.1,M,-21.8,M,,*69
2021-06-16 12:12:20Z, 6cda8203-a249-e411-b0cc-f8bc1246af59, $GPGGA,121219.00,4437.5851,N,12402.8848,W,1,10,0.8,17.1,M,-21.8,M,,*6A
2021-06-16 12:12:22Z, 6cda8203-a249-e411-b0cc-f8bc1246af59, $GPGGA,121221.00,4437.5851,N,12402.8851,W,1,10,0.8,17.1,M,-21.8,M,,*69
2021-06-16 12:12:23Z, 6cda8203-a249-e411-b0cc-f8bc1246af59, $GPGGA,121222.00,4437.5851,N,12402.8853,W,1,10,0.8,17.1,M,-21.8,M,,*68
2021-06-16 12:12:25Z, 6cda8203-a249-e411-b0cc-f8bc1246af59, $GPGGA,121224.00,4437.5852,N,12402.8857,W,1,10,0.8,17.0,M,-21.8,M,,*68
2021-06-16 12:12:26Z, 6cda8203-a249-e411-b0cc-f8bc1246af59, $GPGGA,121225.00,4437.5852,N,12402.8858,W,1,10,0.8,17.0,M,-21.8,M,,*66
2021-06-16 12:12:28Z, 6cda8203-a249-e411-b0cc-f8bc1246af59, $GPGGA,121227.00,4437.5852,N,12402.8862,W,1,10,0.8,17.0,M,-21.8,M,,*6D
2021-06-16 12:12:29Z, 6cda8203-a249-e411-b0cc-f8bc1246af59, $GPGGA,121228.00,4437.5852,N,12402.8863,W,1,10,0.8,17.0,M,-21.8,M,,*63
2021-06-16 12:12:31Z, 6cda8203-a249-e411-b0cc-f8bc1246af59, $GPGGA,121230.00,4437.5853,N,12402.8866,W,1,10,0.8,17.0,M,-21.8,M,,*6E
2021-06-16 12:12:32Z, 6cda8203-a249-e411-b0cc-f8bc1246af59, $GPGGA,121231.00,4437.5852,N,12402.8866,W,1,10,0.8,17.0,M,-21.8,M,,*6E
2021-06-16 12:12:34Z, 6cda8203-a249-e411-b0cc-f8bc1246af59, $GPGGA,121233.00,4437.5851,N,12402.8866,W,1,10,0.8,16.9,M,-21.8,M,,*67
2021-06-16 12:12:35Z, 6cda8203-a249-e411-b0cc-f8bc1246af59, $GPGGA,121234.00,4437.5851,N,12402.8867,W,1,10,0.8,16.9,M,-21.8,M,,*61
2021-06-16 12:12:37Z, 6cda8203-a249-e411-b0cc-f8bc1246af59, $GPGGA,121236.00,4437.5851,N,12402.8868,W,1,10,0.8,16.9,M,-21.8,M,,*6C
2021-06-16 12:12:38Z, 6cda8203-a249-e411-b0cc-f8bc1246af59, $GPGGA,121237.00,4437.5850,N,12402.8868,W,1,10,0.8,16.9,M,-21.8,M,,*6C
2021-06-16 12:12:40Z, 6cda8203-a249-e411-b0cc-f8bc1246af59, $GPGGA,121239.00,4437.5850,N,12402.8868,W,1,10,0.8,16.9,M,-21.8,M,,*62
2021-06-16 12:12:41Z, 6cda8203-a249-e411-b0cc-f8bc1246af59, $GPGGA,121240.00,4437.5850,N,12402.8869,W,1,10,0.8,16.9,M,-21.8,M,,*6D
2021-06-16 12:12:43Z, 6cda8203-a249-e411-b0cc-f8bc1246af59, $GPGGA,121242.00,4437.5850,N,12402.8869,W,1,10,0.8,16.9,M,-21.8,M,,*6F
2021-06-16 12:12:44Z, 6cda8203-a249-e411-b0cc-f8bc1246af59, $GPGGA,121243.00,4437.5849,N,12402.8868,W,1,10,0.8,16.9,M,-21.8,M,,*67
2021-06-16 12:12:46Z, 6cda8203-a249-e411-b0cc-f8bc1246af59, $GPGGA,121245.00,4437.5849,N,12402.8869,W,1,10,0.8,16.9,M,-21.8,M,,*60
2021-06-16 12:12:47Z, 6cda8203-a249-e411-b0cc-f8bc1246af59, $GPGGA,121246.00,4437.5849,N,12402.8869,W,1,10,0.8,16.9,M,-21.8,M,,*63
2021-06-16 12:12:49Z, 6cda8203-a249-e411-b0cc-f8bc1246af59, $GPGGA,121248.00,4437.5848,N,12402.8868,W,1,10,0.8,16.9,M,-21.8,M,,*6D
2021-06-16 12:12:50Z, 6cda8203-a249-e411-b0cc-f8bc1246af59, $GPGGA,121249.00,4437.5848,N,12402.8868,W,1,10,0.8,16.9,M,-21.8,M,,*6C
2021-06-16 12:12:52Z, 6cda8203-a249-e411-b0cc-f8bc1246af59, $GPGGA,121251.00,4437.5847,N,12402.8866,W,1,10,0.8,17.0,M,-21.8,M,,*6C
2021-06-16 12:12:53Z, 6cda8203-a249-e411-b0cc-f8bc1246af59, $GPGGA,121252.00,4437.5847,N,12402.8866,W,1,10,0.8,17.0,M,-21.8,M,,*6F
2021-06-16 12:12:55Z, 6cda8203-a249-e411-b0cc-f8bc1246af59, $GPGGA,121254.00,4437.5845,N,12402.8866,W,1,10,0.8,17.0,M,-21.8,M,,*6B
2021-06-16 12:12:56Z, 6cda8203-a249-e411-b0cc-f8bc1246af59, $GPGGA,121255.00,4437.5845,N,12402.8866,W,1,10,0.8,17.0,M,-21.8,M,,*6A
2021-06-16 12:12:58Z, 6cda8203-a249-e411-b0cc-f8bc1246af59, $GPGGA,121257.00,4437.5844,N,12402.8866,W,1,10,0.8,17.1,M,-21.8,M,,*68
2021-06-16 12:12:59Z, 6cda8203-a249-e411-b0cc-f8bc1246af59, $GPGGA,121258.00,4437.5844,N,12402.8866,W,1,10,0.8,17.1,M,-21.8,M,,*67
2021-06-16 12:13:01Z, 6cda8203-a249-e411-b0cc-f8bc1246af59, $GPGGA,121300.00,4437.5843,N,12402.8865,W,1,10,0.8,17.1,M,-21.8,M,,*6F
2021-06-16 12:13:02Z, 6cda8203-a249-e411-b0cc-f8bc1246af59, $GPGGA,121301.00,4437.5843,N,12402.8865,W,1,10,0.8,17.2,M,-21.8,M,,*6D
2021-06-16 12:13:04Z, 6cda8203-a249-e411-b0cc-f8bc1246af59, $GPGGA,121303.00,4437.5841,N,12402.8863,W,1,10,0.8,17.3,M,-21.8,M,,*6A
2021-06-16 12:13:05Z, 6cda8203-a249-e411-b0cc-f8bc1246af59, $GPGGA,121304.00,4437.5841,N,12402.8863,W,1,10,0.8,17.3,M,-21.8,M,,*6D
2021-06-16 12:13:07Z, 6cda8203-a249-e411-b0cc-f8bc1246af59, $GPGGA,121306.00,4437.5840,N,12402.8862,W,1,10,0.8,17.4,M,-21.8,M,,*68
2021-06-16 12:13:08Z, 6cda8203-a249-e411-b0cc-f8bc1246af59, $GPGGA,121307.00,4437.5839,N,12402.8862,W,1,10,0.8,17.4,M,-21.8,M,,*67
2021-06-16 12:13:10Z, 6cda8203-a249-e411-b0cc-f8bc1246af59, $GPGGA,121309.00,4437.5837,N,12402.8862,W,1,10,0.8,17.5,M,-21.8,M,,*66
2021-06-16 12:13:11Z, 6cda8203-a249-e411-b0cc-f8bc1246af59, $GPGGA,121310.00,4437.5836,N,12402.8862,W,1,10,0.8,17.5,M,-21.8,M,,*6F
2021-06-16 12:13:13Z, 6cda8203-a249-e411-b0cc-f8bc1246af59, $GPGGA,121312.00,4437.5835,N,12402.8862,W,1,10,0.8,17.6,M,-21.8,M,,*6D
2021-06-16 12:13:14Z, 6cda8203-a249-e411-b0cc-f8bc1246af59, $GPGGA,121313.00,4437.5835,N,12402.8862,W,1,10,0.8,17.6,M,-21.8,M,,*6C
2021-06-16 12:13:16Z, 6cda8203-a249-e411-b0cc-f8bc1246af59, $GPGGA,121315.00,4437.5834,N,12402.8860,W,1,10,0.8,17.7,M,-21.8,M,,*68
2021-06-16 12:13:17Z, 6cda8203-a249-e411-b0cc-f8bc1246af59, $GPGGA,121316.00,4437.5834,N,12402.8859,W,1,10,0.8,17.8,M,-21.8,M,,*6E
2021-06-16 12:13:19Z, 6cda8203-a249-e411-b0cc-f8bc1246af59, $GPGGA,121318.00,4437.5835,N,12402.8852,W,1,10,0.8,18.2,M,-21.8,M,,*6F
2021-06-16 12:13:20Z, 6cda8203-a249-e411-b0cc-f8bc1246af59, $GPGGA,121319.00,4437.5835,N,12402.8852,W,1,10,0.8,18.2,M,-21.8,M,,*6E
2021-06-16 12:13:22Z, 6cda8203-a249-e411-b0cc-f8bc1246af59, $GPGGA,121321.00,4437.5830,N,12402.8852,W,1,10,0.8,18.6,M,-21.8,M,,*64
2021-06-16 12:13:23Z, 6cda8203-a249-e411-b0cc-f8bc1246af59, $GPGGA,121322.00,4437.5827,N,12402.8849,W,1,10,0.8,18.7,M,-21.8,M,,*6A
2021-06-16 12:13:25Z, 6cda8203-a249-e411-b0cc-f8bc1246af59, $GPGGA,121324.00,4437.5825,N,12402.8846,W,1,10,0.8,19.2,M,-21.8,M,,*65
2021-06-16 12:13:26Z, 6cda8203-a249-e411-b0cc-f8bc1246af59, $GPGGA,121325.00,4437.5825,N,12402.8844,W,1,10,0.8,19.3,M,-21.8,M,,*67
2021-06-16 12:13:28Z, 6cda8203-a249-e411-b0cc-f8bc1246af59, $GPGGA,121327.00,4437.5828,N,12402.8837,W,1,10,0.8,20.7,M,-21.8,M,,*62
2021-06-16 12:13:29Z, 6cda8203-a249-e411-b0cc-f8bc1246af59, $GPGGA,121328.00,4437.5829,N,12402.8838,W,1,10,0.8,20.6,M,-21.8,M,,*62
2021-06-16 12:13:31Z, 6cda8203-a249-e411-b0cc-f8bc1246af59, $GPGGA,121330.00,4437.5831,N,12402.8839,W,1,10,0.8,20.4,M,-21.8,M,,*61
2021-06-16 12:13:32Z, 6cda8203-a249-e411-b0cc-f8bc1246af59, $GPGGA,121331.00,4437.5832,N,12402.8837,W,1,10,0.8,20.6,M,-21.8,M,,*6F
2021-06-16 12:13:34Z, 6cda8203-a249-e411-b0cc-f8bc1246af59, $GPGGA,121333.00,4437.5833,N,12402.8837,W,1,10,0.8,20.7,M,-21.8,M,,*6D
2021-06-16 12:13:35Z, 6cda8203-a249-e411-b0cc-f8bc1246af59, $GPGGA,121334.00,4437.5833,N,12402.8837,W,1,10,0.8,20.8,M,-21.8,M,,*65
2021-06-16 12:13:37Z, 6cda8203-a249-e411-b0cc-f8bc1246af59, $GPGGA,121336.00,4437.5831,N,12402.8837,W,1,10,0.8,20.8,M,-21.8,M,,*65
2021-06-16 12:13:38Z, 6cda8203-a249-e411-b0cc-f8bc1246af59, $GPGGA,121337.00,4437.5829,N,12402.8836,W,1,10,0.8,20.8,M,-21.8,M,,*6C
2021-06-16 12:13:40Z, 6cda8203-a249-e411-b0cc-f8bc1246af59, $GPGGA,121339.00,4437.5828,N,12402.8835,W,1,10,0.8,20.8,M,-21.8,M,,*60
2021-06-16 12:13:41Z, 6cda8203-a249-e411-b0cc-f8bc1246af59, $GPGGA,121340.00,4437.5826,N,12402.8835,W,1,10,0.8,20.8,M,-21.8,M,,*60
2021-06-16 12:13:43Z, 6cda8203-a249-e411-b0cc-f8bc1246af59, $GPGGA,121342.00,4437.5828,N,12402.8835,W,1,10,0.8,20.8,M,-21.8,M,,*6C
2021-06-16 12:13:44Z, 6cda8203-a249-e411-b0cc-f8bc1246af59, $GPGGA,121343.00,4437.5828,N,12402.8836,W,1,10,0.8,20.9,M,-21.8,M,,*6F
2021-06-16 12:13:46Z, 6cda8203-a249-e411-b0cc-f8bc1246af59, $GPGGA,121345.00,4437.5830,N,12402.8836,W,1,10,0.8,21.1,M,-21.8,M,,*69
2021-06-16 12:13:47Z, 6cda8203-a249-e411-b0cc-f8bc1246af59, $GPGGA,121346.00,4437.5828,N,12402.8838,W,1,10,0.8,21.0,M,-21.8,M,,*6C
2021-06-16 12:13:47Z, 6cda8203-a249-e411-b0cc-f8bc1246af59, $GPGGA,121347.00,4437.5827,N,12402.8838,W,1,10,0.8,20.8,M,-21.8,M,,*6B
2021-06-16 12:13:49Z, 6cda8203-a249-e411-b0cc-f8bc1246af59, $GPGGA,121348.00,4437.5826,N,12402.8837,W,1,10,0.8,20.7,M,-21.8,M,,*65
2021-06-16 12:13:50Z, 6cda8203-a249-e411-b0cc-f8bc1246af59, $GPGGA,121349.00,4437.5826,N,12402.8837,W,1,10,0.8,20.6,M,-21.8,M,,*65
2021-06-16 12:13:51Z, 6cda8203-a249-e411-b0cc-f8bc1246af59, $GPGGA,121350.00,4437.5827,N,12402.8835,W,1,10,0.8,20.7,M,-21.8,M,,*6F
2021-06-16 12:13:52Z, 6cda8203-a249-e411-b0cc-f8bc1246af59, $GPGGA,121351.00,4437.5828,N,12402.8834,W,1,10,0.8,20.7,M,-21.8,M,,*60
2021-06-16 12:13:54Z, 6cda8203-a249-e411-b0cc-f8bc1246af59, $GPGGA,121353.00,4437.5828,N,12402.8832,W,1,10,0.8,20.6,M,-21.8,M,,*65
2021-06-16 12:13:55Z, 6cda8203-a249-e411-b0cc-f8bc1246af59, $GPGGA,121354.00,4437.5827,N,12402.8830,W,1,10,0.8,20.6,M,-21.8,M,,*6F
2021-06-16 12:13:57Z, 6cda8203-a249-e411-b0cc-f8bc1246af59, $GPGGA,121356.00,4437.5827,N,12402.8825,W,1,10,0.8,20.7,M,-21.8,M,,*68
2021-06-16 12:13:58Z, 6cda8203-a249-e411-b0cc-f8bc1246af59, $GPGGA,121357.00,4437.5826,N,12402.8824,W,1,10,0.8,20.7,M,-21.8,M,,*69
2021-06-16 12:14:00Z, 6cda8203-a249-e411-b0cc-f8bc1246af59, $GPGGA,121359.00,4437.5827,N,12402.8822,W,1,10,0.8,20.6,M,-21.8,M,,*61
2021-06-16 12:14:01Z, 6cda8203-a249-e411-b0cc-f8bc1246af59, $GPGGA,121400.00,4437.5827,N,12402.8825,W,1,10,0.8,20.5,M,-21.8,M,,*6E
2021-06-16 12:14:03Z, 6cda8203-a249-e411-b0cc-f8bc1246af59, $GPGGA,121402.00,4437.5830,N,12402.8826,W,1,10,0.8,20.0,M,-21.8,M,,*6C
2021-06-16 12:14:04Z, 6cda8203-a249-e411-b0cc-f8bc1246af59, $GPGGA,121403.00,4437.5831,N,12402.8827,W,1,10,0.8,19.9,M,-21.8,M,,*6E
2021-06-16 12:14:06Z, 6cda8203-a249-e411-b0cc-f8bc1246af59, $GPGGA,121405.00,4437.5834,N,12402.8827,W,1,10,0.8,19.5,M,-21.8,M,,*61
2021-06-16 12:14:07Z, 6cda8203-a249-e411-b0cc-f8bc1246af59, $GPGGA,121406.00,4437.5835,N,12402.8829,W,1,10,0.8,19.4,M,-21.8,M,,*6C
2021-06-16 12:14:09Z, 6cda8203-a249-e411-b0cc-f8bc1246af59, $GPGGA,121408.00,4437.5840,N,12402.8827,W,1,10,0.8,19.6,M,-21.8,M,,*6C
2021-06-16 12:14:10Z, 6cda8203-a249-e411-b0cc-f8bc1246af59, $GPGGA,121409.00,4437.5843,N,12402.8826,W,1,10,0.8,19.6,M,-21.8,M,,*6F
2021-06-16 12:14:12Z, 6cda8203-a249-e411-b0cc-f8bc1246af59, $GPGGA,121411.00,4437.5845,N,12402.8825,W,1,10,0.8,19.4,M,-21.8,M,,*61
2021-06-16 12:14:13Z, 6cda8203-a249-e411-b0cc-f8bc1246af59, $GPGGA,121412.00,4437.5844,N,12402.8826,W,1,10,0.8,19.6,M,-21.8,M,,*62
2021-06-16 12:14:15Z, 6cda8203-a249-e411-b0cc-f8bc1246af59, $GPGGA,121414.00,4437.5844,N,12402.8829,W,1,10,0.8,19.7,M,-21.8,M,,*6A
2021-06-16 12:14:16Z, 6cda8203-a249-e411-b0cc-f8bc1246af59, $GPGGA,121415.00,4437.5844,N,12402.8831,W,1,10,0.8,19.7,M,-21.8,M,,*62
2021-06-16 12:14:18Z, 6cda8203-a249-e411-b0cc-f8bc1246af59, $GPGGA,121417.00,4437.5843,N,12402.8832,W,1,10,0.8,19.8,M,-21.8,M,,*6B
2021-06-16 12:14:19Z, 6cda8203-a249-e411-b0cc-f8bc1246af59, $GPGGA,121418.00,4437.5841,N,12402.8833,W,1,10,0.8,19.8,M,-21.8,M,,*67
2021-06-16 12:14:21Z, 6cda8203-a249-e411-b0cc-f8bc1246af59, $GPGGA,121420.00,4437.5840,N,12402.8836,W,1,10,0.8,19.8,M,-21.8,M,,*68
2021-06-16 12:14:22Z, 6cda8203-a249-e411-b0cc-f8bc1246af59, $GPGGA,121421.00,4437.5838,N,12402.8837,W,1,10,0.8,19.8,M,-21.8,M,,*67
2021-06-16 12:14:24Z, 6cda8203-a249-e411-b0cc-f8bc1246af59, $GPGGA,121423.00,4437.5837,N,12402.8838,W,1,10,0.8,19.8,M,-21.8,M,,*65
2021-06-16 12:14:25Z, 6cda8203-a249-e411-b0cc-f8bc1246af59, $GPGGA,121424.00,4437.5837,N,12402.8838,W,1,10,0.8,19.9,M,-21.8,M,,*63
2021-06-16 12:14:27Z, 6cda8203-a249-e411-b0cc-f8bc1246af59, $GPGGA,121426.00,4437.5833,N,12402.8836,W,1,10,0.8,20.0,M,-21.8,M,,*68
2021-06-16 12:14:28Z, 6cda8203-a249-e411-b0cc-f8bc1246af59, $GPGGA,121427.00,4437.5832,N,12402.8835,W,1,10,0.8,20.0,M,-21.8,M,,*6B
2021-06-16 12:14:30Z, 6cda8203-a249-e411-b0cc-f8bc1246af59, $GPGGA,121429.00,4437.5832,N,12402.8835,W,1,10,0.8,20.0,M,-21.8,M,,*65
2021-06-16 12:14:31Z, 6cda8203-a249-e411-b0cc-f8bc1246af59, $GPGGA,121430.00,4437.5832,N,12402.8836,W,1,10,0.8,20.0,M,-21.8,M,,*6E
2021-06-16 12:14:33Z, 6cda8203-a249-e411-b0cc-f8bc1246af59, $GPGGA,121432.00,4437.5837,N,12402.8827,W,1,10,0.8,19.0,M,-21.8,M,,*63
2021-06-16 12:14:34Z, 6cda8203-a249-e411-b0cc-f8bc1246af59, $GPGGA,121433.00,4437.5840,N,12402.8828,W,1,10,0.8,19.0,M,-21.8,M,,*6D
2021-06-16 12:14:36Z, 6cda8203-a249-e411-b0cc-f8bc1246af59, $GPGGA,121435.00,4437.5841,N,12402.8825,W,1,10,0.8,19.0,M,-21.8,M,,*67
2021-06-16 12:14:37Z, 6cda8203-a249-e411-b0cc-f8bc1246af59, $GPGGA,121436.00,4437.5843,N,12402.8823,W,1,10,0.8,18.9,M,-21.8,M,,*68
2021-06-16 12:14:39Z, 6cda8203-a249-e411-b0cc-f8bc1246af59, $GPGGA,121438.00,4437.5847,N,12402.8822,W,1,10,0.8,18.7,M,-21.8,M,,*6D
2021-06-16 12:14:40Z, 6cda8203-a249-e411-b0cc-f8bc1246af59, $GPGGA,121439.00,4437.5847,N,12402.8821,W,1,10,0.8,18.5,M,-21.8,M,,*6D
2021-06-16 12:14:42Z, 6cda8203-a249-e411-b0cc-f8bc1246af59, $GPGGA,121441.00,4437.5844,N,12402.8820,W,1,10,0.8,18.4,M,-21.8,M,,*61
2021-06-16 12:14:43Z, 6cda8203-a249-e411-b0cc-f8bc1246af59, $GPGGA,121442.00,4437.5843,N,12402.8821,W,1,10,0.8,18.3,M,-21.8,M,,*63
2021-06-16 12:14:45Z, 6cda8203-a249-e411-b0cc-f8bc1246af59, $GPGGA,121444.00,4437.5843,N,12402.8818,W,1,10,0.8,17.8,M,-21.8,M,,*6B
2021-06-16 12:14:46Z, 6cda8203-a249-e411-b0cc-f8bc1246af59, $GPGGA,121445.00,4437.5842,N,12402.8818,W,1,10,0.8,17.7,M,-21.8,M,,*64
2021-06-16 12:14:48Z, 6cda8203-a249-e411-b0cc-f8bc1246af59, $GPGGA,121447.00,4437.5842,N,12402.8816,W,1,10,0.8,17.7,M,-21.8,M,,*68
2021-06-16 12:14:49Z, 6cda8203-a249-e411-b0cc-f8bc1246af59, $GPGGA,121448.00,4437.5847,N,12402.8823,W,1,10,0.8,17.2,M,-21.8,M,,*61
2021-06-16 12:14:51Z, 6cda8203-a249-e411-b0cc-f8bc1246af59, $GPGGA,121450.00,4437.5845,N,12402.8824,W,1,10,0.8,17.3,M,-21.8,M,,*6C
2021-06-16 12:14:52Z, 6cda8203-a249-e411-b0cc-f8bc1246af59, $GPGGA,121451.00,4437.5844,N,12402.8824,W,1,10,0.8,17.2,M,-21.8,M,,*6D
2021-06-16 12:14:54Z, 6cda8203-a249-e411-b0cc-f8bc1246af59, $GPGGA,121453.00,4437.5843,N,12402.8823,W,1,10,0.8,17.1,M,-21.8,M,,*6C
2021-06-16 12:14:55Z, 6cda8203-a249-e411-b0cc-f8bc1246af59, $GPGGA,121454.00,4437.5842,N,12402.8824,W,1,10,0.8,17.1,M,-21.8,M,,*6D
2021-06-16 12:14:57Z, 6cda8203-a249-e411-b0cc-f8bc1246af59, $GPGGA,121456.00,4437.5840,N,12402.8826,W,1,10,0.8,17.0,M,-21.8,M,,*6E
2021-06-16 12:14:58Z, 6cda8203-a249-e411-b0cc-f8bc1246af59, $GPGGA,121457.00,4437.5839,N,12402.8827,W,1,10,0.8,17.0,M,-21.8,M,,*60
2021-06-16 12:15:00Z, 6cda8203-a249-e411-b0cc-f8bc1246af59, $GPGGA,121459.00,4437.5839,N,12402.8827,W,1,10,0.8,17.0,M,-21.8,M,,*6E
2021-06-16 12:15:01Z, 6cda8203-a249-e411-b0cc-f8bc1246af59, $GPGGA,121500.00,4437.5839,N,12402.8827,W,1,10,0.8,17.0,M,-21.8,M,,*63
2021-06-16 12:15:03Z, 6cda8203-a249-e411-b0cc-f8bc1246af59, $GPGGA,121502.00,4437.5838,N,12402.8828,W,1,10,0.8,17.1,M,-21.8,M,,*6E
2021-06-16 12:15:04Z, 6cda8203-a249-e411-b0cc-f8bc1246af59, $GPGGA,121503.00,4437.5836,N,12402.8829,W,1,10,0.8,17.1,M,-21.8,M,,*60
2021-06-16 12:15:06Z, 6cda8203-a249-e411-b0cc-f8bc1246af59, $GPGGA,121505.00,4437.5838,N,12402.8826,W,1,10,0.8,17.0,M,-21.8,M,,*66
2021-06-16 12:15:07Z, 6cda8203-a249-e411-b0cc-f8bc1246af59, $GPGGA,121506.00,4437.5839,N,12402.8828,W,1,10,0.8,16.9,M,-21.8,M,,*62
2021-06-16 12:15:09Z, 6cda8203-a249-e411-b0cc-f8bc1246af59, $GPGGA,121508.00,4437.5841,N,12402.8848,W,1,10,0.8,16.3,M,-21.8,M,,*6F
2021-06-16 12:15:10Z, 6cda8203-a249-e411-b0cc-f8bc1246af59, $GPGGA,121509.00,4437.5842,N,12402.8851,W,1,10,0.8,16.2,M,-21.8,M,,*64
2021-06-16 12:15:12Z, 6cda8203-a249-e411-b0cc-f8bc1246af59, $GPGGA,121511.00,4437.5839,N,12402.8852,W,1,10,0.8,16.1,M,-21.8,M,,*61
2021-06-16 12:15:13Z, 6cda8203-a249-e411-b0cc-f8bc1246af59, $GPGGA,121512.00,4437.5838,N,12402.8854,W,1,10,0.8,16.0,M,-21.8,M,,*64
2021-06-16 12:15:15Z, 6cda8203-a249-e411-b0cc-f8bc1246af59, $GPGGA,121514.00,4437.5835,N,12402.8864,W,1,10,0.8,15.8,M,-21.8,M,,*67
2021-06-16 12:15:16Z, 6cda8203-a249-e411-b0cc-f8bc1246af59, $GPGGA,121515.00,4437.5834,N,12402.8867,W,1,10,0.8,15.8,M,-21.8,M,,*64
2021-06-16 12:15:18Z, 6cda8203-a249-e411-b0cc-f8bc1246af59, $GPGGA,121517.00,4437.5835,N,12402.8868,W,1,10,0.8,16.0,M,-21.8,M,,*63
2021-06-16 12:15:19Z, 6cda8203-a249-e411-b0cc-f8bc1246af59, $GPGGA,121518.00,4437.5835,N,12402.8869,W,1,10,0.8,16.1,M,-21.8,M,,*6C
2021-06-16 12:15:21Z, 6cda8203-a249-e411-b0cc-f8bc1246af59, $GPGGA,121520.00,4437.5835,N,12402.8866,W,1,10,0.8,16.2,M,-21.8,M,,*6B
2021-06-16 12:15:22Z, 6cda8203-a249-e411-b0cc-f8bc1246af59, $GPGGA,121521.00,4437.5836,N,12402.8864,W,1,10,0.8,16.3,M,-21.8,M,,*6A
2021-06-16 12:15:24Z, 6cda8203-a249-e411-b0cc-f8bc1246af59, $GPGGA,121523.00,4437.5839,N,12402.8860,W,1,10,0.8,16.3,M,-21.8,M,,*63
2021-06-16 12:15:25Z, 6cda8203-a249-e411-b0cc-f8bc1246af59, $GPGGA,121524.00,4437.5838,N,12402.8858,W,1,10,0.8,16.3,M,-21.8,M,,*6E
2021-06-16 12:15:27Z, 6cda8203-a249-e411-b0cc-f8bc1246af59, $GPGGA,121526.00,4437.5839,N,12402.8855,W,1,10,0.8,16.3,M,-21.8,M,,*60
2021-06-16 12:15:28Z, 6cda8203-a249-e411-b0cc-f8bc1246af59, $GPGGA,121527.00,4437.5839,N,12402.8852,W,1,10,0.8,16.3,M,-21.8,M,,*66
2021-06-16 12:15:30Z, 6cda8203-a249-e411-b0cc-f8bc1246af59, $GPGGA,121529.00,4437.5841,N,12402.8849,W,1,10,0.8,16.4,M,-21.8,M,,*6A
2021-06-16 12:15:31Z, 6cda8203-a249-e411-b0cc-f8bc1246af59, $GPGGA,121530.00,4437.5845,N,12402.8851,W,1,10,0.8,16.7,M,-21.8,M,,*6C
2021-06-16 12:15:33Z, 6cda8203-a249-e411-b0cc-f8bc1246af59, $GPGGA,121532.00,4437.5846,N,12402.8855,W,1,10,0.8,16.8,M,-21.8,M,,*66
2021-06-16 12:15:34Z, 6cda8203-a249-e411-b0cc-f8bc1246af59, $GPGGA,121533.00,4437.5847,N,12402.8856,W,1,10,0.8,16.8,M,-21.8,M,,*65
2021-06-16 12:15:36Z, 6cda8203-a249-e411-b0cc-f8bc1246af59, $GPGGA,121535.00,4437.5850,N,12402.8860,W,1,10,0.8,17.0,M,-21.8,M,,*69
2021-06-16 12:15:37Z, 6cda8203-a249-e411-b0cc-f8bc1246af59, $GPGGA,121536.00,4437.5852,N,12402.8859,W,1,10,0.8,17.1,M,-21.8,M,,*63
2021-06-16 12:15:39Z, 6cda8203-a249-e411-b0cc-f8bc1246af59, $GPGGA,121538.00,4437.5856,N,12402.8859,W,1,10,0.8,17.3,M,-21.8,M,,*6B
2021-06-16 12:15:40Z, 6cda8203-a249-e411-b0cc-f8bc1246af59, $GPGGA,121539.00,4437.5857,N,12402.8859,W,1,10,0.8,17.4,M,-21.8,M,,*6C
2021-06-16 12:15:42Z, 6cda8203-a249-e411-b0cc-f8bc1246af59, $GPGGA,121541.00,4437.5858,N,12402.8858,W,1,10,0.8,17.6,M,-21.8,M,,*6F
2021-06-16 12:15:43Z, 6cda8203-a249-e411-b0cc-f8bc1246af59, $GPGGA,121542.00,4437.5857,N,12402.8859,W,1,10,0.8,17.6,M,-21.8,M,,*62
2021-06-16 12:15:45Z, 6cda8203-a249-e411-b0cc-f8bc1246af59, $GPGGA,121544.00,4437.5854,N,12402.8862,W,1,10,0.8,17.8,M,-21.8,M,,*61
2021-06-16 12:15:46Z, 6cda8203-a249-e411-b0cc-f8bc1246af59, $GPGGA,121545.00,4437.5852,N,12402.8864,W,1,10,0.8,17.8,M,-21.8,M,,*60
2021-06-16 12:15:48Z, 6cda8203-a249-e411-b0cc-f8bc1246af59, $GPGGA,121547.00,4437.5850,N,12402.8862,W,1,10,0.8,17.7,M,-21.8,M,,*69
2021-06-16 12:15:49Z, 6cda8203-a249-e411-b0cc-f8bc1246af59, $GPGGA,121548.00,4437.5851,N,12402.8859,W,1,10,0.8,17.8,M,-21.8,M,,*60
2021-06-16 12:15:51Z, 6cda8203-a249-e411-b0cc-f8bc1246af59, $GPGGA,121550.00,4437.5850,N,12402.8860,W,1,10,0.8,17.9,M,-21.8,M,,*63
2021-06-16 12:15:52Z, 6cda8203-a249-e411-b0cc-f8bc1246af59, $GPGGA,121551.00,4437.5849,N,12402.8859,W,1,10,0.8,17.9,M,-21.8,M,,*60
2021-06-16 12:15:52Z, 6cda8203-a249-e411-b0cc-f8bc1246af59, $GPGGA,121552.00,4437.5848,N,12402.8858,W,1,10,0.8,18.1,M,-21.8,M,,*64
2021-06-16 12:15:54Z, 6cda8203-a249-e411-b0cc-f8bc1246af59, $GPGGA,121553.00,4437.5845,N,12402.8857,W,1,10,0.8,18.2,M,-21.8,M,,*64
2021-06-16 12:15:55Z, 6cda8203-a249-e411-b0cc-f8bc1246af59, $GPGGA,121554.00,4437.5846,N,12402.8857,W,1,10,0.8,18.2,M,-21.8,M,,*60
2021-06-16 12:15:56Z, 6cda8203-a249-e411-b0cc-f8bc1246af59, $GPGGA,121555.00,4437.5848,N,12402.8855,W,1,10,0.8,18.3,M,-21.8,M,,*6C
2021-06-16 12:15:57Z, 6cda8203-a249-e411-b0cc-f8bc1246af59, $GPGGA,121556.00,4437.5848,N,12402.8855,W,1,10,0.8,18.3,M,-21.8,M,,*6F
2021-06-16 12:15:59Z, 6cda8203-a249-e411-b0cc-f8bc1246af59, $GPGGA,121558.00,4437.5849,N,12402.8855,W,1,10,0.8,18.3,M,-21.8,M,,*60
2021-06-16 12:16:00Z, 6cda8203-a249-e411-b0cc-f8bc1246af59, $GPGGA,121559.00,4437.5848,N,12402.8854,W,1,10,0.8,18.3,M,-21.8,M,,*61
2021-06-16 12:16:02Z, 6cda8203-a249-e411-b0cc-f8bc1246af59, $GPGGA,121601.00,4437.5848,N,12402.8852,W,1,10,0.8,18.3,M,-21.8,M,,*69
2021-06-16 12:16:03Z, 6cda8203-a249-e411-b0cc-f8bc1246af59, $GPGGA,121602.00,4437.5848,N,12402.8851,W,1,10,0.8,18.4,M,-21.8,M,,*6E
2021-06-16 12:16:05Z, 6cda8203-a249-e411-b0cc-f8bc1246af59, $GPGGA,121604.00,4437.5850,N,12402.8850,W,1,10,0.8,18.6,M,-21.8,M,,*62
2021-06-16 12:16:06Z, 6cda8203-a249-e411-b0cc-f8bc1246af59, $GPGGA,121605.00,4437.5851,N,12402.8849,W,1,10,0.8,18.7,M,-21.8,M,,*6B
2021-06-16 12:16:08Z, 6cda8203-a249-e411-b0cc-f8bc1246af59, $GPGGA,121607.00,4437.5852,N,12402.8846,W,1,10,0.8,18.7,M,-21.8,M,,*65
2021-06-16 12:16:09Z, 6cda8203-a249-e411-b0cc-f8bc1246af59, $GPGGA,121608.00,4437.5849,N,12402.8836,W,1,10,0.8,18.6,M,-21.8,M,,*66
2021-06-16 12:16:11Z, 6cda8203-a249-e411-b0cc-f8bc1246af59, $GPGGA,121610.00,4437.5849,N,12402.8833,W,1,10,0.8,18.5,M,-21.8,M,,*69
2021-06-16 12:16:12Z, 6cda8203-a249-e411-b0cc-f8bc1246af59, $GPGGA,121611.00,4437.5851,N,12402.8832,W,1,10,0.8,18.4,M,-21.8,M,,*61
2021-06-16 12:16:14Z, 6cda8203-a249-e411-b0cc-f8bc1246af59, $GPGGA,121613.00,4437.5851,N,12402.8829,W,1,10,0.8,18.3,M,-21.8,M,,*6E
2021-06-16 12:16:15Z, 6cda8203-a249-e411-b0cc-f8bc1246af59, $GPGGA,121614.00,4437.5850,N,12402.8828,W,1,10,0.8,18.2,M,-21.8,M,,*68
2021-06-16 12:16:17Z, 6cda8203-a249-e411-b0cc-f8bc1246af59, $GPGGA,121616.00,4437.5849,N,12402.8826,W,1,10,0.8,18.0,M,-21.8,M,,*6E
2021-06-16 12:16:18Z, 6cda8203-a249-e411-b0cc-f8bc1246af59, $GPGGA,121617.00,4437.5850,N,12402.8823,W,1,10,0.8,17.8,M,-21.8,M,,*65
2021-06-16 12:16:20Z, 6cda8203-a249-e411-b0cc-f8bc1246af59, $GPGGA,121619.00,4437.5851,N,12402.8822,W,1,10,0.8,17.8,M,-21.8,M,,*6B
2021-06-16 12:16:21Z, 6cda8203-a249-e411-b0cc-f8bc1246af59, $GPGGA,121620.00,4437.5852,N,12402.8821,W,1,10,0.8,17.8,M,-21.8,M,,*61
2021-06-16 12:16:23Z, 6cda8203-a249-e411-b0cc-f8bc1246af59, $GPGGA,121622.00,4437.5851,N,12402.8823,W,1,10,0.8,17.7,M,-21.8,M,,*6D
2021-06-16 12:16:24Z, 6cda8203-a249-e411-b0cc-f8bc1246af59, $GPGGA,121623.00,4437.5849,N,12402.8825,W,1,10,0.8,17.6,M,-21.8,M,,*62
2021-06-16 12:16:26Z, 6cda8203-a249-e411-b0cc-f8bc1246af59, $GPGGA,121625.00,4437.5845,N,12402.8825,W,1,10,0.8,17.0,M,-21.8,M,,*6E
2021-06-16 12:16:27Z, 6cda8203-a249-e411-b0cc-f8bc1246af59, $GPGGA,121626.00,4437.5844,N,12402.8826,W,1,10,0.8,16.9,M,-21.8,M,,*67
2021-06-16 12:16:29Z, 6cda8203-a249-e411-b0cc-f8bc1246af59, $GPGGA,121628.00,4437.5843,N,12402.8828,W,1,10,0.8,16.6,M,-21.8,M,,*6F
2021-06-16 12:16:30Z, 6cda8203-a249-e411-b0cc-f8bc1246af59, $GPGGA,121629.00,4437.5842,N,12402.8827,W,1,10,0.8,16.5,M,-21.8,M,,*63
2021-06-16 12:16:32Z, 6cda8203-a249-e411-b0cc-f8bc1246af59, $GPGGA,121631.00,4437.5841,N,12402.8829,W,1,10,0.8,16.3,M,-21.8,M,,*61
2021-06-16 12:16:33Z, 6cda8203-a249-e411-b0cc-f8bc1246af59, $GPGGA,121632.00,4437.5841,N,12402.8828,W,1,10,0.8,16.2,M,-21.8,M,,*62
2021-06-16 12:16:35Z, 6cda8203-a249-e411-b0cc-f8bc1246af59, $GPGGA,121634.00,4437.5840,N,12402.8831,W,1,10,0.8,15.9,M,-21.8,M,,*65
2021-06-16 12:16:36Z, 6cda8203-a249-e411-b0cc-f8bc1246af59, $GPGGA,121635.00,4437.5841,N,12402.8832,W,1,10,0.8,15.9,M,-21.8,M,,*66
2021-06-16 12:16:38Z, 6cda8203-a249-e411-b0cc-f8bc1246af59, $GPGGA,121637.00,4437.5841,N,12402.8834,W,1,10,0.8,15.5,M,-21.8,M,,*6E
2021-06-16 12:16:39Z, 6cda8203-a249-e411-b0cc-f8bc1246af59, $GPGGA,121638.00,4437.5841,N,12402.8836,W,1,10,0.8,15.4,M,-21.8,M,,*62
2021-06-16 12:16:41Z, 6cda8203-a249-e411-b0cc-f8bc1246af59, $GPGGA,121640.00,4437.5842,N,12402.8840,W,1,10,0.8,15.1,M,-21.8,M,,*6A
2021-06-16 12:16:42Z, 6cda8203-a249-e411-b0cc-f8bc1246af59, $GPGGA,121641.00,4437.5843,N,12402.8841,W,1,10,0.8,15.2,M,-21.8,M,,*68
2021-06-16 12:16:44Z, 6cda8203-a249-e411-b0cc-f8bc1246af59, $GPGGA,121643.00,4437.5846,N,12402.8844,W,1,10,0.8,15.3,M,-21.8,M,,*6B
2021-06-16 12:16:45Z, 6cda8203-a249-e411-b0cc-f8bc1246af59, $GPGGA,121644.00,4437.5848,N,12402.8845,W,1,10,0.8,15.4,M,-21.8,M,,*64
2021-06-16 12:16:47Z, 6cda8203-a249-e411-b0cc-f8bc1246af59, $GPGGA,121646.00,4437.5847,N,12402.8844,W,1,10,0.8,15.3,M,-21.8,M,,*6F
2021-06-16 12:16:48Z, 6cda8203-a249-e411-b0cc-f8bc1246af59, $GPGGA,121647.00,4437.5847,N,12402.8841,W,1,10,0.8,15.1,M,-21.8,M,,*69
2021-06-16 12:16:50Z, 6cda8203-a249-e411-b0cc-f8bc1246af59, $GPGGA,121649.00,4437.5851,N,12402.8842,W,1,10,0.8,14.7,M,-21.8,M,,*64
2021-06-16 12:16:51Z, 6cda8203-a249-e411-b0cc-f8bc1246af59, $GPGGA,121650.00,4437.5853,N,12402.8841,W,1,10,0.8,14.6,M,-21.8,M,,*6C
2021-06-16 12:16:53Z, 6cda8203-a249-e411-b0cc-f8bc1246af59, $GPGGA,121652.00,4437.5855,N,12402.8840,W,1,10,0.8,14.2,M,-21.8,M,,*6D
2021-06-16 12:16:54Z, 6cda8203-a249-e411-b0cc-f8bc1246af59, $GPGGA,121653.00,4437.5856,N,12402.8839,W,1,10,0.8,14.1,M,-21.8,M,,*62
2021-06-16 12:16:56Z, 6cda8203-a249-e411-b0cc-f8bc1246af59, $GPGGA,121655.00,4437.5860,N,12402.8835,W,1,10,0.8,13.7,M,-21.8,M,,*6C
2021-06-16 12:16:57Z, 6cda8203-a249-e411-b0cc-f8bc1246af59, $GPGGA,121656.00,4437.5860,N,12402.8834,W,1,10,0.8,13.6,M,-21.8,M,,*6F
2021-06-16 12:16:59Z, 6cda8203-a249-e411-b0cc-f8bc1246af59, $GPGGA,121658.00,4437.5857,N,12402.8837,W,1,10,0.8,13.6,M,-21.8,M,,*66
2021-06-16 12:17:00Z, 6cda8203-a249-e411-b0cc-f8bc1246af59, $GPGGA,121659.00,4437.5858,N,12402.8836,W,1,10,0.8,13.7,M,-21.8,M,,*68
2021-06-16 12:17:02Z, 6cda8203-a249-e411-b0cc-f8bc1246af59, $GPGGA,121701.00,4437.5860,N,12402.8838,W,1,10,0.8,13.6,M,-21.8,M,,*60
2021-06-16 12:17:03Z, 6cda8203-a249-e411-b0cc-f8bc1246af59, $GPGGA,121702.00,4437.5861,N,12402.8841,W,1,10,0.8,13.5,M,-21.8,M,,*6F
2021-06-16 12:17:05Z, 6cda8203-a249-e411-b0cc-f8bc1246af59, $GPGGA,121704.00,4437.5864,N,12402.8844,W,1,10,0.8,13.3,M,-21.8,M,,*6F
2021-06-16 12:17:06Z, 6cda8203-a249-e411-b0cc-f8bc1246af59, $GPGGA,121705.00,4437.5865,N,12402.8844,W,1,10,0.8,13.2,M,-21.8,M,,*6E
2021-06-16 12:17:08Z, 6cda8203-a249-e411-b0cc-f8bc1246af59, $GPGGA,121707.00,4437.5868,N,12402.8844,W,1,10,0.8,13.2,M,-21.8,M,,*61
2021-06-16 12:17:09Z, 6cda8203-a249-e411-b0cc-f8bc1246af59, $GPGGA,121708.00,4437.5868,N,12402.8847,W,1,10,0.8,13.2,M,-21.8,M,,*6D
2021-06-16 12:17:11Z, 6cda8203-a249-e411-b0cc-f8bc1246af59, $GPGGA,121710.00,4437.5869,N,12402.8851,W,1,10,0.8,13.1,M,-21.8,M,,*61
2021-06-16 12:17:12Z, 6cda8203-a249-e411-b0cc-f8bc1246af59, $GPGGA,121711.00,4437.5870,N,12402.8852,W,1,10,0.8,13.1,M,-21.8,M,,*6B
2021-06-16 12:17:14Z, 6cda8203-a249-e411-b0cc-f8bc1246af59, $GPGGA,121713.00,4437.5872,N,12402.8856,W,1,10,0.8,13.2,M,-21.8,M,,*6C
2021-06-16 12:17:15Z, 6cda8203-a249-e411-b0cc-f8bc1246af59, $GPGGA,121714.00,4437.5873,N,12402.8857,W,1,10,0.8,13.2,M,-21.8,M,,*6B
2021-06-16 12:17:17Z, 6cda8203-a249-e411-b0cc-f8bc1246af59, $GPGGA,121716.00,4437.5872,N,12402.8857,W,1,10,0.8,13.4,M,-21.8,M,,*6E
2021-06-16 12:17:18Z, 6cda8203-a249-e411-b0cc-f8bc1246af59, $GPGGA,121717.00,4437.5865,N,12402.8861,W,1,10,0.8,13.9,M,-21.8,M,,*61
2021-06-16 12:17:20Z, 6cda8203-a249-e411-b0cc-f8bc1246af59, $GPGGA,121719.00,4437.5864,N,12402.8862,W,1,10,0.8,14.0,M,-21.8,M,,*63
2021-06-16 12:17:21Z, 6cda8203-a249-e411-b0cc-f8bc1246af59, $GPGGA,121720.00,4437.5864,N,12402.8863,W,1,11,0.8,14.2,M,-21.8,M,,*6B
2021-06-16 12:17:23Z, 6cda8203-a249-e411-b0cc-f8bc1246af59, $GPGGA,121722.00,4437.5863,N,12402.8863,W,1,11,0.8,14.3,M,-21.8,M,,*6F
2021-06-16 12:17:24Z, 6cda8203-a249-e411-b0cc-f8bc1246af59, $GPGGA,121723.00,4437.5862,N,12402.8863,W,1,11,0.8,14.4,M,-21.8,M,,*68
2021-06-16 12:17:26Z, 6cda8203-a249-e411-b0cc-f8bc1246af59, $GPGGA,121725.00,4437.5859,N,12402.8863,W,1,11,0.8,14.5,M,-21.8,M,,*67
2021-06-16 12:17:27Z, 6cda8203-a249-e411-b0cc-f8bc1246af59, $GPGGA,121726.00,4437.5858,N,12402.8862,W,1,11,0.8,14.5,M,-21.8,M,,*64
2021-06-16 12:17:29Z, 6cda8203-a249-e411-b0cc-f8bc1246af59, $GPGGA,121728.00,4437.5860,N,12402.8863,W,1,11,0.8,14.4,M,-21.8,M,,*61
2021-06-16 12:17:30Z, 6cda8203-a249-e411-b0cc-f8bc1246af59, $GPGGA,121729.00,4437.5858,N,12402.8862,W,1,11,0.8,14.4,M,-21.8,M,,*6A
2021-06-16 12:17:32Z, 6cda8203-a249-e411-b0cc-f8bc1246af59, $GPGGA,121731.00,4437.5858,N,12402.8864,W,1,11,0.8,14.5,M,-21.8,M,,*64
2021-06-16 12:17:33Z, 6cda8203-a249-e411-b0cc-f8bc1246af59, $GPGGA,121732.00,4437.5857,N,12402.8859,W,1,11,0.8,14.4,M,-21.8,M,,*67
2021-06-16 12:17:35Z, 6cda8203-a249-e411-b0cc-f8bc1246af59, $GPGGA,121734.00,4437.5857,N,12402.8860,W,1,11,0.8,14.3,M,-21.8,M,,*6C
2021-06-16 12:17:36Z, 6cda8203-a249-e411-b0cc-f8bc1246af59, $GPGGA,121735.00,4437.5857,N,12402.8862,W,1,11,0.8,14.3,M,-21.8,M,,*6F
2021-06-16 12:17:38Z, 6cda8203-a249-e411-b0cc-f8bc1246af59, $GPGGA,121737.00,4437.5854,N,12402.8862,W,1,11,0.8,14.2,M,-21.8,M,,*6F
2021-06-16 12:17:39Z, 6cda8203-a249-e411-b0cc-f8bc1246af59, $GPGGA,121738.00,4437.5854,N,12402.8859,W,1,11,0.8,14.3,M,-21.8,M,,*69
2021-06-16 12:17:41Z, 6cda8203-a249-e411-b0cc-f8bc1246af59, $GPGGA,121740.00,4437.5854,N,12402.8861,W,1,11,0.8,14.3,M,-21.8,M,,*6D
2021-06-16 12:17:42Z, 6cda8203-a249-e411-b0cc-f8bc1246af59, $GPGGA,121741.00,4437.5854,N,12402.8861,W,1,11,0.8,14.3,M,-21.8,M,,*6C
2021-06-16 12:17:44Z, 6cda8203-a249-e411-b0cc-f8bc1246af59, $GPGGA,121743.00,4437.5853,N,12402.8863,W,1,11,0.8,14.2,M,-21.8,M,,*6A
2021-06-16 12:17:45Z, 6cda8203-a249-e411-b0cc-f8bc1246af59, $GPGGA,121744.00,4437.5853,N,12402.8863,W,1,11,0.8,14.3,M,-21.8,M,,*6C
2021-06-16 12:17:47Z, 6cda8203-a249-e411-b0cc-f8bc1246af59, $GPGGA,121746.00,4437.5853,N,12402.8865,W,1,11,0.8,14.3,M,-21.8,M,,*68
2021-06-16 12:17:48Z, 6cda8203-a249-e411-b0cc-f8bc1246af59, $GPGGA,121747.00,4437.5853,N,12402.8864,W,1,11,0.8,14.3,M,-21.8,M,,*68
2021-06-16 12:17:50Z, 6cda8203-a249-e411-b0cc-f8bc1246af59, $GPGGA,121749.00,4437.5852,N,12402.8863,W,1,11,0.8,14.3,M,-21.8,M,,*60
2021-06-16 12:17:51Z, 6cda8203-a249-e411-b0cc-f8bc1246af59, $GPGGA,121750.00,4437.5852,N,12402.8863,W,1,11,0.8,14.3,M,-21.8,M,,*68
2021-06-16 12:17:53Z, 6cda8203-a249-e411-b0cc-f8bc1246af59, $GPGGA,121752.00,4437.5852,N,12402.8862,W,1,11,0.8,14.3,M,-21.8,M,,*6B
2021-06-16 12:17:54Z, 6cda8203-a249-e411-b0cc-f8bc1246af59, $GPGGA,121753.00,4437.5852,N,12402.8862,W,1,11,0.8,14.3,M,-21.8,M,,*6A
2021-06-16 12:17:56Z, 6cda8203-a249-e411-b0cc-f8bc1246af59, $GPGGA,121755.00,4437.5852,N,12402.8862,W,1,11,0.8,14.3,M,-21.8,M,,*6C
2021-06-16 12:17:57Z, 6cda8203-a249-e411-b0cc-f8bc1246af59, $GPGGA,121756.00,4437.5852,N,12402.8862,W,1,11,0.8,14.3,M,-21.8,M,,*6F
2021-06-16 12:17:57Z, 6cda8203-a249-e411-b0cc-f8bc1246af59, $GPGGA,121757.00,4437.5852,N,12402.8862,W,1,10,0.8,14.2,M,-21.8,M,,*6E
2021-06-16 12:17:59Z, 6cda8203-a249-e411-b0cc-f8bc1246af59, $GPGGA,121758.00,4437.5852,N,12402.8862,W,1,11,0.8,14.3,M,-21.8,M,,*61
2021-06-16 12:18:00Z, 6cda8203-a249-e411-b0cc-f8bc1246af59, $GPGGA,121759.00,4437.5852,N,12402.8862,W,1,11,0.8,14.2,M,-21.8,M,,*61
2021-06-16 12:18:01Z, 6cda8203-a249-e411-b0cc-f8bc1246af59, $GPGGA,121800.00,4437.5851,N,12402.8861,W,1,11,0.8,14.2,M,-21.8,M,,*62
2021-06-16 12:18:03Z, 6cda8203-a249-e411-b0cc-f8bc1246af59, $GPGGA,121801.00,4437.5851,N,12402.8861,W,1,10,0.8,14.3,M,-21.8,M,,*63
2021-06-16 12:18:04Z, 6cda8203-a249-e411-b0cc-f8bc1246af59, $GPGGA,121803.00,4437.5851,N,12402.8861,W,1,10,0.8,14.3,M,-21.8,M,,*61
2021-06-16 12:18:05Z, 6cda8203-a249-e411-b0cc-f8bc1246af59, $GPGGA,121804.00,4437.5850,N,12402.8861,W,1,10,0.8,14.3,M,-21.8,M,,*67
2021-06-16 12:18:07Z, 6cda8203-a249-e411-b0cc-f8bc1246af59, $GPGGA,121806.00,4437.5849,N,12402.8860,W,1,11,0.8,14.3,M,-21.8,M,,*6D
2021-06-16 12:18:08Z, 6cda8203-a249-e411-b0cc-f8bc1246af59, $GPGGA,121807.00,4437.5849,N,12402.8859,W,1,11,0.8,14.3,M,-21.8,M,,*66
2021-06-16 12:18:10Z, 6cda8203-a249-e411-b0cc-f8bc1246af59, $GPGGA,121809.00,4437.5848,N,12402.8857,W,1,11,0.8,14.3,M,-21.8,M,,*67
2021-06-16 12:18:11Z, 6cda8203-a249-e411-b0cc-f8bc1246af59, $GPGGA,121810.00,4437.5847,N,12402.8856,W,1,11,0.8,14.3,M,-21.8,M,,*61
2021-06-16 12:18:13Z, 6cda8203-a249-e411-b0cc-f8bc1246af59, $GPGGA,121812.00,4437.5845,N,12402.8855,W,1,11,0.8,14.3,M,-21.8,M,,*62
2021-06-16 12:18:14Z, 6cda8203-a249-e411-b0cc-f8bc1246af59, $GPGGA,121813.00,4437.5844,N,12402.8854,W,1,11,0.8,14.3,M,-21.8,M,,*63
2021-06-16 12:18:16Z, 6cda8203-a249-e411-b0cc-f8bc1246af59, $GPGGA,121815.00,4437.5842,N,12402.8852,W,1,11,0.8,14.3,M,-21.8,M,,*65
2021-06-16 12:18:17Z, 6cda8203-a249-e411-b0cc-f8bc1246af59, $GPGGA,121816.00,4437.5841,N,12402.8852,W,1,11,0.8,14.3,M,-21.8,M,,*65
2021-06-16 12:18:19Z, 6cda8203-a249-e411-b0cc-f8bc1246af59, $GPGGA,121818.00,4437.5839,N,12402.8851,W,1,11,0.8,14.3,M,-21.8,M,,*67
2021-06-16 12:18:20Z, 6cda8203-a249-e411-b0cc-f8bc1246af59, $GPGGA,121819.00,4437.5837,N,12402.8850,W,1,11,0.8,14.3,M,-21.8,M,,*69
2021-06-16 12:18:22Z, 6cda8203-a249-e411-b0cc-f8bc1246af59, $GPGGA,121821.00,4437.5835,N,12402.8848,W,1,11,0.8,14.3,M,-21.8,M,,*69
2021-06-16 12:18:23Z, 6cda8203-a249-e411-b0cc-f8bc1246af59, $GPGGA,121822.00,4437.5834,N,12402.8848,W,1,11,0.8,14.4,M,-21.8,M,,*6C
