ACQ Timestamp (Server Time in UTC), MessageID, Data Value For: GNSS-6452-$GPGGA
2021-07-18 20:54:44Z, 6cda8203-a249-e411-b0cc-f8bc1246af59, $GPGGA,205446.00,4437.5839,N,12402.8869,W,1,09,0.8,27.0,M,-21.8,M,,*64
2021-07-18 20:54:45Z, 6cda8203-a249-e411-b0cc-f8bc1246af59, $GPGGA,205447.00,4437.5840,N,12402.8868,W,1,09,0.8,27.0,M,-21.8,M,,*6A
2021-07-18 20:54:47Z, 6cda8203-a249-e411-b0cc-f8bc1246af59, $GPGGA,205449.00,4437.5842,N,12402.8869,W,1,09,0.8,27.1,M,-21.8,M,,*66
2021-07-18 20:54:48Z, 6cda8203-a249-e411-b0cc-f8bc1246af59, $GPGGA,205450.00,4437.5843,N,12402.8870,W,1,09,0.8,27.1,M,-21.8,M,,*67
2021-07-18 20:54:50Z, 6cda8203-a249-e411-b0cc-f8bc1246af59, $GPGGA,205452.00,4437.5844,N,12402.8866,W,1,09,0.8,27.0,M,-21.8,M,,*64
2021-07-18 20:54:51Z, 6cda8203-a249-e411-b0cc-f8bc1246af59, $GPGGA,205453.00,4437.5844,N,12402.8863,W,1,09,0.8,27.1,M,-21.8,M,,*61
2021-07-18 20:54:53Z, 6cda8203-a249-e411-b0cc-f8bc1246af59, $GPGGA,205455.00,4437.5842,N,12402.8861,W,1,09,0.8,27.1,M,-21.8,M,,*63
2021-07-18 20:54:54Z, 6cda8203-a249-e411-b0cc-f8bc1246af59, $GPGGA,205456.00,4437.5842,N,12402.8857,W,1,09,0.8,27.0,M,-21.8,M,,*64
2021-07-18 20:54:56Z, 6cda8203-a249-e411-b0cc-f8bc1246af59, $GPGGA,205458.00,4437.5843,N,12402.8855,W,1,09,0.8,26.8,M,-21.8,M,,*60
2021-07-18 20:54:57Z, 6cda8203-a249-e411-b0cc-f8bc1246af59, $GPGGA,205459.00,4437.5843,N,12402.8855,W,1,09,0.8,26.7,M,-21.8,M,,*6E
2021-07-18 20:54:59Z, 6cda8203-a249-e411-b0cc-f8bc1246af59, $GPGGA,205501.00,4437.5842,N,12402.8854,W,1,09,0.8,26.7,M,-21.8,M,,*62
2021-07-18 20:55:00Z, 6cda8203-a249-e411-b0cc-f8bc1246af59, $GPGGA,205502.00,4437.5840,N,12402.8854,W,1,09,0.8,26.6,M,-21.8,M,,*62
2021-07-18 20:55:02Z, 6cda8203-a249-e411-b0cc-f8bc1246af59, $GPGGA,205504.00,4437.5841,N,12402.8858,W,1,09,0.8,26.6,M,-21.8,M,,*69
2021-07-18 20:55:03Z, 6cda8203-a249-e411-b0cc-f8bc1246af59, $GPGGA,205505.00,4437.5841,N,12402.8861,W,1,09,0.8,26.5,M,-21.8,M,,*61
2021-07-18 20:55:05Z, 6cda8203-a249-e411-b0cc-f8bc1246af59, $GPGGA,205507.00,4437.5843,N,12402.8865,W,1,09,0.8,26.4,M,-21.8,M,,*64
2021-07-18 20:55:06Z, 6cda8203-a249-e411-b0cc-f8bc1246af59, $GPGGA,205508.00,4437.5844,N,12402.8867,W,1,09,0.8,26.4,M,-21.8,M,,*6E
2021-07-18 20:55:08Z, 6cda8203-a249-e411-b0cc-f8bc1246af59, $GPGGA,205510.00,4437.5843,N,12402.8872,W,1,09,0.8,26.3,M,-21.8,M,,*63
2021-07-18 20:55:09Z, 6cda8203-a249-e411-b0cc-f8bc1246af59, $GPGGA,205511.00,4437.5842,N,12402.8874,W,1,09,0.8,26.3,M,-21.8,M,,*65
2021-07-18 20:55:11Z, 6cda8203-a249-e411-b0cc-f8bc1246af59, $GPGGA,205513.00,4437.5842,N,12402.8874,W,1,09,0.8,26.2,M,-21.8,M,,*66
2021-07-18 20:55:12Z, 6cda8203-a249-e411-b0cc-f8bc1246af59, $GPGGA,205514.00,4437.5842,N,12402.8873,W,1,09,0.8,26.2,M,-21.8,M,,*66
2021-07-18 20:55:14Z, 6cda8203-a249-e411-b0cc-f8bc1246af59, $GPGGA,205516.00,4437.5842,N,12402.8870,W,1,09,0.8,26.2,M,-21.8,M,,*67
2021-07-18 20:55:15Z, 6cda8203-a249-e411-b0cc-f8bc1246af59, $GPGGA,205517.00,4437.5843,N,12402.8868,W,1,09,0.8,26.2,M,-21.8,M,,*6E
2021-07-18 20:55:17Z, 6cda8203-a249-e411-b0cc-f8bc1246af59, $GPGGA,205519.00,4437.5842,N,12402.8864,W,1,09,0.8,26.2,M,-21.8,M,,*6D
2021-07-18 20:55:18Z, 6cda8203-a249-e411-b0cc-f8bc1246af59, $GPGGA,205520.00,4437.5842,N,12402.8863,W,1,09,0.8,26.2,M,-21.8,M,,*60
2021-07-18 20:55:20Z, 6cda8203-a249-e411-b0cc-f8bc1246af59, $GPGGA,205522.00,4437.5842,N,12402.8856,W,1,09,0.8,26.1,M,-21.8,M,,*67
2021-07-18 20:55:21Z, 6cda8203-a249-e411-b0cc-f8bc1246af59, $GPGGA,205523.00,4437.5843,N,12402.8856,W,1,09,0.8,26.0,M,-21.8,M,,*66
2021-07-18 20:55:23Z, 6cda8203-a249-e411-b0cc-f8bc1246af59, $GPGGA,205525.00,4437.5840,N,12402.8858,W,1,09,0.8,25.7,M,-21.8,M,,*69
2021-07-18 20:55:24Z, 6cda8203-a249-e411-b0cc-f8bc1246af59, $GPGGA,205526.00,4437.5840,N,12402.8857,W,1,09,0.8,25.8,M,-21.8,M,,*6A
2021-07-18 20:55:26Z, 6cda8203-a249-e411-b0cc-f8bc1246af59, $GPGGA,205528.00,4437.5841,N,12402.8856,W,1,09,0.8,25.8,M,-21.8,M,,*64
2021-07-18 20:55:27Z, 6cda8203-a249-e411-b0cc-f8bc1246af59, $GPGGA,205529.00,4437.5842,N,12402.8855,W,1,09,0.8,25.7,M,-21.8,M,,*6A
2021-07-18 20:55:29Z, 6cda8203-a249-e411-b0cc-f8bc1246af59, $GPGGA,205531.00,4437.5839,N,12402.8855,W,1,09,0.8,25.6,M,-21.8,M,,*6E
2021-07-18 20:55:30Z, 6cda8203-a249-e411-b0cc-f8bc1246af59, $GPGGA,205532.00,4437.5840,N,12402.8855,W,1,09,0.8,25.6,M,-21.8,M,,*63
2021-07-18 20:55:32Z, 6cda8203-a249-e411-b0cc-f8bc1246af59, $GPGGA,205534.00,4437.5837,N,12402.8851,W,1,09,0.8,25.5,M,-21.8,M,,*62
2021-07-18 20:55:33Z, 6cda8203-a249-e411-b0cc-f8bc1246af59, $GPGGA,205535.00,4437.5835,N,12402.8847,W,1,09,0.8,25.1,M,-21.8,M,,*62
2021-07-18 20:55:35Z, 6cda8203-a249-e411-b0cc-f8bc1246af59, $GPGGA,205537.00,4437.5836,N,12402.8845,W,1,09,0.8,24.9,M,-21.8,M,,*68
2021-07-18 20:55:36Z, 6cda8203-a249-e411-b0cc-f8bc1246af59, $GPGGA,205538.00,4437.5834,N,12402.8844,W,1,09,0.8,24.8,M,-21.8,M,,*65
2021-07-18 20:55:38Z, 6cda8203-a249-e411-b0cc-f8bc1246af59, $GPGGA,205540.00,4437.5831,N,12402.8845,W,1,09,0.8,24.7,M,-21.8,M,,*61
2021-07-18 20:55:39Z, 6cda8203-a249-e411-b0cc-f8bc1246af59, $GPGGA,205541.00,4437.5830,N,12402.8845,W,1,09,0.8,24.7,M,-21.8,M,,*61
2021-07-18 20:55:41Z, 6cda8203-a249-e411-b0cc-f8bc1246af59, $GPGGA,205543.00,4437.5829,N,12402.8845,W,1,09,0.8,24.5,M,-21.8,M,,*69
2021-07-18 20:55:42Z, 6cda8203-a249-e411-b0cc-f8bc1246af59, $GPGGA,205544.00,4437.5829,N,12402.8846,W,1,09,0.8,24.5,M,-21.8,M,,*6D
2021-07-18 20:55:44Z, 6cda8203-a249-e411-b0cc-f8bc1246af59, $GPGGA,205546.00,4437.5826,N,12402.8853,W,1,09,0.8,24.5,M,-21.8,M,,*64
2021-07-18 20:55:45Z, 6cda8203-a249-e411-b0cc-f8bc1246af59, $GPGGA,205547.00,4437.5825,N,12402.8856,W,1,09,0.8,24.5,M,-21.8,M,,*63
2021-07-18 20:55:47Z, 6cda8203-a249-e411-b0cc-f8bc1246af59, $GPGGA,205549.00,4437.5825,N,12402.8859,W,1,09,0.8,24.4,M,-21.8,M,,*63
2021-07-18 20:55:48Z, 6cda8203-a249-e411-b0cc-f8bc1246af59, $GPGGA,205550.00,4437.5824,N,12402.8861,W,1,09,0.8,24.4,M,-21.8,M,,*61
2021-07-18 20:55:50Z, 6cda8203-a249-e411-b0cc-f8bc1246af59, $GPGGA,205552.00,4437.5821,N,12402.8865,W,1,09,0.8,24.4,M,-21.8,M,,*62
2021-07-18 20:55:51Z, 6cda8203-a249-e411-b0cc-f8bc1246af59, $GPGGA,205553.00,4437.5821,N,12402.8864,W,1,09,0.8,24.4,M,-21.8,M,,*62
2021-07-18 20:55:53Z, 6cda8203-a249-e411-b0cc-f8bc1246af59, $GPGGA,205555.00,4437.5823,N,12402.8866,W,1,09,0.8,24.2,M,-21.8,M,,*62
2021-07-18 20:55:54Z, 6cda8203-a249-e411-b0cc-f8bc1246af59, $GPGGA,205556.00,4437.5822,N,12402.8865,W,1,09,0.8,24.1,M,-21.8,M,,*60
2021-07-18 20:55:56Z, 6cda8203-a249-e411-b0cc-f8bc1246af59, $GPGGA,205558.00,4437.5823,N,12402.8865,W,1,09,1.0,23.9,M,-21.8,M,,*69
2021-07-18 20:55:57Z, 6cda8203-a249-e411-b0cc-f8bc1246af59, $GPGGA,205559.00,4437.5822,N,12402.8865,W,1,09,1.0,23.8,M,-21.8,M,,*68
2021-07-18 20:55:59Z, 6cda8203-a249-e411-b0cc-f8bc1246af59, $GPGGA,205601.00,4437.5825,N,12402.8862,W,1,09,1.0,23.6,M,-21.8,M,,*68
2021-07-18 20:56:00Z, 6cda8203-a249-e411-b0cc-f8bc1246af59, $GPGGA,205602.00,4437.5825,N,12402.8859,W,1,09,1.0,23.7,M,-21.8,M,,*62
2021-07-18 20:56:02Z, 6cda8203-a249-e411-b0cc-f8bc1246af59, $GPGGA,205604.00,4437.5824,N,12402.8860,W,1,09,1.0,23.5,M,-21.8,M,,*6D
2021-07-18 20:56:03Z, 6cda8203-a249-e411-b0cc-f8bc1246af59, $GPGGA,205605.00,4437.5824,N,12402.8859,W,1,09,1.0,23.6,M,-21.8,M,,*65
2021-07-18 20:56:04Z, 6cda8203-a249-e411-b0cc-f8bc1246af59, $GPGGA,205606.00,4437.5824,N,12402.8860,W,1,09,1.0,23.7,M,-21.8,M,,*6D
2021-07-18 20:56:05Z, 6cda8203-a249-e411-b0cc-f8bc1246af59, $GPGGA,205607.00,4437.5825,N,12402.8861,W,1,09,1.0,23.7,M,-21.8,M,,*6C
2021-07-18 20:56:06Z, 6cda8203-a249-e411-b0cc-f8bc1246af59, $GPGGA,205608.00,4437.5825,N,12402.8862,W,1,09,1.0,23.8,M,-21.8,M,,*6F
2021-07-18 20:56:08Z, 6cda8203-a249-e411-b0cc-f8bc1246af59, $GPGGA,205609.00,4437.5824,N,12402.8862,W,1,09,1.0,23.7,M,-21.8,M,,*60
2021-07-18 20:56:09Z, 6cda8203-a249-e411-b0cc-f8bc1246af59, $GPGGA,205610.00,4437.5824,N,12402.8863,W,1,09,1.0,23.7,M,-21.8,M,,*69
2021-07-18 20:56:11Z, 6cda8203-a249-e411-b0cc-f8bc1246af59, $GPGGA,205612.00,4437.5823,N,12402.8863,W,1,09,1.0,23.6,M,-21.8,M,,*6D
2021-07-18 20:56:12Z, 6cda8203-a249-e411-b0cc-f8bc1246af59, $GPGGA,205613.00,4437.5824,N,12402.8863,W,1,09,1.0,23.6,M,-21.8,M,,*6B
2021-07-18 20:56:13Z, 6cda8203-a249-e411-b0cc-f8bc1246af59, $GPGGA,205615.00,4437.5824,N,12402.8863,W,1,09,1.0,23.6,M,-21.8,M,,*6D
2021-07-18 20:56:14Z, 6cda8203-a249-e411-b0cc-f8bc1246af59, $GPGGA,205616.00,4437.5824,N,12402.8863,W,1,09,1.0,23.6,M,-21.8,M,,*6E
2021-07-18 20:56:16Z, 6cda8203-a249-e411-b0cc-f8bc1246af59, $GPGGA,205618.00,4437.5823,N,12402.8866,W,1,09,1.0,23.6,M,-21.8,M,,*62
2021-07-18 20:56:17Z, 6cda8203-a249-e411-b0cc-f8bc1246af59, $GPGGA,205619.00,4437.5823,N,12402.8867,W,1,09,1.0,23.6,M,-21.8,M,,*62
2021-07-18 20:56:19Z, 6cda8203-a249-e411-b0cc-f8bc1246af59, $GPGGA,205621.00,4437.5822,N,12402.8867,W,1,09,1.0,23.6,M,-21.8,M,,*68
2021-07-18 20:56:20Z, 6cda8203-a249-e411-b0cc-f8bc1246af59, $GPGGA,205622.00,4437.5823,N,12402.8866,W,1,09,1.0,23.6,M,-21.8,M,,*6B
2021-07-18 20:56:22Z, 6cda8203-a249-e411-b0cc-f8bc1246af59, $GPGGA,205624.00,4437.5825,N,12402.8867,W,1,09,1.0,23.7,M,-21.8,M,,*6B
2021-07-18 20:56:23Z, 6cda8203-a249-e411-b0cc-f8bc1246af59, $GPGGA,205625.00,4437.5826,N,12402.8866,W,1,09,1.0,23.7,M,-21.8,M,,*68
2021-07-18 20:56:25Z, 6cda8203-a249-e411-b0cc-f8bc1246af59, $GPGGA,205627.00,4437.5827,N,12402.8867,W,1,09,1.0,23.8,M,-21.8,M,,*65
2021-07-18 20:56:26Z, 6cda8203-a249-e411-b0cc-f8bc1246af59, $GPGGA,205628.00,4437.5826,N,12402.8866,W,1,09,1.0,23.8,M,-21.8,M,,*6A
2021-07-18 20:56:28Z, 6cda8203-a249-e411-b0cc-f8bc1246af59, $GPGGA,205630.00,4437.5826,N,12402.8867,W,1,09,1.0,23.8,M,-21.8,M,,*62
2021-07-18 20:56:29Z, 6cda8203-a249-e411-b0cc-f8bc1246af59, $GPGGA,205631.00,4437.5826,N,12402.8868,W,1,09,1.0,23.9,M,-21.8,M,,*6D
2021-07-18 20:56:31Z, 6cda8203-a249-e411-b0cc-f8bc1246af59, $GPGGA,205633.00,4437.5827,N,12402.8875,W,1,09,1.0,23.9,M,-21.8,M,,*62
2021-07-18 20:56:32Z, 6cda8203-a249-e411-b0cc-f8bc1246af59, $GPGGA,205634.00,4437.5828,N,12402.8879,W,1,09,1.0,23.9,M,-21.8,M,,*66
2021-07-18 20:56:34Z, 6cda8203-a249-e411-b0cc-f8bc1246af59, $GPGGA,205636.00,4437.5831,N,12402.8882,W,1,10,0.8,24.0,M,-21.8,M,,*67
2021-07-18 20:56:35Z, 6cda8203-a249-e411-b0cc-f8bc1246af59, $GPGGA,205637.00,4437.5831,N,12402.8883,W,1,10,0.8,24.0,M,-21.8,M,,*67
2021-07-18 20:56:37Z, 6cda8203-a249-e411-b0cc-f8bc1246af59, $GPGGA,205639.00,4437.5832,N,12402.8888,W,1,10,0.8,24.0,M,-21.8,M,,*61
2021-07-18 20:56:38Z, 6cda8203-a249-e411-b0cc-f8bc1246af59, $GPGGA,205640.00,4437.5833,N,12402.8890,W,1,10,0.8,24.0,M,-21.8,M,,*67
2021-07-18 20:56:40Z, 6cda8203-a249-e411-b0cc-f8bc1246af59, $GPGGA,205642.00,4437.5833,N,12402.8892,W,1,10,0.8,24.0,M,-21.8,M,,*67
2021-07-18 20:56:41Z, 6cda8203-a249-e411-b0cc-f8bc1246af59, $GPGGA,205643.00,4437.5834,N,12402.8893,W,1,10,0.8,24.0,M,-21.8,M,,*60
2021-07-18 20:56:43Z, 6cda8203-a249-e411-b0cc-f8bc1246af59, $GPGGA,205645.00,4437.5838,N,12402.8894,W,1,10,0.8,24.0,M,-21.8,M,,*6D
2021-07-18 20:56:44Z, 6cda8203-a249-e411-b0cc-f8bc1246af59, $GPGGA,205646.00,4437.5839,N,12402.8895,W,1,10,0.8,24.0,M,-21.8,M,,*6E
2021-07-18 20:56:46Z, 6cda8203-a249-e411-b0cc-f8bc1246af59, $GPGGA,205648.00,4437.5842,N,12402.8900,W,1,10,0.8,23.9,M,-21.8,M,,*6F
2021-07-18 20:56:47Z, 6cda8203-a249-e411-b0cc-f8bc1246af59, $GPGGA,205649.00,4437.5841,N,12402.8899,W,1,10,0.8,24.0,M,-21.8,M,,*62
2021-07-18 20:56:49Z, 6cda8203-a249-e411-b0cc-f8bc1246af59, $GPGGA,205651.00,4437.5838,N,12402.8896,W,1,10,0.8,24.0,M,-21.8,M,,*6A
2021-07-18 20:56:50Z, 6cda8203-a249-e411-b0cc-f8bc1246af59, $GPGGA,205652.00,4437.5838,N,12402.8897,W,1,10,0.8,23.8,M,-21.8,M,,*67
2021-07-18 20:56:52Z, 6cda8203-a249-e411-b0cc-f8bc1246af59, $GPGGA,205654.00,4437.5836,N,12402.8895,W,1,10,0.8,23.6,M,-21.8,M,,*63
2021-07-18 20:56:53Z, 6cda8203-a249-e411-b0cc-f8bc1246af59, $GPGGA,205655.00,4437.5837,N,12402.8896,W,1,10,0.8,23.6,M,-21.8,M,,*60
2021-07-18 20:56:55Z, 6cda8203-a249-e411-b0cc-f8bc1246af59, $GPGGA,205657.00,4437.5839,N,12402.8895,W,1,10,0.8,23.4,M,-21.8,M,,*6D
2021-07-18 20:56:56Z, 6cda8203-a249-e411-b0cc-f8bc1246af59, $GPGGA,205658.00,4437.5840,N,12402.8892,W,1,10,0.8,23.2,M,-21.8,M,,*6D
2021-07-18 20:56:58Z, 6cda8203-a249-e411-b0cc-f8bc1246af59, $GPGGA,205700.00,4437.5839,N,12402.8888,W,1,10,0.8,23.0,M,-21.8,M,,*66
2021-07-18 20:56:59Z, 6cda8203-a249-e411-b0cc-f8bc1246af59, $GPGGA,205701.00,4437.5839,N,12402.8888,W,1,10,0.8,22.9,M,-21.8,M,,*6F
2021-07-18 20:57:01Z, 6cda8203-a249-e411-b0cc-f8bc1246af59, $GPGGA,205703.00,4437.5838,N,12402.8891,W,1,10,0.8,22.8,M,-21.8,M,,*65
2021-07-18 20:57:02Z, 6cda8203-a249-e411-b0cc-f8bc1246af59, $GPGGA,205704.00,4437.5837,N,12402.8889,W,1,10,0.8,22.8,M,-21.8,M,,*64
2021-07-18 20:57:04Z, 6cda8203-a249-e411-b0cc-f8bc1246af59, $GPGGA,205706.00,4437.5835,N,12402.8889,W,1,10,0.8,22.8,M,-21.8,M,,*64
2021-07-18 20:57:05Z, 6cda8203-a249-e411-b0cc-f8bc1246af59, $GPGGA,205707.00,4437.5834,N,12402.8889,W,1,10,0.8,22.9,M,-21.8,M,,*65
2021-07-18 20:57:07Z, 6cda8203-a249-e411-b0cc-f8bc1246af59, $GPGGA,205709.00,4437.5836,N,12402.8887,W,1,10,0.8,22.7,M,-21.8,M,,*69
2021-07-18 20:57:08Z, 6cda8203-a249-e411-b0cc-f8bc1246af59, $GPGGA,205710.00,4437.5837,N,12402.8886,W,1,10,0.8,22.7,M,-21.8,M,,*61
2021-07-18 20:57:10Z, 6cda8203-a249-e411-b0cc-f8bc1246af59, $GPGGA,205712.00,4437.5837,N,12402.8886,W,1,10,0.8,22.6,M,-21.8,M,,*62
2021-07-18 20:57:11Z, 6cda8203-a249-e411-b0cc-f8bc1246af59, $GPGGA,205713.00,4437.5837,N,12402.8885,W,1,10,0.8,22.5,M,-21.8,M,,*63
2021-07-18 20:57:13Z, 6cda8203-a249-e411-b0cc-f8bc1246af59, $GPGGA,205715.00,4437.5835,N,12402.8888,W,1,10,0.8,22.5,M,-21.8,M,,*6A
2021-07-18 20:57:14Z, 6cda8203-a249-e411-b0cc-f8bc1246af59, $GPGGA,205716.00,4437.5834,N,12402.8890,W,1,10,0.8,22.5,M,-21.8,M,,*61
2021-07-18 20:57:16Z, 6cda8203-a249-e411-b0cc-f8bc1246af59, $GPGGA,205718.00,4437.5835,N,12402.8893,W,1,10,0.8,22.6,M,-21.8,M,,*6E
2021-07-18 20:57:17Z, 6cda8203-a249-e411-b0cc-f8bc1246af59, $GPGGA,205719.00,4437.5837,N,12402.8893,W,1,10,0.8,22.7,M,-21.8,M,,*6C
2021-07-18 20:57:19Z, 6cda8203-a249-e411-b0cc-f8bc1246af59, $GPGGA,205721.00,4437.5841,N,12402.8896,W,1,10,0.8,22.8,M,-21.8,M,,*6C
2021-07-18 20:57:20Z, 6cda8203-a249-e411-b0cc-f8bc1246af59, $GPGGA,205722.00,4437.5840,N,12402.8897,W,1,10,0.8,22.8,M,-21.8,M,,*6F
2021-07-18 20:57:22Z, 6cda8203-a249-e411-b0cc-f8bc1246af59, $GPGGA,205724.00,4437.5839,N,12402.8900,W,1,10,0.8,22.7,M,-21.8,M,,*67
2021-07-18 20:57:23Z, 6cda8203-a249-e411-b0cc-f8bc1246af59, $GPGGA,205725.00,4437.5838,N,12402.8902,W,1,10,0.8,22.7,M,-21.8,M,,*65
2021-07-18 20:57:25Z, 6cda8203-a249-e411-b0cc-f8bc1246af59, $GPGGA,205727.00,4437.5840,N,12402.8901,W,1,10,0.8,22.8,M,-21.8,M,,*64
2021-07-18 20:57:26Z, 6cda8203-a249-e411-b0cc-f8bc1246af59, $GPGGA,205728.00,4437.5841,N,12402.8899,W,1,10,0.8,22.8,M,-21.8,M,,*6A
2021-07-18 20:57:28Z, 6cda8203-a249-e411-b0cc-f8bc1246af59, $GPGGA,205730.00,4437.5843,N,12402.8897,W,1,10,0.8,22.8,M,-21.8,M,,*6F
2021-07-18 20:57:29Z, 6cda8203-a249-e411-b0cc-f8bc1246af59, $GPGGA,205731.00,4437.5843,N,12402.8895,W,1,10,0.8,22.9,M,-21.8,M,,*6D
2021-07-18 20:57:31Z, 6cda8203-a249-e411-b0cc-f8bc1246af59, $GPGGA,205733.00,4437.5844,N,12402.8895,W,1,10,0.8,23.0,M,-21.8,M,,*60
2021-07-18 20:57:32Z, 6cda8203-a249-e411-b0cc-f8bc1246af59, $GPGGA,205734.00,4437.5842,N,12402.8896,W,1,10,0.8,23.0,M,-21.8,M,,*62
2021-07-18 20:57:34Z, 6cda8203-a249-e411-b0cc-f8bc1246af59, $GPGGA,205736.00,4437.5840,N,12402.8898,W,1,10,0.8,23.0,M,-21.8,M,,*6C
2021-07-18 20:57:35Z, 6cda8203-a249-e411-b0cc-f8bc1246af59, $GPGGA,205737.00,4437.5841,N,12402.8896,W,1,10,0.8,23.1,M,-21.8,M,,*63
2021-07-18 20:57:37Z, 6cda8203-a249-e411-b0cc-f8bc1246af59, $GPGGA,205739.00,4437.5840,N,12402.8896,W,1,10,0.8,23.1,M,-21.8,M,,*6C
2021-07-18 20:57:38Z, 6cda8203-a249-e411-b0cc-f8bc1246af59, $GPGGA,205740.00,4437.5839,N,12402.8894,W,1,10,0.8,23.1,M,-21.8,M,,*6E
2021-07-18 20:57:40Z, 6cda8203-a249-e411-b0cc-f8bc1246af59, $GPGGA,205742.00,4437.5837,N,12402.8892,W,1,10,0.8,23.2,M,-21.8,M,,*67
2021-07-18 20:57:41Z, 6cda8203-a249-e411-b0cc-f8bc1246af59, $GPGGA,205743.00,4437.5835,N,12402.8891,W,1,10,0.8,23.2,M,-21.8,M,,*67
2021-07-18 20:57:43Z, 6cda8203-a249-e411-b0cc-f8bc1246af59, $GPGGA,205745.00,4437.5834,N,12402.8894,W,1,10,0.8,23.3,M,-21.8,M,,*64
2021-07-18 20:57:44Z, 6cda8203-a249-e411-b0cc-f8bc1246af59, $GPGGA,205746.00,4437.5833,N,12402.8895,W,1,10,0.8,23.4,M,-21.8,M,,*66
2021-07-18 20:57:46Z, 6cda8203-a249-e411-b0cc-f8bc1246af59, $GPGGA,205748.00,4437.5829,N,12402.8893,W,1,10,0.8,23.5,M,-21.8,M,,*64
2021-07-18 20:57:47Z, 6cda8203-a249-e411-b0cc-f8bc1246af59, $GPGGA,205749.00,4437.5828,N,12402.8891,W,1,10,0.8,23.6,M,-21.8,M,,*65
2021-07-18 20:57:49Z, 6cda8203-a249-e411-b0cc-f8bc1246af59, $GPGGA,205751.00,4437.5827,N,12402.8887,W,1,10,0.8,23.6,M,-21.8,M,,*64
2021-07-18 20:57:50Z, 6cda8203-a249-e411-b0cc-f8bc1246af59, $GPGGA,205752.00,4437.5827,N,12402.8887,W,1,10,0.8,23.6,M,-21.8,M,,*67
2021-07-18 20:57:52Z, 6cda8203-a249-e411-b0cc-f8bc1246af59, $GPGGA,205754.00,4437.5831,N,12402.8888,W,1,10,0.8,23.7,M,-21.8,M,,*68
2021-07-18 20:57:53Z, 6cda8203-a249-e411-b0cc-f8bc1246af59, $GPGGA,205755.00,4437.5830,N,12402.8890,W,1,10,0.8,23.8,M,-21.8,M,,*6E
2021-07-18 20:57:55Z, 6cda8203-a249-e411-b0cc-f8bc1246af59, $GPGGA,205757.00,4437.5832,N,12402.8890,W,1,10,0.8,24.0,M,-21.8,M,,*61
2021-07-18 20:57:56Z, 6cda8203-a249-e411-b0cc-f8bc1246af59, $GPGGA,205758.00,4437.5832,N,12402.8891,W,1,10,0.8,24.0,M,-21.8,M,,*6F
2021-07-18 20:57:58Z, 6cda8203-a249-e411-b0cc-f8bc1246af59, $GPGGA,205800.00,4437.5831,N,12402.8890,W,1,10,0.8,24.1,M,-21.8,M,,*6E
2021-07-18 20:57:59Z, 6cda8203-a249-e411-b0cc-f8bc1246af59, $GPGGA,205801.00,4437.5831,N,12402.8890,W,1,10,0.8,24.1,M,-21.8,M,,*6F
2021-07-18 20:58:01Z, 6cda8203-a249-e411-b0cc-f8bc1246af59, $GPGGA,205803.00,4437.5831,N,12402.8890,W,1,10,0.8,24.2,M,-21.8,M,,*6E
2021-07-18 20:58:02Z, 6cda8203-a249-e411-b0cc-f8bc1246af59, $GPGGA,205804.00,4437.5831,N,12402.8890,W,1,10,0.8,24.2,M,-21.8,M,,*69
2021-07-18 20:58:04Z, 6cda8203-a249-e411-b0cc-f8bc1246af59, $GPGGA,205806.00,4437.5831,N,12402.8889,W,1,10,0.8,24.3,M,-21.8,M,,*62
2021-07-18 20:58:05Z, 6cda8203-a249-e411-b0cc-f8bc1246af59, $GPGGA,205807.00,4437.5831,N,12402.8890,W,1,10,0.8,24.4,M,-21.8,M,,*6C
2021-07-18 20:58:07Z, 6cda8203-a249-e411-b0cc-f8bc1246af59, $GPGGA,205809.00,4437.5831,N,12402.8889,W,1,10,0.8,24.5,M,-21.8,M,,*6B
2021-07-18 20:58:08Z, 6cda8203-a249-e411-b0cc-f8bc1246af59, $GPGGA,205810.00,4437.5832,N,12402.8889,W,1,10,0.8,24.5,M,-21.8,M,,*60
2021-07-18 20:58:09Z, 6cda8203-a249-e411-b0cc-f8bc1246af59, $GPGGA,205811.00,4437.5832,N,12402.8888,W,1,10,0.8,24.5,M,-21.8,M,,*60
2021-07-18 20:58:10Z, 6cda8203-a249-e411-b0cc-f8bc1246af59, $GPGGA,205812.00,4437.5833,N,12402.8888,W,1,10,0.8,24.6,M,-21.8,M,,*61
2021-07-18 20:58:12Z, 6cda8203-a249-e411-b0cc-f8bc1246af59, $GPGGA,205813.00,4437.5833,N,12402.8887,W,1,10,0.8,24.6,M,-21.8,M,,*6F
2021-07-18 20:58:13Z, 6cda8203-a249-e411-b0cc-f8bc1246af59, $GPGGA,205815.00,4437.5834,N,12402.8886,W,1,10,0.8,24.7,M,-21.8,M,,*6E
2021-07-18 20:58:15Z, 6cda8203-a249-e411-b0cc-f8bc1246af59, $GPGGA,205816.00,4437.5834,N,12402.8886,W,1,10,0.8,24.7,M,-21.8,M,,*6D
2021-07-18 20:58:17Z, 6cda8203-a249-e411-b0cc-f8bc1246af59, $GPGGA,205818.00,4437.5834,N,12402.8885,W,1,10,0.8,24.7,M,-21.8,M,,*60
2021-07-18 20:58:18Z, 6cda8203-a249-e411-b0cc-f8bc1246af59, $GPGGA,205819.00,4437.5834,N,12402.8885,W,1,10,0.8,24.7,M,-21.8,M,,*61
2021-07-18 20:58:20Z, 6cda8203-a249-e411-b0cc-f8bc1246af59, $GPGGA,205821.00,4437.5834,N,12402.8885,W,1,10,0.8,24.7,M,-21.8,M,,*6A
2021-07-18 20:58:21Z, 6cda8203-a249-e411-b0cc-f8bc1246af59, $GPGGA,205822.00,4437.5834,N,12402.8885,W,1,10,0.8,24.7,M,-21.8,M,,*69
2021-07-18 20:58:22Z, 6cda8203-a249-e411-b0cc-f8bc1246af59, $GPGGA,205824.00,4437.5834,N,12402.8885,W,1,10,0.8,24.7,M,-21.8,M,,*6F
2021-07-18 20:58:24Z, 6cda8203-a249-e411-b0cc-f8bc1246af59, $GPGGA,205825.00,4437.5834,N,12402.8884,W,1,10,0.8,24.8,M,-21.8,M,,*60
2021-07-18 20:58:25Z, 6cda8203-a249-e411-b0cc-f8bc1246af59, $GPGGA,205827.00,4437.5833,N,12402.8883,W,1,10,0.8,24.8,M,-21.8,M,,*62
2021-07-18 20:58:27Z, 6cda8203-a249-e411-b0cc-f8bc1246af59, $GPGGA,205828.00,4437.5833,N,12402.8882,W,1,10,0.8,24.8,M,-21.8,M,,*6C
2021-07-18 20:58:28Z, 6cda8203-a249-e411-b0cc-f8bc1246af59, $GPGGA,205830.00,4437.5832,N,12402.8881,W,1,10,0.8,24.8,M,-21.8,M,,*67
2021-07-18 20:58:29Z, 6cda8203-a249-e411-b0cc-f8bc1246af59, $GPGGA,205831.00,4437.5836,N,12402.8878,W,1,10,0.8,24.7,M,-21.8,M,,*6B
2021-07-18 20:58:31Z, 6cda8203-a249-e411-b0cc-f8bc1246af59, $GPGGA,205833.00,4437.5834,N,12402.8878,W,1,10,0.8,24.8,M,-21.8,M,,*64
2021-07-18 20:58:32Z, 6cda8203-a249-e411-b0cc-f8bc1246af59, $GPGGA,205834.00,4437.5835,N,12402.8874,W,1,10,0.8,24.7,M,-21.8,M,,*61
2021-07-18 20:58:34Z, 6cda8203-a249-e411-b0cc-f8bc1246af59, $GPGGA,205836.00,4437.5827,N,12402.8869,W,1,10,0.8,24.8,M,-21.8,M,,*63
2021-07-18 20:58:35Z, 6cda8203-a249-e411-b0cc-f8bc1246af59, $GPGGA,205837.00,4437.5825,N,12402.8872,W,1,10,0.8,24.9,M,-21.8,M,,*6B
2021-07-18 20:58:37Z, 6cda8203-a249-e411-b0cc-f8bc1246af59, $GPGGA,205839.00,4437.5819,N,12402.8873,W,1,10,0.8,24.2,M,-21.8,M,,*60
2021-07-18 20:58:38Z, 6cda8203-a249-e411-b0cc-f8bc1246af59, $GPGGA,205840.00,4437.5817,N,12402.8871,W,1,10,0.8,24.4,M,-21.8,M,,*64
2021-07-18 20:58:41Z, 6cda8203-a249-e411-b0cc-f8bc1246af59, $GPGGA,205841.00,4437.5819,N,12402.8874,W,1,10,0.8,24.7,M,-21.8,M,,*6D
2021-07-18 20:58:42Z, 6cda8203-a249-e411-b0cc-f8bc1246af59, $GPGGA,205842.00,4437.5819,N,12402.8873,W,1,10,0.8,24.8,M,-21.8,M,,*66
2021-07-18 20:58:43Z, 6cda8203-a249-e411-b0cc-f8bc1246af59, $GPGGA,205843.00,4437.5819,N,12402.8873,W,1,10,0.8,25.0,M,-21.8,M,,*6E
2021-07-18 20:58:44Z, 6cda8203-a249-e411-b0cc-f8bc1246af59, $GPGGA,205844.00,4437.5820,N,12402.8874,W,1,10,0.8,25.0,M,-21.8,M,,*64
2021-07-18 20:58:46Z, 6cda8203-a249-e411-b0cc-f8bc1246af59, $GPGGA,205846.00,4437.5817,N,12402.8873,W,1,10,0.8,24.8,M,-21.8,M,,*6C
2021-07-18 20:58:47Z, 6cda8203-a249-e411-b0cc-f8bc1246af59, $GPGGA,205847.00,4437.5816,N,12402.8873,W,1,10,0.8,25.0,M,-21.8,M,,*65
2021-07-18 20:58:49Z, 6cda8203-a249-e411-b0cc-f8bc1246af59, $GPGGA,205849.00,4437.5818,N,12402.8868,W,1,10,0.8,25.0,M,-21.8,M,,*6F
2021-07-18 20:58:50Z, 6cda8203-a249-e411-b0cc-f8bc1246af59, $GPGGA,205850.00,4437.5817,N,12402.8867,W,1,10,0.8,24.8,M,-21.8,M,,*6E
2021-07-18 20:58:52Z, 6cda8203-a249-e411-b0cc-f8bc1246af59, $GPGGA,205852.00,4437.5815,N,12402.8863,W,1,10,0.8,24.8,M,-21.8,M,,*6A
2021-07-18 20:58:53Z, 6cda8203-a249-e411-b0cc-f8bc1246af59, $GPGGA,205853.00,4437.5817,N,12402.8861,W,1,10,0.8,24.7,M,-21.8,M,,*64
2021-07-18 20:58:55Z, 6cda8203-a249-e411-b0cc-f8bc1246af59, $GPGGA,205855.00,4437.5816,N,12402.8861,W,1,10,0.8,24.5,M,-21.8,M,,*61
2021-07-18 20:58:56Z, 6cda8203-a249-e411-b0cc-f8bc1246af59, $GPGGA,205856.00,4437.5814,N,12402.8859,W,1,10,0.8,24.3,M,-21.8,M,,*6D
2021-07-18 20:58:58Z, 6cda8203-a249-e411-b0cc-f8bc1246af59, $GPGGA,205858.00,4437.5815,N,12402.8856,W,1,10,0.8,24.1,M,-21.8,M,,*6F
2021-07-18 20:58:59Z, 6cda8203-a249-e411-b0cc-f8bc1246af59, $GPGGA,205859.00,4437.5815,N,12402.8856,W,1,10,0.8,23.9,M,-21.8,M,,*61
2021-07-18 20:59:01Z, 6cda8203-a249-e411-b0cc-f8bc1246af59, $GPGGA,205901.00,4437.5815,N,12402.8858,W,1,10,0.8,23.7,M,-21.8,M,,*6D
2021-07-18 20:59:02Z, 6cda8203-a249-e411-b0cc-f8bc1246af59, $GPGGA,205902.00,4437.5815,N,12402.8857,W,1,10,0.8,23.7,M,-21.8,M,,*61
2021-07-18 20:59:04Z, 6cda8203-a249-e411-b0cc-f8bc1246af59, $GPGGA,205904.00,4437.5816,N,12402.8857,W,1,10,0.8,23.7,M,-21.8,M,,*64
2021-07-18 20:59:05Z, 6cda8203-a249-e411-b0cc-f8bc1246af59, $GPGGA,205905.00,4437.5818,N,12402.8858,W,1,10,0.8,23.6,M,-21.8,M,,*65
2021-07-18 20:59:07Z, 6cda8203-a249-e411-b0cc-f8bc1246af59, $GPGGA,205907.00,4437.5823,N,12402.8861,W,1,10,0.8,23.5,M,-21.8,M,,*66
2021-07-18 20:59:08Z, 6cda8203-a249-e411-b0cc-f8bc1246af59, $GPGGA,205908.00,4437.5824,N,12402.8865,W,1,10,0.8,23.5,M,-21.8,M,,*6A
2021-07-18 20:59:10Z, 6cda8203-a249-e411-b0cc-f8bc1246af59, $GPGGA,205910.00,4437.5824,N,12402.8868,W,1,10,0.8,23.6,M,-21.8,M,,*6D
2021-07-18 20:59:11Z, 6cda8203-a249-e411-b0cc-f8bc1246af59, $GPGGA,205911.00,4437.5825,N,12402.8869,W,1,10,0.8,23.6,M,-21.8,M,,*6C
2021-07-18 20:59:13Z, 6cda8203-a249-e411-b0cc-f8bc1246af59, $GPGGA,205913.00,4437.5824,N,12402.8873,W,1,10,0.8,23.6,M,-21.8,M,,*64
2021-07-18 20:59:14Z, 6cda8203-a249-e411-b0cc-f8bc1246af59, $GPGGA,205914.00,4437.5825,N,12402.8873,W,1,10,0.8,23.6,M,-21.8,M,,*62
2021-07-18 20:59:16Z, 6cda8203-a249-e411-b0cc-f8bc1246af59, $GPGGA,205916.00,4437.5828,N,12402.8876,W,1,10,0.8,23.6,M,-21.8,M,,*68
2021-07-18 20:59:17Z, 6cda8203-a249-e411-b0cc-f8bc1246af59, $GPGGA,205917.00,4437.5828,N,12402.8877,W,1,10,0.8,23.6,M,-21.8,M,,*68
2021-07-18 20:59:19Z, 6cda8203-a249-e411-b0cc-f8bc1246af59, $GPGGA,205919.00,4437.5828,N,12402.8880,W,1,10,0.8,23.6,M,-21.8,M,,*6E
2021-07-18 20:59:20Z, 6cda8203-a249-e411-b0cc-f8bc1246af59, $GPGGA,205920.00,4437.5829,N,12402.8882,W,1,10,0.8,23.6,M,-21.8,M,,*67
2021-07-18 20:59:22Z, 6cda8203-a249-e411-b0cc-f8bc1246af59, $GPGGA,205922.00,4437.5834,N,12402.8884,W,1,10,0.8,23.5,M,-21.8,M,,*6C
2021-07-18 20:59:23Z, 6cda8203-a249-e411-b0cc-f8bc1246af59, $GPGGA,205923.00,4437.5835,N,12402.8883,W,1,10,0.8,23.5,M,-21.8,M,,*6B
2021-07-18 20:59:25Z, 6cda8203-a249-e411-b0cc-f8bc1246af59, $GPGGA,205925.00,4437.5836,N,12402.8884,W,1,10,0.8,23.4,M,-21.8,M,,*68
2021-07-18 20:59:26Z, 6cda8203-a249-e411-b0cc-f8bc1246af59, $GPGGA,205926.00,4437.5837,N,12402.8884,W,1,10,0.8,23.4,M,-21.8,M,,*6A
2021-07-18 20:59:28Z, 6cda8203-a249-e411-b0cc-f8bc1246af59, $GPGGA,205928.00,4437.5836,N,12402.8885,W,1,10,0.8,22.9,M,-21.8,M,,*68
2021-07-18 20:59:29Z, 6cda8203-a249-e411-b0cc-f8bc1246af59, $GPGGA,205929.00,4437.5837,N,12402.8885,W,1,10,0.8,22.8,M,-21.8,M,,*69
2021-07-18 20:59:31Z, 6cda8203-a249-e411-b0cc-f8bc1246af59, $GPGGA,205931.00,4437.5837,N,12402.8887,W,1,10,0.8,22.5,M,-21.8,M,,*6F
2021-07-18 20:59:32Z, 6cda8203-a249-e411-b0cc-f8bc1246af59, $GPGGA,205932.00,4437.5838,N,12402.8886,W,1,10,0.8,22.4,M,-21.8,M,,*63
2021-07-18 20:59:34Z, 6cda8203-a249-e411-b0cc-f8bc1246af59, $GPGGA,205934.00,4437.5838,N,12402.8887,W,1,10,0.8,22.1,M,-21.8,M,,*61
2021-07-18 20:59:35Z, 6cda8203-a249-e411-b0cc-f8bc1246af59, $GPGGA,205935.00,4437.5840,N,12402.8887,W,1,10,0.8,22.0,M,-21.8,M,,*6E
2021-07-18 20:59:37Z, 6cda8203-a249-e411-b0cc-f8bc1246af59, $GPGGA,205937.00,4437.5839,N,12402.8887,W,1,10,0.8,22.1,M,-21.8,M,,*63
2021-07-18 20:59:38Z, 6cda8203-a249-e411-b0cc-f8bc1246af59, $GPGGA,205938.00,4437.5840,N,12402.8889,W,1,10,0.8,21.9,M,-21.8,M,,*67
2021-07-18 20:59:40Z, 6cda8203-a249-e411-b0cc-f8bc1246af59, $GPGGA,205940.00,4437.5839,N,12402.8889,W,1,10,0.8,22.0,M,-21.8,M,,*6C
2021-07-18 20:59:41Z, 6cda8203-a249-e411-b0cc-f8bc1246af59, $GPGGA,205941.00,4437.5839,N,12402.8888,W,1,10,0.8,22.0,M,-21.8,M,,*6C
2021-07-18 20:59:43Z, 6cda8203-a249-e411-b0cc-f8bc1246af59, $GPGGA,205943.00,4437.5842,N,12402.8889,W,1,10,0.8,21.1,M,-21.8,M,,*61
2021-07-18 20:59:44Z, 6cda8203-a249-e411-b0cc-f8bc1246af59, $GPGGA,205944.00,4437.5842,N,12402.8887,W,1,10,0.8,21.1,M,-21.8,M,,*68
2021-07-18 20:59:46Z, 6cda8203-a249-e411-b0cc-f8bc1246af59, $GPGGA,205946.00,4437.5845,N,12402.8879,W,1,10,0.8,20.9,M,-21.8,M,,*65
2021-07-18 20:59:47Z, 6cda8203-a249-e411-b0cc-f8bc1246af59, $GPGGA,205947.00,4437.5842,N,12402.8877,W,1,10,0.8,21.0,M,-21.8,M,,*65
2021-07-18 20:59:49Z, 6cda8203-a249-e411-b0cc-f8bc1246af59, $GPGGA,205949.00,4437.5840,N,12402.8876,W,1,10,0.8,20.8,M,-21.8,M,,*61
2021-07-18 20:59:50Z, 6cda8203-a249-e411-b0cc-f8bc1246af59, $GPGGA,205950.00,4437.5839,N,12402.8878,W,1,10,0.8,20.8,M,-21.8,M,,*69
2021-07-18 20:59:52Z, 6cda8203-a249-e411-b0cc-f8bc1246af59, $GPGGA,205952.00,4437.5842,N,12402.8881,W,1,10,0.8,20.8,M,-21.8,M,,*61
2021-07-18 20:59:53Z, 6cda8203-a249-e411-b0cc-f8bc1246af59, $GPGGA,205953.00,4437.5843,N,12402.8882,W,1,10,0.8,20.7,M,-21.8,M,,*6D
2021-07-18 20:59:55Z, 6cda8203-a249-e411-b0cc-f8bc1246af59, $GPGGA,205955.00,4437.5844,N,12402.8882,W,1,10,0.8,20.8,M,-21.8,M,,*63
2021-07-18 20:59:56Z, 6cda8203-a249-e411-b0cc-f8bc1246af59, $GPGGA,205956.00,4437.5845,N,12402.8881,W,1,10,0.8,20.9,M,-21.8,M,,*63
2021-07-18 20:59:58Z, 6cda8203-a249-e411-b0cc-f8bc1246af59, $GPGGA,205958.00,4437.5846,N,12402.8876,W,1,10,0.8,20.9,M,-21.8,M,,*66
2021-07-18 20:59:59Z, 6cda8203-a249-e411-b0cc-f8bc1246af59, $GPGGA,205959.00,4437.5847,N,12402.8872,W,1,10,0.8,21.0,M,-21.8,M,,*6A
2021-07-18 21:00:01Z, 6cda8203-a249-e411-b0cc-f8bc1246af59, $GPGGA,210001.00,4437.5846,N,12402.8871,W,1,10,0.8,21.1,M,-21.8,M,,*69
2021-07-18 21:00:02Z, 6cda8203-a249-e411-b0cc-f8bc1246af59, $GPGGA,210002.00,4437.5845,N,12402.8871,W,1,10,0.8,21.1,M,-21.8,M,,*69
2021-07-18 21:00:04Z, 6cda8203-a249-e411-b0cc-f8bc1246af59, $GPGGA,210004.00,4437.5845,N,12402.8871,W,1,10,0.8,21.2,M,-21.8,M,,*6C
2021-07-18 21:00:05Z, 6cda8203-a249-e411-b0cc-f8bc1246af59, $GPGGA,210005.00,4437.5846,N,12402.8871,W,1,10,0.8,21.3,M,-21.8,M,,*6F
2021-07-18 21:00:07Z, 6cda8203-a249-e411-b0cc-f8bc1246af59, $GPGGA,210007.00,4437.5845,N,12402.8869,W,1,10,0.8,21.3,M,-21.8,M,,*67
2021-07-18 21:00:08Z, 6cda8203-a249-e411-b0cc-f8bc1246af59, $GPGGA,210008.00,4437.5845,N,12402.8868,W,1,10,0.8,21.2,M,-21.8,M,,*68
2021-07-18 21:00:10Z, 6cda8203-a249-e411-b0cc-f8bc1246af59, $GPGGA,210010.00,4437.5847,N,12402.8866,W,1,10,0.8,20.9,M,-21.8,M,,*67
2021-07-18 21:00:12Z, 6cda8203-a249-e411-b0cc-f8bc1246af59, $GPGGA,210011.00,4437.5848,N,12402.8865,W,1,10,0.8,20.9,M,-21.8,M,,*6A
2021-07-18 21:00:13Z, 6cda8203-a249-e411-b0cc-f8bc1246af59, $GPGGA,210013.00,4437.5850,N,12402.8866,W,1,10,0.8,20.7,M,-21.8,M,,*6C
2021-07-18 21:00:15Z, 6cda8203-a249-e411-b0cc-f8bc1246af59, $GPGGA,210014.00,4437.5849,N,12402.8869,W,1,10,0.8,20.6,M,-21.8,M,,*6D
2021-07-18 21:00:16Z, 6cda8203-a249-e411-b0cc-f8bc1246af59, $GPGGA,210015.00,4437.5849,N,12402.8870,W,1,10,0.8,20.6,M,-21.8,M,,*64
2021-07-18 21:00:17Z, 6cda8203-a249-e411-b0cc-f8bc1246af59, $GPGGA,210016.00,4437.5847,N,12402.8872,W,1,10,0.8,20.5,M,-21.8,M,,*68
2021-07-18 21:00:19Z, 6cda8203-a249-e411-b0cc-f8bc1246af59, $GPGGA,210018.00,4437.5844,N,12402.8873,W,1,10,0.8,20.3,M,-21.8,M,,*62
2021-07-18 21:00:20Z, 6cda8203-a249-e411-b0cc-f8bc1246af59, $GPGGA,210019.00,4437.5844,N,12402.8872,W,1,10,0.8,20.3,M,-21.8,M,,*62
2021-07-18 21:00:22Z, 6cda8203-a249-e411-b0cc-f8bc1246af59, $GPGGA,210021.00,4437.5843,N,12402.8872,W,1,10,0.8,20.2,M,-21.8,M,,*6F
2021-07-18 21:00:24Z, 6cda8203-a249-e411-b0cc-f8bc1246af59, $GPGGA,210022.00,4437.5842,N,12402.8871,W,1,10,0.8,20.3,M,-21.8,M,,*6F
2021-07-18 21:00:25Z, 6cda8203-a249-e411-b0cc-f8bc1246af59, $GPGGA,210024.00,4437.5840,N,12402.8867,W,1,10,0.8,20.4,M,-21.8,M,,*6B
2021-07-18 21:00:27Z, 6cda8203-a249-e411-b0cc-f8bc1246af59, $GPGGA,210025.00,4437.5839,N,12402.8867,W,1,10,0.8,20.4,M,-21.8,M,,*64
2021-07-18 21:00:28Z, 6cda8203-a249-e411-b0cc-f8bc1246af59, $GPGGA,210027.00,4437.5835,N,12402.8867,W,1,10,0.8,20.5,M,-21.8,M,,*6B
2021-07-18 21:00:29Z, 6cda8203-a249-e411-b0cc-f8bc1246af59, $GPGGA,210028.00,4437.5835,N,12402.8871,W,1,10,0.8,20.8,M,-21.8,M,,*6E
2021-07-18 21:00:31Z, 6cda8203-a249-e411-b0cc-f8bc1246af59, $GPGGA,210030.00,4437.5834,N,12402.8873,W,1,10,0.8,21.0,M,-21.8,M,,*6D
2021-07-18 21:00:32Z, 6cda8203-a249-e411-b0cc-f8bc1246af59, $GPGGA,210031.00,4437.5833,N,12402.8872,W,1,10,0.8,21.0,M,-21.8,M,,*6A
2021-07-18 21:00:34Z, 6cda8203-a249-e411-b0cc-f8bc1246af59, $GPGGA,210033.00,4437.5835,N,12402.8870,W,1,10,0.8,21.0,M,-21.8,M,,*6C
2021-07-18 21:00:35Z, 6cda8203-a249-e411-b0cc-f8bc1246af59, $GPGGA,210034.00,4437.5835,N,12402.8869,W,1,10,0.8,21.0,M,-21.8,M,,*63
2021-07-18 21:00:37Z, 6cda8203-a249-e411-b0cc-f8bc1246af59, $GPGGA,210036.00,4437.5837,N,12402.8872,W,1,10,0.8,21.0,M,-21.8,M,,*69
2021-07-18 21:00:38Z, 6cda8203-a249-e411-b0cc-f8bc1246af59, $GPGGA,210037.00,4437.5838,N,12402.8873,W,1,10,0.8,21.0,M,-21.8,M,,*66
2021-07-18 21:00:40Z, 6cda8203-a249-e411-b0cc-f8bc1246af59, $GPGGA,210039.00,4437.5841,N,12402.8871,W,1,10,0.8,21.0,M,-21.8,M,,*64
2021-07-18 21:00:41Z, 6cda8203-a249-e411-b0cc-f8bc1246af59, $GPGGA,210040.00,4437.5840,N,12402.8869,W,1,10,0.8,21.0,M,-21.8,M,,*62
2021-07-18 21:00:43Z, 6cda8203-a249-e411-b0cc-f8bc1246af59, $GPGGA,210042.00,4437.5843,N,12402.8866,W,1,10,0.8,21.0,M,-21.8,M,,*6C
2021-07-18 21:00:44Z, 6cda8203-a249-e411-b0cc-f8bc1246af59, $GPGGA,210043.00,4437.5844,N,12402.8867,W,1,10,0.8,21.0,M,-21.8,M,,*6B
2021-07-18 21:00:46Z, 6cda8203-a249-e411-b0cc-f8bc1246af59, $GPGGA,210045.00,4437.5845,N,12402.8865,W,1,10,0.8,21.1,M,-21.8,M,,*6F
2021-07-18 21:00:47Z, 6cda8203-a249-e411-b0cc-f8bc1246af59, $GPGGA,210046.00,4437.5846,N,12402.8866,W,1,10,0.8,21.1,M,-21.8,M,,*6C
2021-07-18 21:00:49Z, 6cda8203-a249-e411-b0cc-f8bc1246af59, $GPGGA,210048.00,4437.5850,N,12402.8865,W,1,10,0.8,21.1,M,-21.8,M,,*66
2021-07-18 21:00:50Z, 6cda8203-a249-e411-b0cc-f8bc1246af59, $GPGGA,210049.00,4437.5852,N,12402.8865,W,1,10,0.8,21.2,M,-21.8,M,,*66
2021-07-18 21:00:52Z, 6cda8203-a249-e411-b0cc-f8bc1246af59, $GPGGA,210051.00,4437.5850,N,12402.8863,W,1,10,0.8,21.3,M,-21.8,M,,*6A
2021-07-18 21:00:53Z, 6cda8203-a249-e411-b0cc-f8bc1246af59, $GPGGA,210052.00,4437.5849,N,12402.8861,W,1,10,0.8,21.3,M,-21.8,M,,*63
2021-07-18 21:00:55Z, 6cda8203-a249-e411-b0cc-f8bc1246af59, $GPGGA,210054.00,4437.5848,N,12402.8859,W,1,10,0.8,21.5,M,-21.8,M,,*69
2021-07-18 21:00:56Z, 6cda8203-a249-e411-b0cc-f8bc1246af59, $GPGGA,210055.00,4437.5849,N,12402.8860,W,1,10,0.8,21.6,M,-21.8,M,,*60
2021-07-18 21:00:58Z, 6cda8203-a249-e411-b0cc-f8bc1246af59, $GPGGA,210057.00,4437.5850,N,12402.8859,W,1,10,0.8,21.5,M,-21.8,M,,*63
2021-07-18 21:00:59Z, 6cda8203-a249-e411-b0cc-f8bc1246af59, $GPGGA,210058.00,4437.5850,N,12402.8860,W,1,10,0.8,21.4,M,-21.8,M,,*67
2021-07-18 21:01:01Z, 6cda8203-a249-e411-b0cc-f8bc1246af59, $GPGGA,210100.00,4437.5849,N,12402.8865,W,1,10,0.8,21.3,M,-21.8,M,,*61
2021-07-18 21:01:02Z, 6cda8203-a249-e411-b0cc-f8bc1246af59, $GPGGA,210101.00,4437.5847,N,12402.8853,W,1,10,0.8,21.2,M,-21.8,M,,*6A
2021-07-18 21:01:04Z, 6cda8203-a249-e411-b0cc-f8bc1246af59, $GPGGA,210103.00,4437.5846,N,12402.8857,W,1,10,0.8,21.4,M,-21.8,M,,*6B
2021-07-18 21:01:05Z, 6cda8203-a249-e411-b0cc-f8bc1246af59, $GPGGA,210104.00,4437.5847,N,12402.8856,W,1,10,0.8,21.4,M,-21.8,M,,*6C
2021-07-18 21:01:07Z, 6cda8203-a249-e411-b0cc-f8bc1246af59, $GPGGA,210106.00,4437.5845,N,12402.8858,W,1,10,0.8,21.5,M,-21.8,M,,*63
2021-07-18 21:01:08Z, 6cda8203-a249-e411-b0cc-f8bc1246af59, $GPGGA,210107.00,4437.5845,N,12402.8858,W,1,10,0.8,21.5,M,-21.8,M,,*62
2021-07-18 21:01:10Z, 6cda8203-a249-e411-b0cc-f8bc1246af59, $GPGGA,210109.00,4437.5844,N,12402.8860,W,1,10,0.8,21.7,M,-21.8,M,,*64
2021-07-18 21:01:11Z, 6cda8203-a249-e411-b0cc-f8bc1246af59, $GPGGA,210110.00,4437.5843,N,12402.8861,W,1,10,0.8,21.7,M,-21.8,M,,*6A
2021-07-18 21:01:13Z, 6cda8203-a249-e411-b0cc-f8bc1246af59, $GPGGA,210112.00,4437.5842,N,12402.8861,W,1,10,0.8,21.8,M,-21.8,M,,*66
2021-07-18 21:01:14Z, 6cda8203-a249-e411-b0cc-f8bc1246af59, $GPGGA,210113.00,4437.5839,N,12402.8861,W,1,10,0.8,21.9,M,-21.8,M,,*6A
2021-07-18 21:01:16Z, 6cda8203-a249-e411-b0cc-f8bc1246af59, $GPGGA,210115.00,4437.5838,N,12402.8862,W,1,10,0.8,22.2,M,-21.8,M,,*66
2021-07-18 21:01:17Z, 6cda8203-a249-e411-b0cc-f8bc1246af59, $GPGGA,210116.00,4437.5838,N,12402.8862,W,1,10,0.8,22.3,M,-21.8,M,,*64
2021-07-18 21:01:19Z, 6cda8203-a249-e411-b0cc-f8bc1246af59, $GPGGA,210118.00,4437.5836,N,12402.8866,W,1,10,0.8,22.6,M,-21.8,M,,*65
2021-07-18 21:01:20Z, 6cda8203-a249-e411-b0cc-f8bc1246af59, $GPGGA,210119.00,4437.5836,N,12402.8867,W,1,10,0.8,22.6,M,-21.8,M,,*65
2021-07-18 21:01:22Z, 6cda8203-a249-e411-b0cc-f8bc1246af59, $GPGGA,210121.00,4437.5836,N,12402.8873,W,1,10,0.8,22.6,M,-21.8,M,,*6B
2021-07-18 21:01:23Z, 6cda8203-a249-e411-b0cc-f8bc1246af59, $GPGGA,210122.00,4437.5836,N,12402.8874,W,1,10,0.8,22.6,M,-21.8,M,,*6F
2021-07-18 21:01:25Z, 6cda8203-a249-e411-b0cc-f8bc1246af59, $GPGGA,210124.00,4437.5837,N,12402.8873,W,1,10,0.8,22.8,M,-21.8,M,,*61
2021-07-18 21:01:26Z, 6cda8203-a249-e411-b0cc-f8bc1246af59, $GPGGA,210125.00,4437.5838,N,12402.8874,W,1,10,0.8,22.9,M,-21.8,M,,*69
2021-07-18 21:01:28Z, 6cda8203-a249-e411-b0cc-f8bc1246af59, $GPGGA,210127.00,4437.5842,N,12402.8875,W,1,10,0.8,22.9,M,-21.8,M,,*67
2021-07-18 21:01:29Z, 6cda8203-a249-e411-b0cc-f8bc1246af59, $GPGGA,210128.00,4437.5843,N,12402.8875,W,1,10,0.8,22.9,M,-21.8,M,,*69
2021-07-18 21:01:31Z, 6cda8203-a249-e411-b0cc-f8bc1246af59, $GPGGA,210130.00,4437.5848,N,12402.8877,W,1,10,0.8,23.0,M,-21.8,M,,*61
2021-07-18 21:01:32Z, 6cda8203-a249-e411-b0cc-f8bc1246af59, $GPGGA,210131.00,4437.5850,N,12402.8878,W,1,10,0.8,22.9,M,-21.8,M,,*6E
2021-07-18 21:01:34Z, 6cda8203-a249-e411-b0cc-f8bc1246af59, $GPGGA,210133.00,4437.5851,N,12402.8875,W,1,10,0.8,22.9,M,-21.8,M,,*60
2021-07-18 21:01:35Z, 6cda8203-a249-e411-b0cc-f8bc1246af59, $GPGGA,210134.00,4437.5851,N,12402.8878,W,1,10,0.8,23.0,M,-21.8,M,,*62
2021-07-18 21:01:37Z, 6cda8203-a249-e411-b0cc-f8bc1246af59, $GPGGA,210136.00,4437.5853,N,12402.8880,W,1,10,0.8,23.1,M,-21.8,M,,*64
2021-07-18 21:01:38Z, 6cda8203-a249-e411-b0cc-f8bc1246af59, $GPGGA,210137.00,4437.5854,N,12402.8882,W,1,10,0.8,23.1,M,-21.8,M,,*60
2021-07-18 21:01:40Z, 6cda8203-a249-e411-b0cc-f8bc1246af59, $GPGGA,210139.00,4437.5857,N,12402.8884,W,1,10,0.8,23.2,M,-21.8,M,,*68
2021-07-18 21:01:41Z, 6cda8203-a249-e411-b0cc-f8bc1246af59, $GPGGA,210140.00,4437.5857,N,12402.8887,W,1,10,0.8,23.2,M,-21.8,M,,*65
2021-07-18 21:01:43Z, 6cda8203-a249-e411-b0cc-f8bc1246af59, $GPGGA,210142.00,4437.5859,N,12402.8887,W,1,10,0.8,23.2,M,-21.8,M,,*69
2021-07-18 21:01:44Z, 6cda8203-a249-e411-b0cc-f8bc1246af59, $GPGGA,210143.00,4437.5857,N,12402.8887,W,1,10,0.8,23.2,M,-21.8,M,,*66
2021-07-18 21:01:46Z, 6cda8203-a249-e411-b0cc-f8bc1246af59, $GPGGA,210145.00,4437.5856,N,12402.8887,W,1,10,0.8,23.2,M,-21.8,M,,*61
2021-07-18 21:01:47Z, 6cda8203-a249-e411-b0cc-f8bc1246af59, $GPGGA,210146.00,4437.5855,N,12402.8889,W,1,10,0.8,23.3,M,-21.8,M,,*6E
2021-07-18 21:01:49Z, 6cda8203-a249-e411-b0cc-f8bc1246af59, $GPGGA,210148.00,4437.5857,N,12402.8885,W,1,10,0.8,23.2,M,-21.8,M,,*6F
2021-07-18 21:01:50Z, 6cda8203-a249-e411-b0cc-f8bc1246af59, $GPGGA,210149.00,4437.5859,N,12402.8886,W,1,10,0.8,23.2,M,-21.8,M,,*63
2021-07-18 21:01:52Z, 6cda8203-a249-e411-b0cc-f8bc1246af59, $GPGGA,210151.00,4437.5862,N,12402.8885,W,1,10,0.8,23.0,M,-21.8,M,,*63
2021-07-18 21:01:53Z, 6cda8203-a249-e411-b0cc-f8bc1246af59, $GPGGA,210152.00,4437.5862,N,12402.8887,W,1,10,0.8,23.0,M,-21.8,M,,*62
2021-07-18 21:01:55Z, 6cda8203-a249-e411-b0cc-f8bc1246af59, $GPGGA,210154.00,4437.5861,N,12402.8888,W,1,10,0.8,23.0,M,-21.8,M,,*68
2021-07-18 21:01:56Z, 6cda8203-a249-e411-b0cc-f8bc1246af59, $GPGGA,210155.00,4437.5860,N,12402.8889,W,1,10,0.8,23.0,M,-21.8,M,,*69
2021-07-18 21:01:58Z, 6cda8203-a249-e411-b0cc-f8bc1246af59, $GPGGA,210157.00,4437.5861,N,12402.8889,W,1,10,0.8,22.9,M,-21.8,M,,*62
2021-07-18 21:01:59Z, 6cda8203-a249-e411-b0cc-f8bc1246af59, $GPGGA,210158.00,4437.5860,N,12402.8889,W,1,10,0.8,22.9,M,-21.8,M,,*6C
2021-07-18 21:02:01Z, 6cda8203-a249-e411-b0cc-f8bc1246af59, $GPGGA,210200.00,4437.5863,N,12402.8888,W,1,10,0.8,22.9,M,-21.8,M,,*60
2021-07-18 21:02:02Z, 6cda8203-a249-e411-b0cc-f8bc1246af59, $GPGGA,210201.00,4437.5863,N,12402.8885,W,1,10,0.8,22.9,M,-21.8,M,,*6C
2021-07-18 21:02:04Z, 6cda8203-a249-e411-b0cc-f8bc1246af59, $GPGGA,210203.00,4437.5863,N,12402.8884,W,1,10,0.8,22.9,M,-21.8,M,,*6F
2021-07-18 21:02:05Z, 6cda8203-a249-e411-b0cc-f8bc1246af59, $GPGGA,210204.00,4437.5863,N,12402.8883,W,1,10,0.8,22.9,M,-21.8,M,,*6F
2021-07-18 21:02:07Z, 6cda8203-a249-e411-b0cc-f8bc1246af59, $GPGGA,210206.00,4437.5863,N,12402.8883,W,1,10,0.8,22.9,M,-21.8,M,,*6D
2021-07-18 21:02:08Z, 6cda8203-a249-e411-b0cc-f8bc1246af59, $GPGGA,210207.00,4437.5860,N,12402.8882,W,1,10,0.8,22.9,M,-21.8,M,,*6E
2021-07-18 21:02:10Z, 6cda8203-a249-e411-b0cc-f8bc1246af59, $GPGGA,210209.00,4437.5858,N,12402.8882,W,1,10,0.8,22.8,M,-21.8,M,,*6A
2021-07-18 21:02:11Z, 6cda8203-a249-e411-b0cc-f8bc1246af59, $GPGGA,210210.00,4437.5858,N,12402.8881,W,1,10,0.8,22.8,M,-21.8,M,,*61
2021-07-18 21:02:13Z, 6cda8203-a249-e411-b0cc-f8bc1246af59, $GPGGA,210212.00,4437.5861,N,12402.8884,W,1,10,0.8,22.9,M,-21.8,M,,*6D
2021-07-18 21:02:14Z, 6cda8203-a249-e411-b0cc-f8bc1246af59, $GPGGA,210213.00,4437.5860,N,12402.8884,W,1,10,0.8,22.9,M,-21.8,M,,*6D
2021-07-18 21:02:16Z, 6cda8203-a249-e411-b0cc-f8bc1246af59, $GPGGA,210215.00,4437.5860,N,12402.8884,W,1,10,0.8,23.0,M,-21.8,M,,*63
2021-07-18 21:02:17Z, 6cda8203-a249-e411-b0cc-f8bc1246af59, $GPGGA,210216.00,4437.5859,N,12402.8885,W,1,10,0.8,23.0,M,-21.8,M,,*6B
2021-07-18 21:02:17Z, 6cda8203-a249-e411-b0cc-f8bc1246af59, $GPGGA,210217.00,4437.5857,N,12402.8884,W,1,10,0.8,22.9,M,-21.8,M,,*6D
2021-07-18 21:02:19Z, 6cda8203-a249-e411-b0cc-f8bc1246af59, $GPGGA,210218.00,4437.5858,N,12402.8884,W,1,10,0.8,22.7,M,-21.8,M,,*63
2021-07-18 21:02:20Z, 6cda8203-a249-e411-b0cc-f8bc1246af59, $GPGGA,210219.00,4437.5859,N,12402.8885,W,1,10,0.8,22.5,M,-21.8,M,,*60
2021-07-18 21:02:21Z, 6cda8203-a249-e411-b0cc-f8bc1246af59, $GPGGA,210220.00,4437.5860,N,12402.8885,W,1,10,0.8,22.3,M,-21.8,M,,*66
2021-07-18 21:02:22Z, 6cda8203-a249-e411-b0cc-f8bc1246af59, $GPGGA,210221.00,4437.5861,N,12402.8886,W,1,10,0.8,22.1,M,-21.8,M,,*67
2021-07-18 21:02:24Z, 6cda8203-a249-e411-b0cc-f8bc1246af59, $GPGGA,210223.00,4437.5860,N,12402.8886,W,1,10,0.8,22.4,M,-21.8,M,,*61
2021-07-18 21:02:25Z, 6cda8203-a249-e411-b0cc-f8bc1246af59, $GPGGA,210224.00,4437.5859,N,12402.8886,W,1,10,0.8,22.5,M,-21.8,M,,*6D
2021-07-18 21:02:27Z, 6cda8203-a249-e411-b0cc-f8bc1246af59, $GPGGA,210226.00,4437.5857,N,12402.8886,W,1,10,0.8,22.5,M,-21.8,M,,*61
2021-07-18 21:02:29Z, 6cda8203-a249-e411-b0cc-f8bc1246af59, $GPGGA,210227.00,4437.5856,N,12402.8887,W,1,10,0.8,22.3,M,-21.8,M,,*66
2021-07-18 21:02:30Z, 6cda8203-a249-e411-b0cc-f8bc1246af59, $GPGGA,210229.00,4437.5855,N,12402.8884,W,1,10,0.8,22.1,M,-21.8,M,,*6A
2021-07-18 21:02:32Z, 6cda8203-a249-e411-b0cc-f8bc1246af59, $GPGGA,210230.00,4437.5855,N,12402.8885,W,1,10,0.8,21.9,M,-21.8,M,,*68
2021-07-18 21:02:33Z, 6cda8203-a249-e411-b0cc-f8bc1246af59, $GPGGA,210232.00,4437.5853,N,12402.8887,W,1,10,0.8,21.6,M,-21.8,M,,*61
2021-07-18 21:02:34Z, 6cda8203-a249-e411-b0cc-f8bc1246af59, $GPGGA,210233.00,4437.5852,N,12402.8885,W,1,10,0.8,21.6,M,-21.8,M,,*63
2021-07-18 21:02:36Z, 6cda8203-a249-e411-b0cc-f8bc1246af59, $GPGGA,210235.00,4437.5854,N,12402.8885,W,1,10,0.8,21.9,M,-21.8,M,,*6C
2021-07-18 21:02:37Z, 6cda8203-a249-e411-b0cc-f8bc1246af59, $GPGGA,210236.00,4437.5854,N,12402.8886,W,1,10,0.8,22.0,M,-21.8,M,,*66
2021-07-18 21:02:39Z, 6cda8203-a249-e411-b0cc-f8bc1246af59, $GPGGA,210238.00,4437.5855,N,12402.8887,W,1,10,0.8,22.4,M,-21.8,M,,*6C
2021-07-18 21:02:40Z, 6cda8203-a249-e411-b0cc-f8bc1246af59, $GPGGA,210239.00,4437.5855,N,12402.8887,W,1,10,0.8,22.4,M,-21.8,M,,*6D
2021-07-18 21:02:42Z, 6cda8203-a249-e411-b0cc-f8bc1246af59, $GPGGA,210241.00,4437.5855,N,12402.8881,W,1,10,0.8,22.5,M,-21.8,M,,*65
2021-07-18 21:02:43Z, 6cda8203-a249-e411-b0cc-f8bc1246af59, $GPGGA,210242.00,4437.5856,N,12402.8878,W,1,10,0.8,22.5,M,-21.8,M,,*63
2021-07-18 21:02:45Z, 6cda8203-a249-e411-b0cc-f8bc1246af59, $GPGGA,210244.00,4437.5854,N,12402.8874,W,1,10,0.8,22.6,M,-21.8,M,,*68
2021-07-18 21:02:46Z, 6cda8203-a249-e411-b0cc-f8bc1246af59, $GPGGA,210245.00,4437.5856,N,12402.8872,W,1,10,0.8,22.8,M,-21.8,M,,*63
2021-07-18 21:02:48Z, 6cda8203-a249-e411-b0cc-f8bc1246af59, $GPGGA,210247.00,4437.5858,N,12402.8869,W,1,10,0.8,22.9,M,-21.8,M,,*64
2021-07-18 21:02:49Z, 6cda8203-a249-e411-b0cc-f8bc1246af59, $GPGGA,210248.00,4437.5860,N,12402.8868,W,1,10,0.8,22.8,M,-21.8,M,,*60
2021-07-18 21:02:51Z, 6cda8203-a249-e411-b0cc-f8bc1246af59, $GPGGA,210250.00,4437.5862,N,12402.8865,W,1,10,0.8,23.0,M,-21.8,M,,*6F
2021-07-18 21:02:52Z, 6cda8203-a249-e411-b0cc-f8bc1246af59, $GPGGA,210251.00,4437.5862,N,12402.8862,W,1,10,0.8,22.9,M,-21.8,M,,*61
2021-07-18 21:02:54Z, 6cda8203-a249-e411-b0cc-f8bc1246af59, $GPGGA,210253.00,4437.5862,N,12402.8859,W,1,10,0.8,22.9,M,-21.8,M,,*6B
2021-07-18 21:02:55Z, 6cda8203-a249-e411-b0cc-f8bc1246af59, $GPGGA,210254.00,4437.5862,N,12402.8858,W,1,10,0.8,22.9,M,-21.8,M,,*6D
2021-07-18 21:02:57Z, 6cda8203-a249-e411-b0cc-f8bc1246af59, $GPGGA,210256.00,4437.5864,N,12402.8860,W,1,10,0.8,23.0,M,-21.8,M,,*6A
2021-07-18 21:02:58Z, 6cda8203-a249-e411-b0cc-f8bc1246af59, $GPGGA,210257.00,4437.5865,N,12402.8859,W,1,10,0.8,23.0,M,-21.8,M,,*60
2021-07-18 21:03:00Z, 6cda8203-a249-e411-b0cc-f8bc1246af59, $GPGGA,210259.00,4437.5866,N,12402.8857,W,1,10,0.8,23.1,M,-21.8,M,,*62
2021-07-18 21:03:01Z, 6cda8203-a249-e411-b0cc-f8bc1246af59, $GPGGA,210300.00,4437.5867,N,12402.8856,W,1,10,0.8,23.1,M,-21.8,M,,*6F
2021-07-18 21:03:03Z, 6cda8203-a249-e411-b0cc-f8bc1246af59, $GPGGA,210302.00,4437.5867,N,12402.8853,W,1,10,0.8,23.2,M,-21.8,M,,*6B
2021-07-18 21:03:04Z, 6cda8203-a249-e411-b0cc-f8bc1246af59, $GPGGA,210303.00,4437.5866,N,12402.8855,W,1,10,0.8,23.3,M,-21.8,M,,*6C
2021-07-18 21:03:06Z, 6cda8203-a249-e411-b0cc-f8bc1246af59, $GPGGA,210305.00,4437.5865,N,12402.8856,W,1,10,0.8,23.5,M,-21.8,M,,*6C
2021-07-18 21:03:07Z, 6cda8203-a249-e411-b0cc-f8bc1246af59, $GPGGA,210306.00,4437.5864,N,12402.8856,W,1,10,0.8,23.3,M,-21.8,M,,*68
2021-07-18 21:03:09Z, 6cda8203-a249-e411-b0cc-f8bc1246af59, $GPGGA,210308.00,4437.5862,N,12402.8855,W,1,10,0.8,23.3,M,-21.8,M,,*63
2021-07-18 21:03:10Z, 6cda8203-a249-e411-b0cc-f8bc1246af59, $GPGGA,210309.00,4437.5863,N,12402.8854,W,1,10,0.8,23.3,M,-21.8,M,,*62
2021-07-18 21:03:12Z, 6cda8203-a249-e411-b0cc-f8bc1246af59, $GPGGA,210311.00,4437.5866,N,12402.8853,W,1,10,0.8,23.4,M,-21.8,M,,*6E
2021-07-18 21:03:13Z, 6cda8203-a249-e411-b0cc-f8bc1246af59, $GPGGA,210312.00,4437.5867,N,12402.8855,W,1,10,0.8,23.3,M,-21.8,M,,*6D
2021-07-18 21:03:15Z, 6cda8203-a249-e411-b0cc-f8bc1246af59, $GPGGA,210314.00,4437.5864,N,12402.8857,W,1,10,0.8,23.2,M,-21.8,M,,*6B
2021-07-18 21:03:16Z, 6cda8203-a249-e411-b0cc-f8bc1246af59, $GPGGA,210315.00,4437.5863,N,12402.8858,W,1,10,0.8,23.2,M,-21.8,M,,*62
2021-07-18 21:03:18Z, 6cda8203-a249-e411-b0cc-f8bc1246af59, $GPGGA,210317.00,4437.5860,N,12402.8860,W,1,10,0.8,23.1,M,-21.8,M,,*6B
2021-07-18 21:03:19Z, 6cda8203-a249-e411-b0cc-f8bc1246af59, $GPGGA,210318.00,4437.5858,N,12402.8861,W,1,10,0.8,23.0,M,-21.8,M,,*6F
2021-07-18 21:03:21Z, 6cda8203-a249-e411-b0cc-f8bc1246af59, $GPGGA,210320.00,4437.5857,N,12402.8864,W,1,10,0.8,22.9,M,-21.8,M,,*66
2021-07-18 21:03:22Z, 6cda8203-a249-e411-b0cc-f8bc1246af59, $GPGGA,210321.00,4437.5856,N,12402.8868,W,1,10,0.8,22.8,M,-21.8,M,,*6B
2021-07-18 21:03:24Z, 6cda8203-a249-e411-b0cc-f8bc1246af59, $GPGGA,210323.00,4437.5854,N,12402.8872,W,1,10,0.8,22.9,M,-21.8,M,,*61
2021-07-18 21:03:25Z, 6cda8203-a249-e411-b0cc-f8bc1246af59, $GPGGA,210324.00,4437.5854,N,12402.8870,W,1,10,0.8,23.0,M,-21.8,M,,*6C
2021-07-18 21:03:27Z, 6cda8203-a249-e411-b0cc-f8bc1246af59, $GPGGA,210326.00,4437.5854,N,12402.8871,W,1,10,0.8,23.1,M,-21.8,M,,*6E
2021-07-18 21:03:28Z, 6cda8203-a249-e411-b0cc-f8bc1246af59, $GPGGA,210327.00,4437.5855,N,12402.8870,W,1,10,0.8,23.2,M,-21.8,M,,*6C
2021-07-18 21:03:30Z, 6cda8203-a249-e411-b0cc-f8bc1246af59, $GPGGA,210329.00,4437.5854,N,12402.8867,W,1,10,0.8,23.3,M,-21.8,M,,*64
2021-07-18 21:03:31Z, 6cda8203-a249-e411-b0cc-f8bc1246af59, $GPGGA,210330.00,4437.5854,N,12402.8865,W,1,10,0.8,23.3,M,-21.8,M,,*6E
2021-07-18 21:03:33Z, 6cda8203-a249-e411-b0cc-f8bc1246af59, $GPGGA,210332.00,4437.5853,N,12402.8866,W,1,10,0.8,23.3,M,-21.8,M,,*68
2021-07-18 21:03:34Z, 6cda8203-a249-e411-b0cc-f8bc1246af59, $GPGGA,210333.00,4437.5851,N,12402.8869,W,1,10,0.8,23.3,M,-21.8,M,,*64
2021-07-18 21:03:36Z, 6cda8203-a249-e411-b0cc-f8bc1246af59, $GPGGA,210335.00,4437.5850,N,12402.8871,W,1,10,0.8,23.3,M,-21.8,M,,*6A
2021-07-18 21:03:37Z, 6cda8203-a249-e411-b0cc-f8bc1246af59, $GPGGA,210336.00,4437.5850,N,12402.8870,W,1,10,0.8,23.2,M,-21.8,M,,*69
2021-07-18 21:03:39Z, 6cda8203-a249-e411-b0cc-f8bc1246af59, $GPGGA,210338.00,4437.5852,N,12402.8875,W,1,10,0.8,23.3,M,-21.8,M,,*61
2021-07-18 21:03:40Z, 6cda8203-a249-e411-b0cc-f8bc1246af59, $GPGGA,210339.00,4437.5852,N,12402.8876,W,1,10,0.8,23.3,M,-21.8,M,,*63
2021-07-18 21:03:42Z, 6cda8203-a249-e411-b0cc-f8bc1246af59, $GPGGA,210341.00,4437.5855,N,12402.8878,W,1,10,0.8,23.3,M,-21.8,M,,*65
2021-07-18 21:03:43Z, 6cda8203-a249-e411-b0cc-f8bc1246af59, $GPGGA,210342.00,4437.5855,N,12402.8880,W,1,10,0.8,23.4,M,-21.8,M,,*66
2021-07-18 21:03:45Z, 6cda8203-a249-e411-b0cc-f8bc1246af59, $GPGGA,210344.00,4437.5855,N,12402.8881,W,1,10,0.8,23.6,M,-21.8,M,,*63
2021-07-18 21:03:46Z, 6cda8203-a249-e411-b0cc-f8bc1246af59, $GPGGA,210345.00,4437.5855,N,12402.8881,W,1,10,0.8,23.8,M,-21.8,M,,*6C
2021-07-18 21:03:48Z, 6cda8203-a249-e411-b0cc-f8bc1246af59, $GPGGA,210347.00,4437.5853,N,12402.8881,W,1,10,0.8,23.8,M,-21.8,M,,*68
2021-07-18 21:03:49Z, 6cda8203-a249-e411-b0cc-f8bc1246af59, $GPGGA,210348.00,4437.5851,N,12402.8882,W,1,10,0.8,23.6,M,-21.8,M,,*68
2021-07-18 21:03:51Z, 6cda8203-a249-e411-b0cc-f8bc1246af59, $GPGGA,210350.00,4437.5849,N,12402.8881,W,1,10,0.8,23.5,M,-21.8,M,,*68
2021-07-18 21:03:52Z, 6cda8203-a249-e411-b0cc-f8bc1246af59, $GPGGA,210351.00,4437.5849,N,12402.8878,W,1,10,0.8,23.4,M,-21.8,M,,*6E
2021-07-18 21:03:54Z, 6cda8203-a249-e411-b0cc-f8bc1246af59, $GPGGA,210353.00,4437.5848,N,12402.8874,W,1,10,0.8,23.3,M,-21.8,M,,*66
2021-07-18 21:03:55Z, 6cda8203-a249-e411-b0cc-f8bc1246af59, $GPGGA,210354.00,4437.5848,N,12402.8873,W,1,10,0.8,23.4,M,-21.8,M,,*61
2021-07-18 21:03:57Z, 6cda8203-a249-e411-b0cc-f8bc1246af59, $GPGGA,210356.00,4437.5845,N,12402.8873,W,1,10,0.8,23.1,M,-21.8,M,,*6B
2021-07-18 21:03:58Z, 6cda8203-a249-e411-b0cc-f8bc1246af59, $GPGGA,210357.00,4437.5842,N,12402.8873,W,1,10,0.8,23.1,M,-21.8,M,,*6D
2021-07-18 21:04:00Z, 6cda8203-a249-e411-b0cc-f8bc1246af59, $GPGGA,210359.00,4437.5840,N,12402.8873,W,1,10,0.8,23.0,M,-21.8,M,,*60
2021-07-18 21:04:01Z, 6cda8203-a249-e411-b0cc-f8bc1246af59, $GPGGA,210400.00,4437.5838,N,12402.8872,W,1,10,0.8,22.9,M,-21.8,M,,*6D
2021-07-18 21:04:03Z, 6cda8203-a249-e411-b0cc-f8bc1246af59, $GPGGA,210402.00,4437.5836,N,12402.8870,W,1,10,0.8,22.9,M,-21.8,M,,*63
2021-07-18 21:04:04Z, 6cda8203-a249-e411-b0cc-f8bc1246af59, $GPGGA,210403.00,4437.5834,N,12402.8868,W,1,10,0.8,22.8,M,-21.8,M,,*68
2021-07-18 21:04:06Z, 6cda8203-a249-e411-b0cc-f8bc1246af59, $GPGGA,210405.00,4437.5834,N,12402.8869,W,1,10,0.8,22.8,M,-21.8,M,,*6F
2021-07-18 21:04:07Z, 6cda8203-a249-e411-b0cc-f8bc1246af59, $GPGGA,210406.00,4437.5837,N,12402.8869,W,1,10,0.8,22.7,M,-21.8,M,,*60
2021-07-18 21:04:09Z, 6cda8203-a249-e411-b0cc-f8bc1246af59, $GPGGA,210408.00,4437.5837,N,12402.8869,W,1,10,0.8,22.7,M,-21.8,M,,*6E
2021-07-18 21:04:10Z, 6cda8203-a249-e411-b0cc-f8bc1246af59, $GPGGA,210409.00,4437.5837,N,12402.8869,W,1,10,0.8,22.6,M,-21.8,M,,*6E
2021-07-18 21:04:12Z, 6cda8203-a249-e411-b0cc-f8bc1246af59, $GPGGA,210411.00,4437.5838,N,12402.8867,W,1,10,0.8,22.5,M,-21.8,M,,*65
2021-07-18 21:04:13Z, 6cda8203-a249-e411-b0cc-f8bc1246af59, $GPGGA,210412.00,4437.5838,N,12402.8870,W,1,10,0.8,22.5,M,-21.8,M,,*60
2021-07-18 21:04:15Z, 6cda8203-a249-e411-b0cc-f8bc1246af59, $GPGGA,210414.00,4437.5840,N,12402.8867,W,1,10,0.8,22.5,M,-21.8,M,,*6F
2021-07-18 21:04:16Z, 6cda8203-a249-e411-b0cc-f8bc1246af59, $GPGGA,210415.00,4437.5841,N,12402.8866,W,1,10,0.8,22.5,M,-21.8,M,,*6E
2021-07-18 21:04:18Z, 6cda8203-a249-e411-b0cc-f8bc1246af59, $GPGGA,210417.00,4437.5842,N,12402.8867,W,1,10,0.8,22.6,M,-21.8,M,,*6D
2021-07-18 21:04:19Z, 6cda8203-a249-e411-b0cc-f8bc1246af59, $GPGGA,210418.00,4437.5841,N,12402.8868,W,1,10,0.8,22.6,M,-21.8,M,,*6E
2021-07-18 21:04:21Z, 6cda8203-a249-e411-b0cc-f8bc1246af59, $GPGGA,210420.00,4437.5844,N,12402.8867,W,1,10,0.8,22.7,M,-21.8,M,,*6E
2021-07-18 21:04:22Z, 6cda8203-a249-e411-b0cc-f8bc1246af59, $GPGGA,210421.00,4437.5845,N,12402.8867,W,1,10,0.8,22.8,M,-21.8,M,,*61
2021-07-18 21:04:23Z, 6cda8203-a249-e411-b0cc-f8bc1246af59, $GPGGA,210422.00,4437.5847,N,12402.8867,W,1,10,0.8,22.9,M,-21.8,M,,*61
2021-07-18 21:04:24Z, 6cda8203-a249-e411-b0cc-f8bc1246af59, $GPGGA,210423.00,4437.5846,N,12402.8863,W,1,10,0.8,23.1,M,-21.8,M,,*6C
2021-07-18 21:04:25Z, 6cda8203-a249-e411-b0cc-f8bc1246af59, $GPGGA,210424.00,4437.5845,N,12402.8862,W,1,10,0.8,23.1,M,-21.8,M,,*69
2021-07-18 21:04:26Z, 6cda8203-a249-e411-b0cc-f8bc1246af59, $GPGGA,210425.00,4437.5844,N,12402.8862,W,1,10,0.8,23.1,M,-21.8,M,,*69
2021-07-18 21:04:27Z, 6cda8203-a249-e411-b0cc-f8bc1246af59, $GPGGA,210426.00,4437.5844,N,12402.8860,W,1,10,0.8,23.1,M,-21.8,M,,*68
2021-07-18 21:04:29Z, 6cda8203-a249-e411-b0cc-f8bc1246af59, $GPGGA,210428.00,4437.5843,N,12402.8860,W,1,10,0.8,23.1,M,-21.8,M,,*61
2021-07-18 21:04:31Z, 6cda8203-a249-e411-b0cc-f8bc1246af59, $GPGGA,210429.00,4437.5843,N,12402.8862,W,1,10,0.8,23.1,M,-21.8,M,,*62
2021-07-18 21:04:32Z, 6cda8203-a249-e411-b0cc-f8bc1246af59, $GPGGA,210431.00,4437.5842,N,12402.8862,W,1,10,0.8,23.0,M,-21.8,M,,*6B
2021-07-18 21:04:34Z, 6cda8203-a249-e411-b0cc-f8bc1246af59, $GPGGA,210432.00,4437.5842,N,12402.8864,W,1,10,0.8,22.9,M,-21.8,M,,*66
2021-07-18 21:04:35Z, 6cda8203-a249-e411-b0cc-f8bc1246af59, $GPGGA,210434.00,4437.5841,N,12402.8865,W,1,10,0.8,22.7,M,-21.8,M,,*6C
2021-07-18 21:04:37Z, 6cda8203-a249-e411-b0cc-f8bc1246af59, $GPGGA,210435.00,4437.5842,N,12402.8865,W,1,10,0.8,22.5,M,-21.8,M,,*6C
2021-07-18 21:04:38Z, 6cda8203-a249-e411-b0cc-f8bc1246af59, $GPGGA,210437.00,4437.5841,N,12402.8861,W,1,10,0.8,22.4,M,-21.8,M,,*68
2021-07-18 21:04:39Z, 6cda8203-a249-e411-b0cc-f8bc1246af59, $GPGGA,210438.00,4437.5840,N,12402.8862,W,1,10,0.8,22.5,M,-21.8,M,,*64
2021-07-18 21:04:41Z, 6cda8203-a249-e411-b0cc-f8bc1246af59, $GPGGA,210440.00,4437.5842,N,12402.8864,W,1,10,0.8,22.5,M,-21.8,M,,*6F
2021-07-18 21:04:42Z, 6cda8203-a249-e411-b0cc-f8bc1246af59, $GPGGA,210441.00,4437.5841,N,12402.8862,W,1,10,0.8,22.5,M,-21.8,M,,*6B
2021-07-18 21:04:44Z, 6cda8203-a249-e411-b0cc-f8bc1246af59, $GPGGA,210443.00,4437.5839,N,12402.8862,W,1,10,0.8,22.4,M,-21.8,M,,*67
2021-07-18 21:04:45Z, 6cda8203-a249-e411-b0cc-f8bc1246af59, $GPGGA,210444.00,4437.5839,N,12402.8861,W,1,10,0.8,22.4,M,-21.8,M,,*63
2021-07-18 21:04:47Z, 6cda8203-a249-e411-b0cc-f8bc1246af59, $GPGGA,210446.00,4437.5838,N,12402.8861,W,1,10,0.8,22.3,M,-21.8,M,,*67
2021-07-18 21:04:48Z, 6cda8203-a249-e411-b0cc-f8bc1246af59, $GPGGA,210447.00,4437.5837,N,12402.8862,W,1,10,0.8,22.4,M,-21.8,M,,*6D
2021-07-18 21:04:50Z, 6cda8203-a249-e411-b0cc-f8bc1246af59, $GPGGA,210449.00,4437.5836,N,12402.8865,W,1,10,0.8,22.8,M,-21.8,M,,*69
2021-07-18 21:04:51Z, 6cda8203-a249-e411-b0cc-f8bc1246af59, $GPGGA,210450.00,4437.5837,N,12402.8865,W,1,10,0.8,23.0,M,-21.8,M,,*69
2021-07-18 21:04:53Z, 6cda8203-a249-e411-b0cc-f8bc1246af59, $GPGGA,210452.00,4437.5837,N,12402.8863,W,1,10,0.8,23.2,M,-21.8,M,,*6F
2021-07-18 21:04:54Z, 6cda8203-a249-e411-b0cc-f8bc1246af59, $GPGGA,210453.00,4437.5836,N,12402.8865,W,1,10,0.8,23.3,M,-21.8,M,,*68
2021-07-18 21:04:56Z, 6cda8203-a249-e411-b0cc-f8bc1246af59, $GPGGA,210455.00,4437.5835,N,12402.8862,W,1,10,0.8,23.5,M,-21.8,M,,*6C
2021-07-18 21:04:57Z, 6cda8203-a249-e411-b0cc-f8bc1246af59, $GPGGA,210456.00,4437.5834,N,12402.8861,W,1,10,0.8,23.6,M,-21.8,M,,*6E
2021-07-18 21:04:59Z, 6cda8203-a249-e411-b0cc-f8bc1246af59, $GPGGA,210458.00,4437.5832,N,12402.8858,W,1,10,0.8,23.9,M,-21.8,M,,*63
2021-07-18 21:05:00Z, 6cda8203-a249-e411-b0cc-f8bc1246af59, $GPGGA,210459.00,4437.5831,N,12402.8858,W,1,10,0.8,24.0,M,-21.8,M,,*6F
2021-07-18 21:05:02Z, 6cda8203-a249-e411-b0cc-f8bc1246af59, $GPGGA,210501.00,4437.5832,N,12402.8855,W,1,10,0.8,24.3,M,-21.8,M,,*6E
2021-07-18 21:05:03Z, 6cda8203-a249-e411-b0cc-f8bc1246af59, $GPGGA,210502.00,4437.5831,N,12402.8854,W,1,10,0.8,24.4,M,-21.8,M,,*68
2021-07-18 21:05:05Z, 6cda8203-a249-e411-b0cc-f8bc1246af59, $GPGGA,210504.00,4437.5831,N,12402.8853,W,1,10,0.8,24.6,M,-21.8,M,,*6B
2021-07-18 21:05:06Z, 6cda8203-a249-e411-b0cc-f8bc1246af59, $GPGGA,210505.00,4437.5831,N,12402.8852,W,1,10,0.8,24.6,M,-21.8,M,,*6B
2021-07-18 21:05:08Z, 6cda8203-a249-e411-b0cc-f8bc1246af59, $GPGGA,210507.00,4437.5831,N,12402.8850,W,1,10,0.8,24.8,M,-21.8,M,,*65
2021-07-18 21:05:09Z, 6cda8203-a249-e411-b0cc-f8bc1246af59, $GPGGA,210508.00,4437.5829,N,12402.8851,W,1,10,0.8,25.0,M,-21.8,M,,*6B
2021-07-18 21:05:11Z, 6cda8203-a249-e411-b0cc-f8bc1246af59, $GPGGA,210510.00,4437.5827,N,12402.8851,W,1,10,0.8,25.1,M,-21.8,M,,*6D
2021-07-18 21:05:12Z, 6cda8203-a249-e411-b0cc-f8bc1246af59, $GPGGA,210511.00,4437.5824,N,12402.8852,W,1,10,0.8,25.1,M,-21.8,M,,*6C
2021-07-18 21:05:14Z, 6cda8203-a249-e411-b0cc-f8bc1246af59, $GPGGA,210513.00,4437.5821,N,12402.8851,W,1,10,0.8,25.0,M,-21.8,M,,*69
2021-07-18 21:05:15Z, 6cda8203-a249-e411-b0cc-f8bc1246af59, $GPGGA,210514.00,4437.5822,N,12402.8851,W,1,10,0.8,24.9,M,-21.8,M,,*65
2021-07-18 21:05:17Z, 6cda8203-a249-e411-b0cc-f8bc1246af59, $GPGGA,210516.00,4437.5827,N,12402.8863,W,1,10,0.8,25.5,M,-21.8,M,,*6E
2021-07-18 21:05:18Z, 6cda8203-a249-e411-b0cc-f8bc1246af59, $GPGGA,210517.00,4437.5829,N,12402.8864,W,1,10,0.8,25.5,M,-21.8,M,,*66
2021-07-18 21:05:20Z, 6cda8203-a249-e411-b0cc-f8bc1246af59, $GPGGA,210519.00,4437.5830,N,12402.8866,W,1,10,0.8,25.5,M,-21.8,M,,*62
2021-07-18 21:05:21Z, 6cda8203-a249-e411-b0cc-f8bc1246af59, $GPGGA,210520.00,4437.5830,N,12402.8867,W,1,10,0.8,25.5,M,-21.8,M,,*69
2021-07-18 21:05:23Z, 6cda8203-a249-e411-b0cc-f8bc1246af59, $GPGGA,210522.00,4437.5830,N,12402.8875,W,1,10,0.8,25.8,M,-21.8,M,,*65
2021-07-18 21:05:24Z, 6cda8203-a249-e411-b0cc-f8bc1246af59, $GPGGA,210523.00,4437.5831,N,12402.8876,W,1,10,0.8,25.8,M,-21.8,M,,*66
2021-07-18 21:05:26Z, 6cda8203-a249-e411-b0cc-f8bc1246af59, $GPGGA,210525.00,4437.5834,N,12402.8875,W,1,10,0.8,25.9,M,-21.8,M,,*67
2021-07-18 21:05:27Z, 6cda8203-a249-e411-b0cc-f8bc1246af59, $GPGGA,210526.00,4437.5835,N,12402.8874,W,1,10,0.8,25.9,M,-21.8,M,,*64
2021-07-18 21:05:29Z, 6cda8203-a249-e411-b0cc-f8bc1246af59, $GPGGA,210528.00,4437.5835,N,12402.8874,W,1,10,0.8,25.9,M,-21.8,M,,*6A
2021-07-18 21:05:30Z, 6cda8203-a249-e411-b0cc-f8bc1246af59, $GPGGA,210529.00,4437.5837,N,12402.8873,W,1,10,0.8,25.9,M,-21.8,M,,*6E
2021-07-18 21:05:32Z, 6cda8203-a249-e411-b0cc-f8bc1246af59, $GPGGA,210531.00,4437.5838,N,12402.8873,W,1,10,0.8,25.8,M,-21.8,M,,*69
2021-07-18 21:05:33Z, 6cda8203-a249-e411-b0cc-f8bc1246af59, $GPGGA,210532.00,4437.5838,N,12402.8869,W,1,10,0.8,25.7,M,-21.8,M,,*6E
2021-07-18 21:05:35Z, 6cda8203-a249-e411-b0cc-f8bc1246af59, $GPGGA,210534.00,4437.5838,N,12402.8864,W,1,10,0.8,25.7,M,-21.8,M,,*65
2021-07-18 21:05:36Z, 6cda8203-a249-e411-b0cc-f8bc1246af59, $GPGGA,210535.00,4437.5838,N,12402.8862,W,1,10,0.8,25.6,M,-21.8,M,,*63
2021-07-18 21:05:38Z, 6cda8203-a249-e411-b0cc-f8bc1246af59, $GPGGA,210537.00,4437.5836,N,12402.8858,W,1,10,0.8,25.5,M,-21.8,M,,*65
2021-07-18 21:05:39Z, 6cda8203-a249-e411-b0cc-f8bc1246af59, $GPGGA,210538.00,4437.5835,N,12402.8857,W,1,10,0.8,25.5,M,-21.8,M,,*66
2021-07-18 21:05:41Z, 6cda8203-a249-e411-b0cc-f8bc1246af59, $GPGGA,210540.00,4437.5832,N,12402.8855,W,1,10,0.8,25.3,M,-21.8,M,,*6A
2021-07-18 21:05:42Z, 6cda8203-a249-e411-b0cc-f8bc1246af59, $GPGGA,210541.00,4437.5831,N,12402.8854,W,1,10,0.8,25.2,M,-21.8,M,,*68
2021-07-18 21:05:44Z, 6cda8203-a249-e411-b0cc-f8bc1246af59, $GPGGA,210543.00,4437.5829,N,12402.8852,W,1,10,0.8,25.1,M,-21.8,M,,*66
2021-07-18 21:05:45Z, 6cda8203-a249-e411-b0cc-f8bc1246af59, $GPGGA,210544.00,4437.5831,N,12402.8851,W,1,10,0.8,25.1,M,-21.8,M,,*6B
2021-07-18 21:05:47Z, 6cda8203-a249-e411-b0cc-f8bc1246af59, $GPGGA,210546.00,4437.5834,N,12402.8848,W,1,10,0.8,24.9,M,-21.8,M,,*6D
2021-07-18 21:05:48Z, 6cda8203-a249-e411-b0cc-f8bc1246af59, $GPGGA,210547.00,4437.5837,N,12402.8847,W,1,10,0.8,24.6,M,-21.8,M,,*6F
2021-07-18 21:05:50Z, 6cda8203-a249-e411-b0cc-f8bc1246af59, $GPGGA,210549.00,4437.5835,N,12402.8850,W,1,10,0.8,24.4,M,-21.8,M,,*67
2021-07-18 21:05:51Z, 6cda8203-a249-e411-b0cc-f8bc1246af59, $GPGGA,210550.00,4437.5834,N,12402.8851,W,1,10,0.8,24.3,M,-21.8,M,,*68
2021-07-18 21:05:53Z, 6cda8203-a249-e411-b0cc-f8bc1246af59, $GPGGA,210552.00,4437.5833,N,12402.8847,W,1,10,0.8,24.1,M,-21.8,M,,*68
2021-07-18 21:05:54Z, 6cda8203-a249-e411-b0cc-f8bc1246af59, $GPGGA,210553.00,4437.5833,N,12402.8846,W,1,10,0.8,23.9,M,-21.8,M,,*67
2021-07-18 21:05:56Z, 6cda8203-a249-e411-b0cc-f8bc1246af59, $GPGGA,210555.00,4437.5831,N,12402.8844,W,1,10,0.8,23.6,M,-21.8,M,,*6E
2021-07-18 21:05:57Z, 6cda8203-a249-e411-b0cc-f8bc1246af59, $GPGGA,210556.00,4437.5832,N,12402.8843,W,1,10,0.8,23.5,M,-21.8,M,,*6A
2021-07-18 21:05:59Z, 6cda8203-a249-e411-b0cc-f8bc1246af59, $GPGGA,210558.00,4437.5832,N,12402.8844,W,1,10,0.8,23.4,M,-21.8,M,,*62
