ACQ Timestamp (Server Time in UTC), MessageID, Data Value For: GNSS-6452-$GPGGA
2021-06-11 20:02:26Z, 6cda8203-a249-e411-b0cc-f8bc1246af59, $GPGGA,200225.00,4437.5850,N,12402.8899,W,1,07,1.0,30.2,M,-21.8,M,,*61
2021-06-11 20:02:28Z, 6cda8203-a249-e411-b0cc-f8bc1246af59, $GPGGA,200227.00,4437.5853,N,12402.8896,W,1,07,1.0,30.0,M,-21.8,M,,*6D
2021-06-11 20:02:29Z, 6cda8203-a249-e411-b0cc-f8bc1246af59, $GPGGA,200228.00,4437.5854,N,12402.8897,W,1,07,1.0,29.9,M,-21.8,M,,*65
2021-06-11 20:02:31Z, 6cda8203-a249-e411-b0cc-f8bc1246af59, $GPGGA,200230.00,4437.5858,N,12402.8896,W,1,07,1.0,30.0,M,-21.8,M,,*60
2021-06-11 20:02:32Z, 6cda8203-a249-e411-b0cc-f8bc1246af59, $GPGGA,200231.00,4437.5859,N,12402.8897,W,1,07,1.0,30.0,M,-21.8,M,,*61
2021-06-11 20:02:34Z, 6cda8203-a249-e411-b0cc-f8bc1246af59, $GPGGA,200233.00,4437.5862,N,12402.8892,W,1,07,1.0,29.9,M,-21.8,M,,*6F
2021-06-11 20:02:35Z, 6cda8203-a249-e411-b0cc-f8bc1246af59, $GPGGA,200234.00,4437.5863,N,12402.8890,W,1,07,1.0,30.0,M,-21.8,M,,*6A
2021-06-11 20:02:37Z, 6cda8203-a249-e411-b0cc-f8bc1246af59, $GPGGA,200236.00,4437.5863,N,12402.8890,W,1,07,1.0,30.0,M,-21.8,M,,*68
2021-06-11 20:02:38Z, 6cda8203-a249-e411-b0cc-f8bc1246af59, $GPGGA,200237.00,4437.5863,N,12402.8887,W,1,07,1.0,29.8,M,-21.8,M,,*6F
2021-06-11 20:02:40Z, 6cda8203-a249-e411-b0cc-f8bc1246af59, $GPGGA,200239.00,4437.5862,N,12402.8885,W,1,07,1.0,29.5,M,-21.8,M,,*6F
2021-06-11 20:02:41Z, 6cda8203-a249-e411-b0cc-f8bc1246af59, $GPGGA,200240.00,4437.5862,N,12402.8883,W,1,07,1.0,29.3,M,-21.8,M,,*61
2021-06-11 20:02:43Z, 6cda8203-a249-e411-b0cc-f8bc1246af59, $GPGGA,200242.00,4437.5860,N,12402.8877,W,1,07,1.0,29.4,M,-21.8,M,,*6D
2021-06-11 20:02:44Z, 6cda8203-a249-e411-b0cc-f8bc1246af59, $GPGGA,200243.00,4437.5863,N,12402.8879,W,1,07,1.0,29.4,M,-21.8,M,,*61
2021-06-11 20:02:46Z, 6cda8203-a249-e411-b0cc-f8bc1246af59, $GPGGA,200245.00,4437.5866,N,12402.8882,W,1,07,1.0,29.3,M,-21.8,M,,*61
2021-06-11 20:02:47Z, 6cda8203-a249-e411-b0cc-f8bc1246af59, $GPGGA,200246.00,4437.5867,N,12402.8884,W,1,07,1.0,29.1,M,-21.8,M,,*67
2021-06-11 20:02:49Z, 6cda8203-a249-e411-b0cc-f8bc1246af59, $GPGGA,200248.00,4437.5870,N,12402.8882,W,1,07,1.0,29.0,M,-21.8,M,,*68
2021-06-11 20:02:50Z, 6cda8203-a249-e411-b0cc-f8bc1246af59, $GPGGA,200249.00,4437.5870,N,12402.8884,W,1,07,1.0,28.8,M,-21.8,M,,*66
2021-06-11 20:02:52Z, 6cda8203-a249-e411-b0cc-f8bc1246af59, $GPGGA,200251.00,4437.5868,N,12402.8885,W,1,07,1.0,28.9,M,-21.8,M,,*66
2021-06-11 20:02:53Z, 6cda8203-a249-e411-b0cc-f8bc1246af59, $GPGGA,200252.00,4437.5869,N,12402.8886,W,1,07,1.0,28.7,M,-21.8,M,,*69
2021-06-11 20:02:55Z, 6cda8203-a249-e411-b0cc-f8bc1246af59, $GPGGA,200254.00,4437.5869,N,12402.8886,W,1,07,1.0,28.6,M,-21.8,M,,*6E
2021-06-11 20:02:56Z, 6cda8203-a249-e411-b0cc-f8bc1246af59, $GPGGA,200255.00,4437.5868,N,12402.8885,W,1,07,1.0,28.6,M,-21.8,M,,*6D
2021-06-11 20:02:58Z, 6cda8203-a249-e411-b0cc-f8bc1246af59, $GPGGA,200257.00,4437.5867,N,12402.8885,W,1,07,1.0,28.5,M,-21.8,M,,*63
2021-06-11 20:02:59Z, 6cda8203-a249-e411-b0cc-f8bc1246af59, $GPGGA,200258.00,4437.5867,N,12402.8885,W,1,07,1.0,28.5,M,-21.8,M,,*6C
2021-06-11 20:03:01Z, 6cda8203-a249-e411-b0cc-f8bc1246af59, $GPGGA,200300.00,4437.5866,N,12402.8884,W,1,07,1.0,28.4,M,-21.8,M,,*61
2021-06-11 20:03:02Z, 6cda8203-a249-e411-b0cc-f8bc1246af59, $GPGGA,200301.00,4437.5866,N,12402.8884,W,1,07,1.0,28.4,M,-21.8,M,,*60
2021-06-11 20:03:04Z, 6cda8203-a249-e411-b0cc-f8bc1246af59, $GPGGA,200303.00,4437.5865,N,12402.8883,W,1,07,1.0,28.4,M,-21.8,M,,*66
2021-06-11 20:03:05Z, 6cda8203-a249-e411-b0cc-f8bc1246af59, $GPGGA,200304.00,4437.5865,N,12402.8884,W,1,07,1.0,28.4,M,-21.8,M,,*66
2021-06-11 20:03:07Z, 6cda8203-a249-e411-b0cc-f8bc1246af59, $GPGGA,200306.00,4437.5864,N,12402.8884,W,1,07,1.0,28.4,M,-21.8,M,,*65
2021-06-11 20:03:08Z, 6cda8203-a249-e411-b0cc-f8bc1246af59, $GPGGA,200307.00,4437.5864,N,12402.8884,W,1,07,1.0,28.4,M,-21.8,M,,*64
2021-06-11 20:03:10Z, 6cda8203-a249-e411-b0cc-f8bc1246af59, $GPGGA,200309.00,4437.5864,N,12402.8884,W,1,07,1.0,28.4,M,-21.8,M,,*6A
2021-06-11 20:03:11Z, 6cda8203-a249-e411-b0cc-f8bc1246af59, $GPGGA,200310.00,4437.5863,N,12402.8884,W,1,07,1.0,28.4,M,-21.8,M,,*65
2021-06-11 20:03:13Z, 6cda8203-a249-e411-b0cc-f8bc1246af59, $GPGGA,200312.00,4437.5863,N,12402.8884,W,1,07,1.0,28.3,M,-21.8,M,,*60
2021-06-11 20:03:14Z, 6cda8203-a249-e411-b0cc-f8bc1246af59, $GPGGA,200313.00,4437.5863,N,12402.8884,W,1,07,1.0,28.3,M,-21.8,M,,*61
2021-06-11 20:03:16Z, 6cda8203-a249-e411-b0cc-f8bc1246af59, $GPGGA,200315.00,4437.5863,N,12402.8884,W,1,07,1.0,28.4,M,-21.8,M,,*60
2021-06-11 20:03:17Z, 6cda8203-a249-e411-b0cc-f8bc1246af59, $GPGGA,200316.00,4437.5863,N,12402.8884,W,1,07,1.0,28.4,M,-21.8,M,,*63
2021-06-11 20:03:19Z, 6cda8203-a249-e411-b0cc-f8bc1246af59, $GPGGA,200318.00,4437.5862,N,12402.8884,W,1,07,1.0,28.3,M,-21.8,M,,*6B
2021-06-11 20:03:20Z, 6cda8203-a249-e411-b0cc-f8bc1246af59, $GPGGA,200319.00,4437.5862,N,12402.8883,W,1,07,1.0,28.3,M,-21.8,M,,*6D
2021-06-11 20:03:22Z, 6cda8203-a249-e411-b0cc-f8bc1246af59, $GPGGA,200321.00,4437.5861,N,12402.8882,W,1,07,1.0,28.3,M,-21.8,M,,*64
2021-06-11 20:03:23Z, 6cda8203-a249-e411-b0cc-f8bc1246af59, $GPGGA,200322.00,4437.5861,N,12402.8882,W,1,07,1.0,28.3,M,-21.8,M,,*67
2021-06-11 20:03:25Z, 6cda8203-a249-e411-b0cc-f8bc1246af59, $GPGGA,200324.00,4437.5860,N,12402.8880,W,1,07,1.0,28.4,M,-21.8,M,,*65
2021-06-11 20:03:26Z, 6cda8203-a249-e411-b0cc-f8bc1246af59, $GPGGA,200325.00,4437.5854,N,12402.8875,W,1,07,1.0,28.5,M,-21.8,M,,*68
2021-06-11 20:03:28Z, 6cda8203-a249-e411-b0cc-f8bc1246af59, $GPGGA,200327.00,4437.5853,N,12402.8870,W,1,07,1.0,29.0,M,-21.8,M,,*6C
2021-06-11 20:03:29Z, 6cda8203-a249-e411-b0cc-f8bc1246af59, $GPGGA,200328.00,4437.5852,N,12402.8864,W,1,07,1.0,29.1,M,-21.8,M,,*66
2021-06-11 20:03:31Z, 6cda8203-a249-e411-b0cc-f8bc1246af59, $GPGGA,200330.00,4437.5853,N,12402.8860,W,1,07,1.0,29.5,M,-21.8,M,,*6E
2021-06-11 20:03:32Z, 6cda8203-a249-e411-b0cc-f8bc1246af59, $GPGGA,200331.00,4437.5854,N,12402.8861,W,1,07,1.0,29.8,M,-21.8,M,,*64
2021-06-11 20:03:32Z, 6cda8203-a249-e411-b0cc-f8bc1246af59, $GPGGA,200332.00,4437.5851,N,12402.8861,W,1,07,1.0,29.9,M,-21.8,M,,*63
2021-06-11 20:03:34Z, 6cda8203-a249-e411-b0cc-f8bc1246af59, $GPGGA,200333.00,4437.5850,N,12402.8861,W,1,07,1.0,30.0,M,-21.8,M,,*62
2021-06-11 20:03:35Z, 6cda8203-a249-e411-b0cc-f8bc1246af59, $GPGGA,200334.00,4437.5849,N,12402.8857,W,1,07,1.0,30.1,M,-21.8,M,,*69
2021-06-11 20:03:36Z, 6cda8203-a249-e411-b0cc-f8bc1246af59, $GPGGA,200335.00,4437.5849,N,12402.8855,W,1,07,1.0,30.3,M,-21.8,M,,*68
2021-06-11 20:03:37Z, 6cda8203-a249-e411-b0cc-f8bc1246af59, $GPGGA,200336.00,4437.5849,N,12402.8851,W,1,07,1.0,30.5,M,-21.8,M,,*69
2021-06-11 20:03:39Z, 6cda8203-a249-e411-b0cc-f8bc1246af59, $GPGGA,200338.00,4437.5850,N,12402.8849,W,1,07,1.0,30.5,M,-21.8,M,,*66
2021-06-11 20:03:41Z, 6cda8203-a249-e411-b0cc-f8bc1246af59, $GPGGA,200339.00,4437.5852,N,12402.8849,W,1,07,1.0,30.5,M,-21.8,M,,*65
2021-06-11 20:03:42Z, 6cda8203-a249-e411-b0cc-f8bc1246af59, $GPGGA,200341.00,4437.5855,N,12402.8847,W,1,07,1.0,30.3,M,-21.8,M,,*65
2021-06-11 20:03:44Z, 6cda8203-a249-e411-b0cc-f8bc1246af59, $GPGGA,200342.00,4437.5856,N,12402.8844,W,1,07,1.0,30.3,M,-21.8,M,,*66
2021-06-11 20:03:45Z, 6cda8203-a249-e411-b0cc-f8bc1246af59, $GPGGA,200344.00,4437.5855,N,12402.8843,W,1,07,1.0,30.2,M,-21.8,M,,*65
2021-06-11 20:03:47Z, 6cda8203-a249-e411-b0cc-f8bc1246af59, $GPGGA,200345.00,4437.5853,N,12402.8843,W,1,07,1.0,30.1,M,-21.8,M,,*61
2021-06-11 20:03:48Z, 6cda8203-a249-e411-b0cc-f8bc1246af59, $GPGGA,200347.00,4437.5851,N,12402.8845,W,1,07,1.0,29.8,M,-21.8,M,,*66
2021-06-11 20:03:49Z, 6cda8203-a249-e411-b0cc-f8bc1246af59, $GPGGA,200348.00,4437.5851,N,12402.8846,W,1,07,1.0,29.7,M,-21.8,M,,*65
2021-06-11 20:03:51Z, 6cda8203-a249-e411-b0cc-f8bc1246af59, $GPGGA,200350.00,4437.5853,N,12402.8849,W,1,07,1.0,29.5,M,-21.8,M,,*63
2021-06-11 20:03:52Z, 6cda8203-a249-e411-b0cc-f8bc1246af59, $GPGGA,200351.00,4437.5853,N,12402.8851,W,1,07,1.0,29.5,M,-21.8,M,,*6B
2021-06-11 20:03:54Z, 6cda8203-a249-e411-b0cc-f8bc1246af59, $GPGGA,200353.00,4437.5854,N,12402.8851,W,1,07,1.0,29.5,M,-21.8,M,,*6E
2021-06-11 20:03:55Z, 6cda8203-a249-e411-b0cc-f8bc1246af59, $GPGGA,200354.00,4437.5853,N,12402.8851,W,1,07,1.0,29.5,M,-21.8,M,,*6E
2021-06-11 20:03:57Z, 6cda8203-a249-e411-b0cc-f8bc1246af59, $GPGGA,200356.00,4437.5853,N,12402.8849,W,1,07,1.0,29.5,M,-21.8,M,,*65
2021-06-11 20:03:58Z, 6cda8203-a249-e411-b0cc-f8bc1246af59, $GPGGA,200357.00,4437.5855,N,12402.8849,W,1,07,1.0,29.6,M,-21.8,M,,*61
2021-06-11 20:04:00Z, 6cda8203-a249-e411-b0cc-f8bc1246af59, $GPGGA,200359.00,4437.5856,N,12402.8851,W,1,07,1.0,29.5,M,-21.8,M,,*66
2021-06-11 20:04:01Z, 6cda8203-a249-e411-b0cc-f8bc1246af59, $GPGGA,200400.00,4437.5857,N,12402.8851,W,1,07,1.0,29.4,M,-21.8,M,,*6D
2021-06-11 20:04:03Z, 6cda8203-a249-e411-b0cc-f8bc1246af59, $GPGGA,200402.00,4437.5856,N,12402.8850,W,1,07,1.0,29.5,M,-21.8,M,,*6E
2021-06-11 20:04:04Z, 6cda8203-a249-e411-b0cc-f8bc1246af59, $GPGGA,200403.00,4437.5855,N,12402.8850,W,1,07,1.0,29.5,M,-21.8,M,,*6C
2021-06-11 20:04:06Z, 6cda8203-a249-e411-b0cc-f8bc1246af59, $GPGGA,200405.00,4437.5861,N,12402.8850,W,1,07,1.0,29.5,M,-21.8,M,,*6D
2021-06-11 20:04:07Z, 6cda8203-a249-e411-b0cc-f8bc1246af59, $GPGGA,200406.00,4437.5864,N,12402.8850,W,1,07,1.0,29.4,M,-21.8,M,,*6A
2021-06-11 20:04:09Z, 6cda8203-a249-e411-b0cc-f8bc1246af59, $GPGGA,200408.00,4437.5863,N,12402.8846,W,1,07,1.0,29.3,M,-21.8,M,,*63
2021-06-11 20:04:10Z, 6cda8203-a249-e411-b0cc-f8bc1246af59, $GPGGA,200409.00,4437.5863,N,12402.8846,W,1,07,1.0,29.4,M,-21.8,M,,*65
2021-06-11 20:04:12Z, 6cda8203-a249-e411-b0cc-f8bc1246af59, $GPGGA,200411.00,4437.5861,N,12402.8839,W,1,07,1.0,29.4,M,-21.8,M,,*66
2021-06-11 20:04:13Z, 6cda8203-a249-e411-b0cc-f8bc1246af59, $GPGGA,200412.00,4437.5860,N,12402.8838,W,1,07,1.0,29.3,M,-21.8,M,,*62
2021-06-11 20:04:15Z, 6cda8203-a249-e411-b0cc-f8bc1246af59, $GPGGA,200414.00,4437.5859,N,12402.8838,W,1,07,1.0,29.3,M,-21.8,M,,*6E
2021-06-11 20:04:16Z, 6cda8203-a249-e411-b0cc-f8bc1246af59, $GPGGA,200415.00,4437.5860,N,12402.8839,W,1,07,1.0,29.4,M,-21.8,M,,*63
2021-06-11 20:04:18Z, 6cda8203-a249-e411-b0cc-f8bc1246af59, $GPGGA,200417.00,4437.5861,N,12402.8835,W,1,07,1.0,29.5,M,-21.8,M,,*6D
2021-06-11 20:04:19Z, 6cda8203-a249-e411-b0cc-f8bc1246af59, $GPGGA,200418.00,4437.5860,N,12402.8836,W,1,07,1.0,29.4,M,-21.8,M,,*61
2021-06-11 20:04:21Z, 6cda8203-a249-e411-b0cc-f8bc1246af59, $GPGGA,200420.00,4437.5858,N,12402.8833,W,1,07,1.0,29.3,M,-21.8,M,,*63
2021-06-11 20:04:22Z, 6cda8203-a249-e411-b0cc-f8bc1246af59, $GPGGA,200421.00,4437.5856,N,12402.8831,W,1,07,1.0,29.2,M,-21.8,M,,*6F
2021-06-11 20:04:24Z, 6cda8203-a249-e411-b0cc-f8bc1246af59, $GPGGA,200423.00,4437.5855,N,12402.8832,W,1,07,1.0,29.1,M,-21.8,M,,*6E
2021-06-11 20:04:25Z, 6cda8203-a249-e411-b0cc-f8bc1246af59, $GPGGA,200424.00,4437.5855,N,12402.8832,W,1,07,1.0,29.1,M,-21.8,M,,*69
2021-06-11 20:04:27Z, 6cda8203-a249-e411-b0cc-f8bc1246af59, $GPGGA,200426.00,4437.5853,N,12402.8829,W,1,07,1.0,29.0,M,-21.8,M,,*66
2021-06-11 20:04:28Z, 6cda8203-a249-e411-b0cc-f8bc1246af59, $GPGGA,200427.00,4437.5855,N,12402.8827,W,1,07,1.0,29.0,M,-21.8,M,,*6F
2021-06-11 20:04:30Z, 6cda8203-a249-e411-b0cc-f8bc1246af59, $GPGGA,200429.00,4437.5856,N,12402.8828,W,1,07,1.0,29.2,M,-21.8,M,,*6F
2021-06-11 20:04:31Z, 6cda8203-a249-e411-b0cc-f8bc1246af59, $GPGGA,200430.00,4437.5857,N,12402.8829,W,1,07,1.0,29.2,M,-21.8,M,,*67
2021-06-11 20:04:33Z, 6cda8203-a249-e411-b0cc-f8bc1246af59, $GPGGA,200432.00,4437.5858,N,12402.8829,W,1,07,1.0,29.2,M,-21.8,M,,*6A
2021-06-11 20:04:34Z, 6cda8203-a249-e411-b0cc-f8bc1246af59, $GPGGA,200433.00,4437.5858,N,12402.8830,W,1,07,1.0,29.1,M,-21.8,M,,*60
2021-06-11 20:04:36Z, 6cda8203-a249-e411-b0cc-f8bc1246af59, $GPGGA,200435.00,4437.5857,N,12402.8832,W,1,07,1.0,29.2,M,-21.8,M,,*68
2021-06-11 20:04:37Z, 6cda8203-a249-e411-b0cc-f8bc1246af59, $GPGGA,200436.00,4437.5857,N,12402.8834,W,1,07,1.0,29.2,M,-21.8,M,,*6D
2021-06-11 20:04:39Z, 6cda8203-a249-e411-b0cc-f8bc1246af59, $GPGGA,200438.00,4437.5860,N,12402.8842,W,1,07,1.0,29.3,M,-21.8,M,,*67
2021-06-11 20:04:40Z, 6cda8203-a249-e411-b0cc-f8bc1246af59, $GPGGA,200439.00,4437.5863,N,12402.8846,W,1,07,1.0,29.3,M,-21.8,M,,*61
2021-06-11 20:04:42Z, 6cda8203-a249-e411-b0cc-f8bc1246af59, $GPGGA,200441.00,4437.5867,N,12402.8849,W,1,07,1.0,29.3,M,-21.8,M,,*65
2021-06-11 20:04:43Z, 6cda8203-a249-e411-b0cc-f8bc1246af59, $GPGGA,200442.00,4437.5868,N,12402.8849,W,1,07,1.0,29.5,M,-21.8,M,,*6F
2021-06-11 20:04:45Z, 6cda8203-a249-e411-b0cc-f8bc1246af59, $GPGGA,200444.00,4437.5868,N,12402.8851,W,1,07,1.0,29.4,M,-21.8,M,,*61
2021-06-11 20:04:46Z, 6cda8203-a249-e411-b0cc-f8bc1246af59, $GPGGA,200445.00,4437.5867,N,12402.8853,W,1,07,1.0,29.4,M,-21.8,M,,*6D
2021-06-11 20:04:48Z, 6cda8203-a249-e411-b0cc-f8bc1246af59, $GPGGA,200447.00,4437.5867,N,12402.8853,W,1,07,1.0,29.4,M,-21.8,M,,*6F
2021-06-11 20:04:49Z, 6cda8203-a249-e411-b0cc-f8bc1246af59, $GPGGA,200448.00,4437.5867,N,12402.8852,W,1,07,1.0,29.4,M,-21.8,M,,*61
2021-06-11 20:04:51Z, 6cda8203-a249-e411-b0cc-f8bc1246af59, $GPGGA,200450.00,4437.5867,N,12402.8853,W,1,07,1.0,29.3,M,-21.8,M,,*6E
2021-06-11 20:04:52Z, 6cda8203-a249-e411-b0cc-f8bc1246af59, $GPGGA,200451.00,4437.5869,N,12402.8852,W,1,07,1.0,29.2,M,-21.8,M,,*61
2021-06-11 20:04:54Z, 6cda8203-a249-e411-b0cc-f8bc1246af59, $GPGGA,200453.00,4437.5870,N,12402.8858,W,1,07,1.0,29.1,M,-21.8,M,,*62
2021-06-11 20:04:55Z, 6cda8203-a249-e411-b0cc-f8bc1246af59, $GPGGA,200454.00,4437.5869,N,12402.8857,W,1,07,1.0,29.2,M,-21.8,M,,*61
2021-06-11 20:04:57Z, 6cda8203-a249-e411-b0cc-f8bc1246af59, $GPGGA,200456.00,4437.5868,N,12402.8855,W,1,07,1.0,29.0,M,-21.8,M,,*62
2021-06-11 20:04:58Z, 6cda8203-a249-e411-b0cc-f8bc1246af59, $GPGGA,200457.00,4437.5868,N,12402.8855,W,1,07,1.0,28.8,M,-21.8,M,,*6A
2021-06-11 20:05:00Z, 6cda8203-a249-e411-b0cc-f8bc1246af59, $GPGGA,200459.00,4437.5867,N,12402.8859,W,1,07,1.0,28.6,M,-21.8,M,,*69
2021-06-11 20:05:01Z, 6cda8203-a249-e411-b0cc-f8bc1246af59, $GPGGA,200500.00,4437.5865,N,12402.8862,W,1,07,1.0,28.5,M,-21.8,M,,*6D
2021-06-11 20:05:03Z, 6cda8203-a249-e411-b0cc-f8bc1246af59, $GPGGA,200502.00,4437.5866,N,12402.8865,W,1,07,1.0,28.3,M,-21.8,M,,*6D
2021-06-11 20:05:04Z, 6cda8203-a249-e411-b0cc-f8bc1246af59, $GPGGA,200503.00,4437.5866,N,12402.8867,W,1,07,1.0,28.4,M,-21.8,M,,*69
2021-06-11 20:05:06Z, 6cda8203-a249-e411-b0cc-f8bc1246af59, $GPGGA,200505.00,4437.5866,N,12402.8870,W,1,07,1.0,28.3,M,-21.8,M,,*6E
2021-06-11 20:05:07Z, 6cda8203-a249-e411-b0cc-f8bc1246af59, $GPGGA,200506.00,4437.5866,N,12402.8872,W,1,07,1.0,28.1,M,-21.8,M,,*6D
2021-06-11 20:05:09Z, 6cda8203-a249-e411-b0cc-f8bc1246af59, $GPGGA,200508.00,4437.5865,N,12402.8869,W,1,07,1.0,28.1,M,-21.8,M,,*6A
2021-06-11 20:05:10Z, 6cda8203-a249-e411-b0cc-f8bc1246af59, $GPGGA,200509.00,4437.5865,N,12402.8868,W,1,07,1.0,28.0,M,-21.8,M,,*6B
2021-06-11 20:05:12Z, 6cda8203-a249-e411-b0cc-f8bc1246af59, $GPGGA,200511.00,4437.5864,N,12402.8868,W,1,07,1.0,28.0,M,-21.8,M,,*63
2021-06-11 20:05:13Z, 6cda8203-a249-e411-b0cc-f8bc1246af59, $GPGGA,200512.00,4437.5864,N,12402.8870,W,1,07,1.0,28.0,M,-21.8,M,,*69
2021-06-11 20:05:15Z, 6cda8203-a249-e411-b0cc-f8bc1246af59, $GPGGA,200514.00,4437.5859,N,12402.8865,W,1,07,1.0,28.3,M,-21.8,M,,*66
2021-06-11 20:05:16Z, 6cda8203-a249-e411-b0cc-f8bc1246af59, $GPGGA,200515.00,4437.5859,N,12402.8864,W,1,07,1.0,28.1,M,-21.8,M,,*64
2021-06-11 20:05:18Z, 6cda8203-a249-e411-b0cc-f8bc1246af59, $GPGGA,200517.00,4437.5856,N,12402.8865,W,1,07,1.0,28.0,M,-21.8,M,,*69
2021-06-11 20:05:19Z, 6cda8203-a249-e411-b0cc-f8bc1246af59, $GPGGA,200518.00,4437.5854,N,12402.8866,W,1,07,1.0,27.9,M,-21.8,M,,*61
2021-06-11 20:05:21Z, 6cda8203-a249-e411-b0cc-f8bc1246af59, $GPGGA,200520.00,4437.5856,N,12402.8872,W,1,07,1.0,27.7,M,-21.8,M,,*63
2021-06-11 20:05:22Z, 6cda8203-a249-e411-b0cc-f8bc1246af59, $GPGGA,200521.00,4437.5856,N,12402.8874,W,1,07,1.0,27.7,M,-21.8,M,,*64
2021-06-11 20:05:24Z, 6cda8203-a249-e411-b0cc-f8bc1246af59, $GPGGA,200523.00,4437.5859,N,12402.8875,W,1,07,1.0,27.5,M,-21.8,M,,*6A
2021-06-11 20:05:25Z, 6cda8203-a249-e411-b0cc-f8bc1246af59, $GPGGA,200524.00,4437.5859,N,12402.8875,W,1,07,1.0,27.6,M,-21.8,M,,*6E
2021-06-11 20:05:27Z, 6cda8203-a249-e411-b0cc-f8bc1246af59, $GPGGA,200526.00,4437.5861,N,12402.8876,W,1,07,1.0,27.4,M,-21.8,M,,*66
2021-06-11 20:05:28Z, 6cda8203-a249-e411-b0cc-f8bc1246af59, $GPGGA,200527.00,4437.5860,N,12402.8877,W,1,07,1.0,27.4,M,-21.8,M,,*67
2021-06-11 20:05:30Z, 6cda8203-a249-e411-b0cc-f8bc1246af59, $GPGGA,200529.00,4437.5859,N,12402.8877,W,1,07,1.0,27.4,M,-21.8,M,,*63
2021-06-11 20:05:31Z, 6cda8203-a249-e411-b0cc-f8bc1246af59, $GPGGA,200530.00,4437.5858,N,12402.8875,W,1,07,1.0,27.4,M,-21.8,M,,*68
2021-06-11 20:05:33Z, 6cda8203-a249-e411-b0cc-f8bc1246af59, $GPGGA,200532.00,4437.5857,N,12402.8877,W,1,07,1.0,27.4,M,-21.8,M,,*67
2021-06-11 20:05:34Z, 6cda8203-a249-e411-b0cc-f8bc1246af59, $GPGGA,200533.00,4437.5853,N,12402.8882,W,1,07,1.0,27.3,M,-21.8,M,,*6F
2021-06-11 20:05:36Z, 6cda8203-a249-e411-b0cc-f8bc1246af59, $GPGGA,200535.00,4437.5852,N,12402.8884,W,1,07,1.0,27.2,M,-21.8,M,,*6F
2021-06-11 20:05:37Z, 6cda8203-a249-e411-b0cc-f8bc1246af59, $GPGGA,200536.00,4437.5853,N,12402.8884,W,1,07,1.0,27.2,M,-21.8,M,,*6D
2021-06-11 20:05:37Z, 6cda8203-a249-e411-b0cc-f8bc1246af59, $GPGGA,200537.00,4437.5852,N,12402.8883,W,1,07,1.0,27.2,M,-21.8,M,,*6A
2021-06-11 20:05:39Z, 6cda8203-a249-e411-b0cc-f8bc1246af59, $GPGGA,200538.00,4437.5852,N,12402.8883,W,1,06,1.3,27.1,M,-21.8,M,,*64
2021-06-11 20:05:40Z, 6cda8203-a249-e411-b0cc-f8bc1246af59, $GPGGA,200539.00,4437.5852,N,12402.8882,W,1,06,1.3,27.0,M,-21.8,M,,*65
2021-06-11 20:05:41Z, 6cda8203-a249-e411-b0cc-f8bc1246af59, $GPGGA,200540.00,4437.5852,N,12402.8881,W,1,07,1.0,27.0,M,-21.8,M,,*6A
2021-06-11 20:05:42Z, 6cda8203-a249-e411-b0cc-f8bc1246af59, $GPGGA,200541.00,4437.5851,N,12402.8880,W,1,06,1.3,27.0,M,-21.8,M,,*6B
2021-06-11 20:05:44Z, 6cda8203-a249-e411-b0cc-f8bc1246af59, $GPGGA,200543.00,4437.5851,N,12402.8876,W,1,06,1.3,27.0,M,-21.8,M,,*60
2021-06-11 20:05:45Z, 6cda8203-a249-e411-b0cc-f8bc1246af59, $GPGGA,200544.00,4437.5853,N,12402.8875,W,1,07,1.0,26.9,M,-21.8,M,,*6C
2021-06-11 20:05:47Z, 6cda8203-a249-e411-b0cc-f8bc1246af59, $GPGGA,200546.00,4437.5854,N,12402.8874,W,1,07,1.0,26.8,M,-21.8,M,,*69
2021-06-11 20:05:48Z, 6cda8203-a249-e411-b0cc-f8bc1246af59, $GPGGA,200547.00,4437.5854,N,12402.8872,W,1,07,1.0,26.8,M,-21.8,M,,*6E
2021-06-11 20:05:50Z, 6cda8203-a249-e411-b0cc-f8bc1246af59, $GPGGA,200549.00,4437.5854,N,12402.8865,W,1,07,1.0,26.4,M,-21.8,M,,*6A
2021-06-11 20:05:51Z, 6cda8203-a249-e411-b0cc-f8bc1246af59, $GPGGA,200550.00,4437.5855,N,12402.8864,W,1,07,1.0,26.4,M,-21.8,M,,*62
2021-06-11 20:05:53Z, 6cda8203-a249-e411-b0cc-f8bc1246af59, $GPGGA,200552.00,4437.5855,N,12402.8861,W,1,07,1.0,26.4,M,-21.8,M,,*65
2021-06-11 20:05:54Z, 6cda8203-a249-e411-b0cc-f8bc1246af59, $GPGGA,200553.00,4437.5854,N,12402.8861,W,1,07,1.0,26.4,M,-21.8,M,,*65
2021-06-11 20:05:56Z, 6cda8203-a249-e411-b0cc-f8bc1246af59, $GPGGA,200555.00,4437.5859,N,12402.8860,W,1,07,1.0,26.2,M,-21.8,M,,*69
2021-06-11 20:05:57Z, 6cda8203-a249-e411-b0cc-f8bc1246af59, $GPGGA,200556.00,4437.5862,N,12402.8858,W,1,07,1.0,26.1,M,-21.8,M,,*6A
2021-06-11 20:05:59Z, 6cda8203-a249-e411-b0cc-f8bc1246af59, $GPGGA,200558.00,4437.5860,N,12402.8862,W,1,07,1.0,26.3,M,-21.8,M,,*6D
2021-06-11 20:06:00Z, 6cda8203-a249-e411-b0cc-f8bc1246af59, $GPGGA,200559.00,4437.5860,N,12402.8865,W,1,07,1.0,26.2,M,-21.8,M,,*6A
2021-06-11 20:06:02Z, 6cda8203-a249-e411-b0cc-f8bc1246af59, $GPGGA,200601.00,4437.5859,N,12402.8868,W,1,07,1.0,26.1,M,-21.8,M,,*60
2021-06-11 20:06:03Z, 6cda8203-a249-e411-b0cc-f8bc1246af59, $GPGGA,200602.00,4437.5859,N,12402.8864,W,1,07,1.0,26.1,M,-21.8,M,,*6F
2021-06-11 20:06:05Z, 6cda8203-a249-e411-b0cc-f8bc1246af59, $GPGGA,200604.00,4437.5861,N,12402.8864,W,1,07,1.0,26.1,M,-21.8,M,,*62
2021-06-11 20:06:06Z, 6cda8203-a249-e411-b0cc-f8bc1246af59, $GPGGA,200605.00,4437.5862,N,12402.8864,W,1,07,1.0,26.1,M,-21.8,M,,*60
2021-06-11 20:06:08Z, 6cda8203-a249-e411-b0cc-f8bc1246af59, $GPGGA,200607.00,4437.5860,N,12402.8861,W,1,07,1.0,26.0,M,-21.8,M,,*64
2021-06-11 20:06:09Z, 6cda8203-a249-e411-b0cc-f8bc1246af59, $GPGGA,200608.00,4437.5861,N,12402.8860,W,1,07,1.0,26.0,M,-21.8,M,,*6B
2021-06-11 20:06:11Z, 6cda8203-a249-e411-b0cc-f8bc1246af59, $GPGGA,200610.00,4437.5862,N,12402.8858,W,1,07,1.0,26.0,M,-21.8,M,,*6A
2021-06-11 20:06:12Z, 6cda8203-a249-e411-b0cc-f8bc1246af59, $GPGGA,200611.00,4437.5862,N,12402.8857,W,1,07,1.0,26.0,M,-21.8,M,,*64
2021-06-11 20:06:14Z, 6cda8203-a249-e411-b0cc-f8bc1246af59, $GPGGA,200613.00,4437.5861,N,12402.8854,W,1,07,1.0,26.0,M,-21.8,M,,*66
2021-06-11 20:06:15Z, 6cda8203-a249-e411-b0cc-f8bc1246af59, $GPGGA,200614.00,4437.5862,N,12402.8853,W,1,07,1.0,26.0,M,-21.8,M,,*65
2021-06-11 20:06:17Z, 6cda8203-a249-e411-b0cc-f8bc1246af59, $GPGGA,200616.00,4437.5860,N,12402.8852,W,1,07,1.0,26.0,M,-21.8,M,,*64
2021-06-11 20:06:18Z, 6cda8203-a249-e411-b0cc-f8bc1246af59, $GPGGA,200617.00,4437.5860,N,12402.8852,W,1,07,1.0,26.0,M,-21.8,M,,*65
2021-06-11 20:06:20Z, 6cda8203-a249-e411-b0cc-f8bc1246af59, $GPGGA,200619.00,4437.5860,N,12402.8852,W,1,07,1.0,26.0,M,-21.8,M,,*6B
2021-06-11 20:06:21Z, 6cda8203-a249-e411-b0cc-f8bc1246af59, $GPGGA,200620.00,4437.5860,N,12402.8851,W,1,07,1.0,26.0,M,-21.8,M,,*62
2021-06-11 20:06:23Z, 6cda8203-a249-e411-b0cc-f8bc1246af59, $GPGGA,200622.00,4437.5859,N,12402.8851,W,1,07,1.0,26.0,M,-21.8,M,,*6A
2021-06-11 20:06:24Z, 6cda8203-a249-e411-b0cc-f8bc1246af59, $GPGGA,200623.00,4437.5859,N,12402.8851,W,1,07,1.0,26.0,M,-21.8,M,,*6B
2021-06-11 20:06:26Z, 6cda8203-a249-e411-b0cc-f8bc1246af59, $GPGGA,200625.00,4437.5855,N,12402.8835,W,1,07,1.0,25.5,M,-21.8,M,,*65
2021-06-11 20:06:27Z, 6cda8203-a249-e411-b0cc-f8bc1246af59, $GPGGA,200626.00,4437.5846,N,12402.8825,W,1,07,1.0,25.6,M,-21.8,M,,*66
2021-06-11 20:06:29Z, 6cda8203-a249-e411-b0cc-f8bc1246af59, $GPGGA,200628.00,4437.5846,N,12402.8821,W,1,07,1.0,25.5,M,-21.8,M,,*6F
2021-06-11 20:06:30Z, 6cda8203-a249-e411-b0cc-f8bc1246af59, $GPGGA,200629.00,4437.5846,N,12402.8820,W,1,07,1.0,25.5,M,-21.8,M,,*6F
2021-06-11 20:06:32Z, 6cda8203-a249-e411-b0cc-f8bc1246af59, $GPGGA,200631.00,4437.5847,N,12402.8816,W,1,07,1.0,25.4,M,-21.8,M,,*63
2021-06-11 20:06:33Z, 6cda8203-a249-e411-b0cc-f8bc1246af59, $GPGGA,200632.00,4437.5848,N,12402.8813,W,1,07,1.0,25.4,M,-21.8,M,,*6A
2021-06-11 20:06:35Z, 6cda8203-a249-e411-b0cc-f8bc1246af59, $GPGGA,200634.00,4437.5849,N,12402.8810,W,1,07,1.0,25.4,M,-21.8,M,,*6E
2021-06-11 20:06:36Z, 6cda8203-a249-e411-b0cc-f8bc1246af59, $GPGGA,200635.00,4437.5849,N,12402.8809,W,1,07,1.0,25.4,M,-21.8,M,,*67
2021-06-11 20:06:38Z, 6cda8203-a249-e411-b0cc-f8bc1246af59, $GPGGA,200637.00,4437.5851,N,12402.8809,W,1,07,1.0,25.3,M,-21.8,M,,*6B
2021-06-11 20:06:39Z, 6cda8203-a249-e411-b0cc-f8bc1246af59, $GPGGA,200638.00,4437.5852,N,12402.8810,W,1,07,1.0,25.3,M,-21.8,M,,*6F
2021-06-11 20:06:41Z, 6cda8203-a249-e411-b0cc-f8bc1246af59, $GPGGA,200640.00,4437.5853,N,12402.8810,W,1,07,1.0,25.3,M,-21.8,M,,*61
2021-06-11 20:06:42Z, 6cda8203-a249-e411-b0cc-f8bc1246af59, $GPGGA,200641.00,4437.5852,N,12402.8800,W,1,07,1.0,25.1,M,-21.8,M,,*62
2021-06-11 20:06:44Z, 6cda8203-a249-e411-b0cc-f8bc1246af59, $GPGGA,200643.00,4437.5852,N,12402.8799,W,1,07,1.0,25.0,M,-21.8,M,,*6E
2021-06-11 20:06:45Z, 6cda8203-a249-e411-b0cc-f8bc1246af59, $GPGGA,200644.00,4437.5850,N,12402.8793,W,1,07,1.0,25.0,M,-21.8,M,,*61
2021-06-11 20:06:47Z, 6cda8203-a249-e411-b0cc-f8bc1246af59, $GPGGA,200646.00,4437.5853,N,12402.8790,W,1,07,1.0,25.0,M,-21.8,M,,*63
2021-06-11 20:06:48Z, 6cda8203-a249-e411-b0cc-f8bc1246af59, $GPGGA,200647.00,4437.5854,N,12402.8789,W,1,07,1.0,25.1,M,-21.8,M,,*6C
2021-06-11 20:06:50Z, 6cda8203-a249-e411-b0cc-f8bc1246af59, $GPGGA,200649.00,4437.5854,N,12402.8789,W,1,07,1.0,25.1,M,-21.8,M,,*62
2021-06-11 20:06:51Z, 6cda8203-a249-e411-b0cc-f8bc1246af59, $GPGGA,200650.00,4437.5853,N,12402.8789,W,1,07,1.0,25.1,M,-21.8,M,,*6D
2021-06-11 20:06:53Z, 6cda8203-a249-e411-b0cc-f8bc1246af59, $GPGGA,200652.00,4437.5853,N,12402.8789,W,1,07,1.0,25.1,M,-21.8,M,,*6F
2021-06-11 20:06:54Z, 6cda8203-a249-e411-b0cc-f8bc1246af59, $GPGGA,200653.00,4437.5853,N,12402.8789,W,1,07,1.0,25.1,M,-21.8,M,,*6E
2021-06-11 20:06:56Z, 6cda8203-a249-e411-b0cc-f8bc1246af59, $GPGGA,200655.00,4437.5852,N,12402.8790,W,1,07,1.0,25.2,M,-21.8,M,,*62
2021-06-11 20:06:57Z, 6cda8203-a249-e411-b0cc-f8bc1246af59, $GPGGA,200656.00,4437.5852,N,12402.8790,W,1,07,1.0,25.2,M,-21.8,M,,*61
2021-06-11 20:06:59Z, 6cda8203-a249-e411-b0cc-f8bc1246af59, $GPGGA,200658.00,4437.5852,N,12402.8790,W,1,07,1.0,25.2,M,-21.8,M,,*6F
2021-06-11 20:07:00Z, 6cda8203-a249-e411-b0cc-f8bc1246af59, $GPGGA,200659.00,4437.5851,N,12402.8790,W,1,07,1.0,25.2,M,-21.8,M,,*6D
2021-06-11 20:07:02Z, 6cda8203-a249-e411-b0cc-f8bc1246af59, $GPGGA,200701.00,4437.5851,N,12402.8791,W,1,07,1.0,25.2,M,-21.8,M,,*60
2021-06-11 20:07:03Z, 6cda8203-a249-e411-b0cc-f8bc1246af59, $GPGGA,200702.00,4437.5851,N,12402.8791,W,1,07,1.0,25.2,M,-21.8,M,,*63
2021-06-11 20:07:05Z, 6cda8203-a249-e411-b0cc-f8bc1246af59, $GPGGA,200704.00,4437.5851,N,12402.8792,W,1,07,1.0,25.2,M,-21.8,M,,*66
2021-06-11 20:07:06Z, 6cda8203-a249-e411-b0cc-f8bc1246af59, $GPGGA,200705.00,4437.5851,N,12402.8792,W,1,07,1.0,25.2,M,-21.8,M,,*67
2021-06-11 20:07:08Z, 6cda8203-a249-e411-b0cc-f8bc1246af59, $GPGGA,200707.00,4437.5851,N,12402.8794,W,1,07,1.0,25.3,M,-21.8,M,,*62
2021-06-11 20:07:09Z, 6cda8203-a249-e411-b0cc-f8bc1246af59, $GPGGA,200708.00,4437.5851,N,12402.8794,W,1,07,1.0,25.3,M,-21.8,M,,*6D
2021-06-11 20:07:11Z, 6cda8203-a249-e411-b0cc-f8bc1246af59, $GPGGA,200710.00,4437.5851,N,12402.8796,W,1,07,1.0,25.3,M,-21.8,M,,*66
2021-06-11 20:07:12Z, 6cda8203-a249-e411-b0cc-f8bc1246af59, $GPGGA,200711.00,4437.5851,N,12402.8797,W,1,07,1.0,25.3,M,-21.8,M,,*66
2021-06-11 20:07:14Z, 6cda8203-a249-e411-b0cc-f8bc1246af59, $GPGGA,200713.00,4437.5851,N,12402.8799,W,1,07,1.0,25.4,M,-21.8,M,,*6D
2021-06-11 20:07:15Z, 6cda8203-a249-e411-b0cc-f8bc1246af59, $GPGGA,200714.00,4437.5851,N,12402.8800,W,1,07,1.0,25.4,M,-21.8,M,,*65
2021-06-11 20:07:17Z, 6cda8203-a249-e411-b0cc-f8bc1246af59, $GPGGA,200716.00,4437.5860,N,12402.8823,W,1,07,1.0,25.2,M,-21.8,M,,*62
2021-06-11 20:07:18Z, 6cda8203-a249-e411-b0cc-f8bc1246af59, $GPGGA,200717.00,4437.5865,N,12402.8826,W,1,07,1.0,25.4,M,-21.8,M,,*65
2021-06-11 20:07:20Z, 6cda8203-a249-e411-b0cc-f8bc1246af59, $GPGGA,200719.00,4437.5863,N,12402.8831,W,1,07,1.0,25.6,M,-21.8,M,,*69
2021-06-11 20:07:21Z, 6cda8203-a249-e411-b0cc-f8bc1246af59, $GPGGA,200720.00,4437.5861,N,12402.8831,W,1,07,1.0,25.6,M,-21.8,M,,*61
2021-06-11 20:07:23Z, 6cda8203-a249-e411-b0cc-f8bc1246af59, $GPGGA,200722.00,4437.5859,N,12402.8831,W,1,07,1.0,26.2,M,-21.8,M,,*6F
2021-06-11 20:07:24Z, 6cda8203-a249-e411-b0cc-f8bc1246af59, $GPGGA,200723.00,4437.5856,N,12402.8834,W,1,07,1.0,26.4,M,-21.8,M,,*62
2021-06-11 20:07:26Z, 6cda8203-a249-e411-b0cc-f8bc1246af59, $GPGGA,200725.00,4437.5855,N,12402.8836,W,1,07,1.0,26.3,M,-21.8,M,,*62
2021-06-11 20:07:27Z, 6cda8203-a249-e411-b0cc-f8bc1246af59, $GPGGA,200726.00,4437.5855,N,12402.8838,W,1,07,1.0,26.3,M,-21.8,M,,*6F
2021-06-11 20:07:29Z, 6cda8203-a249-e411-b0cc-f8bc1246af59, $GPGGA,200728.00,4437.5855,N,12402.8841,W,1,07,1.0,26.4,M,-21.8,M,,*68
2021-06-11 20:07:30Z, 6cda8203-a249-e411-b0cc-f8bc1246af59, $GPGGA,200729.00,4437.5855,N,12402.8843,W,1,07,1.0,26.4,M,-21.8,M,,*6B
2021-06-11 20:07:32Z, 6cda8203-a249-e411-b0cc-f8bc1246af59, $GPGGA,200731.00,4437.5856,N,12402.8846,W,1,07,1.0,26.3,M,-21.8,M,,*63
2021-06-11 20:07:33Z, 6cda8203-a249-e411-b0cc-f8bc1246af59, $GPGGA,200732.00,4437.5854,N,12402.8847,W,1,07,1.0,26.2,M,-21.8,M,,*62
2021-06-11 20:07:35Z, 6cda8203-a249-e411-b0cc-f8bc1246af59, $GPGGA,200734.00,4437.5852,N,12402.8846,W,1,07,1.0,26.2,M,-21.8,M,,*63
2021-06-11 20:07:36Z, 6cda8203-a249-e411-b0cc-f8bc1246af59, $GPGGA,200735.00,4437.5851,N,12402.8847,W,1,07,1.0,26.1,M,-21.8,M,,*63
2021-06-11 20:07:38Z, 6cda8203-a249-e411-b0cc-f8bc1246af59, $GPGGA,200737.00,4437.5851,N,12402.8847,W,1,06,1.3,25.9,M,-21.8,M,,*68
2021-06-11 20:07:39Z, 6cda8203-a249-e411-b0cc-f8bc1246af59, $GPGGA,200738.00,4437.5851,N,12402.8849,W,1,06,1.3,25.8,M,-21.8,M,,*68
2021-06-11 20:07:41Z, 6cda8203-a249-e411-b0cc-f8bc1246af59, $GPGGA,200740.00,4437.5849,N,12402.8849,W,1,07,1.0,25.8,M,-21.8,M,,*6C
2021-06-11 20:07:42Z, 6cda8203-a249-e411-b0cc-f8bc1246af59, $GPGGA,200741.00,4437.5840,N,12402.8850,W,1,07,1.0,25.9,M,-21.8,M,,*6D
2021-06-11 20:07:43Z, 6cda8203-a249-e411-b0cc-f8bc1246af59, $GPGGA,200742.00,4437.5830,N,12402.8851,W,1,07,1.0,26.3,M,-21.8,M,,*61
2021-06-11 20:07:44Z, 6cda8203-a249-e411-b0cc-f8bc1246af59, $GPGGA,200743.00,4437.5829,N,12402.8851,W,1,07,1.0,26.2,M,-21.8,M,,*69
2021-06-11 20:07:45Z, 6cda8203-a249-e411-b0cc-f8bc1246af59, $GPGGA,200744.00,4437.5827,N,12402.8853,W,1,07,1.0,26.1,M,-21.8,M,,*61
2021-06-11 20:07:46Z, 6cda8203-a249-e411-b0cc-f8bc1246af59, $GPGGA,200745.00,4437.5826,N,12402.8853,W,1,07,1.0,26.0,M,-21.8,M,,*60
2021-06-11 20:07:47Z, 6cda8203-a249-e411-b0cc-f8bc1246af59, $GPGGA,200746.00,4437.5826,N,12402.8854,W,1,07,1.0,26.0,M,-21.8,M,,*64
2021-06-11 20:07:49Z, 6cda8203-a249-e411-b0cc-f8bc1246af59, $GPGGA,200748.00,4437.5825,N,12402.8856,W,1,07,1.0,25.8,M,-21.8,M,,*60
2021-06-11 20:07:51Z, 6cda8203-a249-e411-b0cc-f8bc1246af59, $GPGGA,200749.00,4437.5826,N,12402.8857,W,1,07,1.0,25.7,M,-21.8,M,,*6C
2021-06-11 20:07:52Z, 6cda8203-a249-e411-b0cc-f8bc1246af59, $GPGGA,200751.00,4437.5827,N,12402.8857,W,1,07,1.0,25.7,M,-21.8,M,,*64
2021-06-11 20:07:54Z, 6cda8203-a249-e411-b0cc-f8bc1246af59, $GPGGA,200752.00,4437.5827,N,12402.8858,W,1,07,1.0,25.7,M,-21.8,M,,*68
2021-06-11 20:07:55Z, 6cda8203-a249-e411-b0cc-f8bc1246af59, $GPGGA,200754.00,4437.5827,N,12402.8858,W,1,07,1.0,25.6,M,-21.8,M,,*6F
2021-06-11 20:07:57Z, 6cda8203-a249-e411-b0cc-f8bc1246af59, $GPGGA,200755.00,4437.5826,N,12402.8857,W,1,07,1.0,25.6,M,-21.8,M,,*60
2021-06-11 20:07:58Z, 6cda8203-a249-e411-b0cc-f8bc1246af59, $GPGGA,200757.00,4437.5829,N,12402.8862,W,1,07,1.0,25.6,M,-21.8,M,,*6B
2021-06-11 20:07:59Z, 6cda8203-a249-e411-b0cc-f8bc1246af59, $GPGGA,200758.00,4437.5831,N,12402.8863,W,1,07,1.0,25.6,M,-21.8,M,,*6C
2021-06-11 20:08:01Z, 6cda8203-a249-e411-b0cc-f8bc1246af59, $GPGGA,200800.00,4437.5835,N,12402.8868,W,1,07,1.0,25.6,M,-21.8,M,,*61
2021-06-11 20:08:02Z, 6cda8203-a249-e411-b0cc-f8bc1246af59, $GPGGA,200801.00,4437.5837,N,12402.8867,W,1,07,1.0,25.6,M,-21.8,M,,*6D
2021-06-11 20:08:04Z, 6cda8203-a249-e411-b0cc-f8bc1246af59, $GPGGA,200803.00,4437.5838,N,12402.8864,W,1,07,1.0,25.5,M,-21.8,M,,*60
2021-06-11 20:08:05Z, 6cda8203-a249-e411-b0cc-f8bc1246af59, $GPGGA,200804.00,4437.5838,N,12402.8860,W,1,07,1.0,25.4,M,-21.8,M,,*62
2021-06-11 20:08:07Z, 6cda8203-a249-e411-b0cc-f8bc1246af59, $GPGGA,200806.00,4437.5839,N,12402.8860,W,1,07,1.0,25.5,M,-21.8,M,,*60
2021-06-11 20:08:08Z, 6cda8203-a249-e411-b0cc-f8bc1246af59, $GPGGA,200807.00,4437.5843,N,12402.8861,W,1,07,1.0,25.5,M,-21.8,M,,*6D
2021-06-11 20:08:10Z, 6cda8203-a249-e411-b0cc-f8bc1246af59, $GPGGA,200809.00,4437.5845,N,12402.8861,W,1,07,1.0,25.5,M,-21.8,M,,*65
2021-06-11 20:08:11Z, 6cda8203-a249-e411-b0cc-f8bc1246af59, $GPGGA,200810.00,4437.5847,N,12402.8860,W,1,07,1.0,25.5,M,-21.8,M,,*6E
2021-06-11 20:08:13Z, 6cda8203-a249-e411-b0cc-f8bc1246af59, $GPGGA,200812.00,4437.5848,N,12402.8858,W,1,07,1.0,25.6,M,-21.8,M,,*6B
2021-06-11 20:08:14Z, 6cda8203-a249-e411-b0cc-f8bc1246af59, $GPGGA,200813.00,4437.5848,N,12402.8858,W,1,07,1.0,25.6,M,-21.8,M,,*6A
2021-06-11 20:08:16Z, 6cda8203-a249-e411-b0cc-f8bc1246af59, $GPGGA,200815.00,4437.5847,N,12402.8858,W,1,07,1.0,25.6,M,-21.8,M,,*63
2021-06-11 20:08:17Z, 6cda8203-a249-e411-b0cc-f8bc1246af59, $GPGGA,200816.00,4437.5847,N,12402.8857,W,1,07,1.0,25.6,M,-21.8,M,,*6F
2021-06-11 20:08:19Z, 6cda8203-a249-e411-b0cc-f8bc1246af59, $GPGGA,200818.00,4437.5847,N,12402.8857,W,1,07,1.0,25.6,M,-21.8,M,,*61
2021-06-11 20:08:20Z, 6cda8203-a249-e411-b0cc-f8bc1246af59, $GPGGA,200819.00,4437.5847,N,12402.8857,W,1,07,1.0,25.6,M,-21.8,M,,*60
2021-06-11 20:08:22Z, 6cda8203-a249-e411-b0cc-f8bc1246af59, $GPGGA,200821.00,4437.5847,N,12402.8856,W,1,07,1.0,25.7,M,-21.8,M,,*6B
2021-06-11 20:08:23Z, 6cda8203-a249-e411-b0cc-f8bc1246af59, $GPGGA,200822.00,4437.5847,N,12402.8856,W,1,07,1.0,25.7,M,-21.8,M,,*68
2021-06-11 20:08:25Z, 6cda8203-a249-e411-b0cc-f8bc1246af59, $GPGGA,200824.00,4437.5848,N,12402.8856,W,1,07,1.0,25.7,M,-21.8,M,,*61
2021-06-11 20:08:26Z, 6cda8203-a249-e411-b0cc-f8bc1246af59, $GPGGA,200825.00,4437.5849,N,12402.8856,W,1,07,1.0,25.6,M,-21.8,M,,*60
2021-06-11 20:08:28Z, 6cda8203-a249-e411-b0cc-f8bc1246af59, $GPGGA,200827.00,4437.5850,N,12402.8856,W,1,07,1.0,25.6,M,-21.8,M,,*6A
2021-06-11 20:08:29Z, 6cda8203-a249-e411-b0cc-f8bc1246af59, $GPGGA,200828.00,4437.5851,N,12402.8856,W,1,07,1.0,25.6,M,-21.8,M,,*64
2021-06-11 20:08:31Z, 6cda8203-a249-e411-b0cc-f8bc1246af59, $GPGGA,200830.00,4437.5852,N,12402.8856,W,1,07,1.0,25.6,M,-21.8,M,,*6E
2021-06-11 20:08:32Z, 6cda8203-a249-e411-b0cc-f8bc1246af59, $GPGGA,200831.00,4437.5853,N,12402.8855,W,1,07,1.0,25.6,M,-21.8,M,,*6D
2021-06-11 20:08:34Z, 6cda8203-a249-e411-b0cc-f8bc1246af59, $GPGGA,200833.00,4437.5864,N,12402.8850,W,1,07,1.0,25.8,M,-21.8,M,,*60
2021-06-11 20:08:35Z, 6cda8203-a249-e411-b0cc-f8bc1246af59, $GPGGA,200834.00,4437.5868,N,12402.8844,W,1,07,1.0,25.8,M,-21.8,M,,*6E
2021-06-11 20:08:37Z, 6cda8203-a249-e411-b0cc-f8bc1246af59, $GPGGA,200836.00,4437.5871,N,12402.8840,W,1,07,1.0,25.9,M,-21.8,M,,*61
2021-06-11 20:08:38Z, 6cda8203-a249-e411-b0cc-f8bc1246af59, $GPGGA,200837.00,4437.5871,N,12402.8839,W,1,07,1.0,26.3,M,-21.8,M,,*67
2021-06-11 20:08:40Z, 6cda8203-a249-e411-b0cc-f8bc1246af59, $GPGGA,200839.00,4437.5873,N,12402.8842,W,1,07,1.0,26.4,M,-21.8,M,,*60
2021-06-11 20:08:41Z, 6cda8203-a249-e411-b0cc-f8bc1246af59, $GPGGA,200840.00,4437.5875,N,12402.8846,W,1,07,1.0,26.7,M,-21.8,M,,*6F
2021-06-11 20:08:43Z, 6cda8203-a249-e411-b0cc-f8bc1246af59, $GPGGA,200842.00,4437.5874,N,12402.8850,W,1,07,1.0,26.9,M,-21.8,M,,*65
2021-06-11 20:08:44Z, 6cda8203-a249-e411-b0cc-f8bc1246af59, $GPGGA,200843.00,4437.5873,N,12402.8852,W,1,07,1.0,27.0,M,-21.8,M,,*69
2021-06-11 20:08:46Z, 6cda8203-a249-e411-b0cc-f8bc1246af59, $GPGGA,200845.00,4437.5869,N,12402.8854,W,1,07,1.0,27.1,M,-21.8,M,,*63
2021-06-11 20:08:47Z, 6cda8203-a249-e411-b0cc-f8bc1246af59, $GPGGA,200846.00,4437.5870,N,12402.8854,W,1,07,1.0,27.1,M,-21.8,M,,*68
2021-06-11 20:08:49Z, 6cda8203-a249-e411-b0cc-f8bc1246af59, $GPGGA,200848.00,4437.5870,N,12402.8853,W,1,07,1.0,27.0,M,-21.8,M,,*60
2021-06-11 20:08:50Z, 6cda8203-a249-e411-b0cc-f8bc1246af59, $GPGGA,200849.00,4437.5870,N,12402.8854,W,1,07,1.0,27.1,M,-21.8,M,,*67
2021-06-11 20:08:52Z, 6cda8203-a249-e411-b0cc-f8bc1246af59, $GPGGA,200851.00,4437.5870,N,12402.8854,W,1,07,1.0,27.1,M,-21.8,M,,*6E
2021-06-11 20:08:53Z, 6cda8203-a249-e411-b0cc-f8bc1246af59, $GPGGA,200852.00,4437.5869,N,12402.8854,W,1,07,1.0,27.1,M,-21.8,M,,*65
2021-06-11 20:08:55Z, 6cda8203-a249-e411-b0cc-f8bc1246af59, $GPGGA,200854.00,4437.5868,N,12402.8856,W,1,07,1.0,27.0,M,-21.8,M,,*61
2021-06-11 20:08:56Z, 6cda8203-a249-e411-b0cc-f8bc1246af59, $GPGGA,200855.00,4437.5867,N,12402.8855,W,1,07,1.0,27.0,M,-21.8,M,,*6C
2021-06-11 20:08:58Z, 6cda8203-a249-e411-b0cc-f8bc1246af59, $GPGGA,200857.00,4437.5867,N,12402.8849,W,1,07,1.0,26.8,M,-21.8,M,,*6A
2021-06-11 20:08:59Z, 6cda8203-a249-e411-b0cc-f8bc1246af59, $GPGGA,200858.00,4437.5868,N,12402.8848,W,1,07,1.0,26.8,M,-21.8,M,,*6B
2021-06-11 20:09:01Z, 6cda8203-a249-e411-b0cc-f8bc1246af59, $GPGGA,200900.00,4437.5867,N,12402.8846,W,1,07,1.0,26.6,M,-21.8,M,,*68
2021-06-11 20:09:02Z, 6cda8203-a249-e411-b0cc-f8bc1246af59, $GPGGA,200901.00,4437.5866,N,12402.8849,W,1,07,1.0,26.7,M,-21.8,M,,*66
2021-06-11 20:09:04Z, 6cda8203-a249-e411-b0cc-f8bc1246af59, $GPGGA,200903.00,4437.5865,N,12402.8849,W,1,07,1.0,26.7,M,-21.8,M,,*67
2021-06-11 20:09:05Z, 6cda8203-a249-e411-b0cc-f8bc1246af59, $GPGGA,200904.00,4437.5865,N,12402.8848,W,1,07,1.0,26.7,M,-21.8,M,,*61
2021-06-11 20:09:07Z, 6cda8203-a249-e411-b0cc-f8bc1246af59, $GPGGA,200906.00,4437.5867,N,12402.8852,W,1,07,1.0,26.3,M,-21.8,M,,*6E
2021-06-11 20:09:08Z, 6cda8203-a249-e411-b0cc-f8bc1246af59, $GPGGA,200907.00,4437.5870,N,12402.8849,W,1,07,1.0,26.4,M,-21.8,M,,*64
2021-06-11 20:09:10Z, 6cda8203-a249-e411-b0cc-f8bc1246af59, $GPGGA,200909.00,4437.5870,N,12402.8843,W,1,07,1.0,26.3,M,-21.8,M,,*67
2021-06-11 20:09:11Z, 6cda8203-a249-e411-b0cc-f8bc1246af59, $GPGGA,200910.00,4437.5871,N,12402.8841,W,1,07,1.0,26.4,M,-21.8,M,,*6B
2021-06-11 20:09:13Z, 6cda8203-a249-e411-b0cc-f8bc1246af59, $GPGGA,200912.00,4437.5871,N,12402.8830,W,1,07,1.0,26.5,M,-21.8,M,,*6E
2021-06-11 20:09:14Z, 6cda8203-a249-e411-b0cc-f8bc1246af59, $GPGGA,200913.00,4437.5874,N,12402.8828,W,1,07,1.0,26.7,M,-21.8,M,,*61
2021-06-11 20:09:16Z, 6cda8203-a249-e411-b0cc-f8bc1246af59, $GPGGA,200915.00,4437.5878,N,12402.8830,W,1,07,1.0,26.6,M,-21.8,M,,*63
2021-06-11 20:09:17Z, 6cda8203-a249-e411-b0cc-f8bc1246af59, $GPGGA,200916.00,4437.5879,N,12402.8826,W,1,07,1.0,26.6,M,-21.8,M,,*66
2021-06-11 20:09:19Z, 6cda8203-a249-e411-b0cc-f8bc1246af59, $GPGGA,200918.00,4437.5881,N,12402.8824,W,1,07,1.0,26.9,M,-21.8,M,,*62
2021-06-11 20:09:20Z, 6cda8203-a249-e411-b0cc-f8bc1246af59, $GPGGA,200919.00,4437.5881,N,12402.8822,W,1,07,1.0,27.1,M,-21.8,M,,*6C
2021-06-11 20:09:22Z, 6cda8203-a249-e411-b0cc-f8bc1246af59, $GPGGA,200921.00,4437.5882,N,12402.8825,W,1,07,1.0,27.2,M,-21.8,M,,*60
2021-06-11 20:09:23Z, 6cda8203-a249-e411-b0cc-f8bc1246af59, $GPGGA,200922.00,4437.5882,N,12402.8825,W,1,07,1.0,27.0,M,-21.8,M,,*61
2021-06-11 20:09:25Z, 6cda8203-a249-e411-b0cc-f8bc1246af59, $GPGGA,200924.00,4437.5883,N,12402.8825,W,1,07,1.0,27.0,M,-21.8,M,,*66
2021-06-11 20:09:26Z, 6cda8203-a249-e411-b0cc-f8bc1246af59, $GPGGA,200925.00,4437.5882,N,12402.8826,W,1,07,1.0,26.9,M,-21.8,M,,*6D
2021-06-11 20:09:28Z, 6cda8203-a249-e411-b0cc-f8bc1246af59, $GPGGA,200927.00,4437.5882,N,12402.8824,W,1,07,1.0,26.9,M,-21.8,M,,*6D
2021-06-11 20:09:29Z, 6cda8203-a249-e411-b0cc-f8bc1246af59, $GPGGA,200928.00,4437.5881,N,12402.8826,W,1,07,1.0,27.1,M,-21.8,M,,*6A
2021-06-11 20:09:31Z, 6cda8203-a249-e411-b0cc-f8bc1246af59, $GPGGA,200930.00,4437.5881,N,12402.8829,W,1,07,1.0,27.3,M,-21.8,M,,*6E
2021-06-11 20:09:32Z, 6cda8203-a249-e411-b0cc-f8bc1246af59, $GPGGA,200931.00,4437.5880,N,12402.8826,W,1,07,1.0,27.6,M,-21.8,M,,*64
2021-06-11 20:09:34Z, 6cda8203-a249-e411-b0cc-f8bc1246af59, $GPGGA,200933.00,4437.5878,N,12402.8824,W,1,07,1.0,27.6,M,-21.8,M,,*63
2021-06-11 20:09:35Z, 6cda8203-a249-e411-b0cc-f8bc1246af59, $GPGGA,200934.00,4437.5877,N,12402.8824,W,1,07,1.0,27.6,M,-21.8,M,,*6B
2021-06-11 20:09:37Z, 6cda8203-a249-e411-b0cc-f8bc1246af59, $GPGGA,200936.00,4437.5876,N,12402.8822,W,1,07,1.0,27.6,M,-21.8,M,,*6E
2021-06-11 20:09:38Z, 6cda8203-a249-e411-b0cc-f8bc1246af59, $GPGGA,200937.00,4437.5874,N,12402.8824,W,1,07,1.0,27.6,M,-21.8,M,,*6B
2021-06-11 20:09:40Z, 6cda8203-a249-e411-b0cc-f8bc1246af59, $GPGGA,200939.00,4437.5871,N,12402.8826,W,1,07,1.0,27.7,M,-21.8,M,,*63
2021-06-11 20:09:41Z, 6cda8203-a249-e411-b0cc-f8bc1246af59, $GPGGA,200940.00,4437.5871,N,12402.8827,W,1,07,1.0,27.6,M,-21.8,M,,*6D
2021-06-11 20:09:43Z, 6cda8203-a249-e411-b0cc-f8bc1246af59, $GPGGA,200942.00,4437.5870,N,12402.8829,W,1,07,1.0,27.6,M,-21.8,M,,*60
2021-06-11 20:09:44Z, 6cda8203-a249-e411-b0cc-f8bc1246af59, $GPGGA,200943.00,4437.5869,N,12402.8829,W,1,07,1.0,27.6,M,-21.8,M,,*69
2021-06-11 20:09:46Z, 6cda8203-a249-e411-b0cc-f8bc1246af59, $GPGGA,200945.00,4437.5868,N,12402.8827,W,1,07,1.0,27.6,M,-21.8,M,,*60
2021-06-11 20:09:47Z, 6cda8203-a249-e411-b0cc-f8bc1246af59, $GPGGA,200946.00,4437.5867,N,12402.8827,W,1,07,1.0,27.7,M,-21.8,M,,*6D
2021-06-11 20:09:48Z, 6cda8203-a249-e411-b0cc-f8bc1246af59, $GPGGA,200947.00,4437.5866,N,12402.8826,W,1,07,1.0,27.8,M,-21.8,M,,*63
2021-06-11 20:09:49Z, 6cda8203-a249-e411-b0cc-f8bc1246af59, $GPGGA,200948.00,4437.5867,N,12402.8825,W,1,07,1.0,27.8,M,-21.8,M,,*6E
2021-06-11 20:09:50Z, 6cda8203-a249-e411-b0cc-f8bc1246af59, $GPGGA,200949.00,4437.5867,N,12402.8825,W,1,07,1.0,27.9,M,-21.8,M,,*6E
2021-06-11 20:09:51Z, 6cda8203-a249-e411-b0cc-f8bc1246af59, $GPGGA,200950.00,4437.5867,N,12402.8825,W,1,07,1.0,27.9,M,-21.8,M,,*66
2021-06-11 20:09:52Z, 6cda8203-a249-e411-b0cc-f8bc1246af59, $GPGGA,200951.00,4437.5867,N,12402.8825,W,1,07,1.0,27.9,M,-21.8,M,,*67
2021-06-11 20:09:54Z, 6cda8203-a249-e411-b0cc-f8bc1246af59, $GPGGA,200953.00,4437.5866,N,12402.8824,W,1,07,1.0,27.9,M,-21.8,M,,*65
2021-06-11 20:09:55Z, 6cda8203-a249-e411-b0cc-f8bc1246af59, $GPGGA,200954.00,4437.5866,N,12402.8824,W,1,07,1.0,27.9,M,-21.8,M,,*62
2021-06-11 20:09:57Z, 6cda8203-a249-e411-b0cc-f8bc1246af59, $GPGGA,200956.00,4437.5866,N,12402.8824,W,1,07,1.0,28.0,M,-21.8,M,,*66
2021-06-11 20:09:58Z, 6cda8203-a249-e411-b0cc-f8bc1246af59, $GPGGA,200957.00,4437.5866,N,12402.8824,W,1,07,1.0,28.0,M,-21.8,M,,*67
2021-06-11 20:09:59Z, 6cda8203-a249-e411-b0cc-f8bc1246af59, $GPGGA,200958.00,4437.5866,N,12402.8824,W,1,07,1.0,28.0,M,-21.8,M,,*68
2021-06-11 20:10:00Z, 6cda8203-a249-e411-b0cc-f8bc1246af59, $GPGGA,200959.00,4437.5866,N,12402.8824,W,1,07,1.0,28.0,M,-21.8,M,,*69
2021-06-11 20:10:02Z, 6cda8203-a249-e411-b0cc-f8bc1246af59, $GPGGA,201001.00,4437.5866,N,12402.8825,W,1,07,1.0,28.0,M,-21.8,M,,*6D
2021-06-11 20:10:03Z, 6cda8203-a249-e411-b0cc-f8bc1246af59, $GPGGA,201002.00,4437.5867,N,12402.8825,W,1,07,1.0,28.0,M,-21.8,M,,*6F
2021-06-11 20:10:04Z, 6cda8203-a249-e411-b0cc-f8bc1246af59, $GPGGA,201003.00,4437.5867,N,12402.8826,W,1,07,1.0,28.1,M,-21.8,M,,*6C
2021-06-11 20:10:06Z, 6cda8203-a249-e411-b0cc-f8bc1246af59, $GPGGA,201005.00,4437.5872,N,12402.8828,W,1,07,1.0,28.1,M,-21.8,M,,*60
2021-06-11 20:10:07Z, 6cda8203-a249-e411-b0cc-f8bc1246af59, $GPGGA,201006.00,4437.5871,N,12402.8828,W,1,07,1.0,28.2,M,-21.8,M,,*63
2021-06-11 20:10:09Z, 6cda8203-a249-e411-b0cc-f8bc1246af59, $GPGGA,201008.00,4437.5874,N,12402.8829,W,1,07,1.0,28.0,M,-21.8,M,,*6B
2021-06-11 20:10:10Z, 6cda8203-a249-e411-b0cc-f8bc1246af59, $GPGGA,201009.00,4437.5873,N,12402.8829,W,1,07,1.0,28.0,M,-21.8,M,,*6D
2021-06-11 20:10:11Z, 6cda8203-a249-e411-b0cc-f8bc1246af59, $GPGGA,201010.00,4437.5878,N,12402.8830,W,1,07,1.0,28.0,M,-21.8,M,,*66
2021-06-11 20:10:13Z, 6cda8203-a249-e411-b0cc-f8bc1246af59, $GPGGA,201012.00,4437.5878,N,12402.8830,W,1,07,1.0,28.0,M,-21.8,M,,*64
2021-06-11 20:10:14Z, 6cda8203-a249-e411-b0cc-f8bc1246af59, $GPGGA,201013.00,4437.5879,N,12402.8830,W,1,07,1.0,28.0,M,-21.8,M,,*64
2021-06-11 20:10:15Z, 6cda8203-a249-e411-b0cc-f8bc1246af59, $GPGGA,201014.00,4437.5879,N,12402.8830,W,1,07,1.0,28.0,M,-21.8,M,,*63
2021-06-11 20:10:16Z, 6cda8203-a249-e411-b0cc-f8bc1246af59, $GPGGA,201015.00,4437.5879,N,12402.8831,W,1,07,1.0,28.0,M,-21.8,M,,*63
2021-06-11 20:10:17Z, 6cda8203-a249-e411-b0cc-f8bc1246af59, $GPGGA,201016.00,4437.5883,N,12402.8832,W,1,07,1.0,27.9,M,-21.8,M,,*60
2021-06-11 20:10:18Z, 6cda8203-a249-e411-b0cc-f8bc1246af59, $GPGGA,201017.00,4437.5889,N,12402.8832,W,1,07,1.0,28.0,M,-21.8,M,,*6D
2021-06-11 20:10:19Z, 6cda8203-a249-e411-b0cc-f8bc1246af59, $GPGGA,201018.00,4437.5891,N,12402.8830,W,1,07,1.0,27.9,M,-21.8,M,,*6F
2021-06-11 20:10:21Z, 6cda8203-a249-e411-b0cc-f8bc1246af59, $GPGGA,201020.00,4437.5893,N,12402.8830,W,1,07,1.0,27.5,M,-21.8,M,,*6A
2021-06-11 20:10:22Z, 6cda8203-a249-e411-b0cc-f8bc1246af59, $GPGGA,201021.00,4437.5893,N,12402.8831,W,1,07,1.0,27.3,M,-21.8,M,,*6C
2021-06-11 20:10:23Z, 6cda8203-a249-e411-b0cc-f8bc1246af59, $GPGGA,201022.00,4437.5892,N,12402.8832,W,1,07,1.0,27.0,M,-21.8,M,,*6E
2021-06-11 20:10:24Z, 6cda8203-a249-e411-b0cc-f8bc1246af59, $GPGGA,201023.00,4437.5892,N,12402.8831,W,1,07,1.0,27.0,M,-21.8,M,,*6C
2021-06-11 20:10:26Z, 6cda8203-a249-e411-b0cc-f8bc1246af59, $GPGGA,201025.00,4437.5891,N,12402.8831,W,1,07,1.0,27.0,M,-21.8,M,,*69
2021-06-11 20:10:27Z, 6cda8203-a249-e411-b0cc-f8bc1246af59, $GPGGA,201026.00,4437.5891,N,12402.8831,W,1,07,1.0,27.0,M,-21.8,M,,*6A
2021-06-11 20:10:29Z, 6cda8203-a249-e411-b0cc-f8bc1246af59, $GPGGA,201028.00,4437.5891,N,12402.8830,W,1,07,1.0,27.0,M,-21.8,M,,*65
2021-06-11 20:10:30Z, 6cda8203-a249-e411-b0cc-f8bc1246af59, $GPGGA,201029.00,4437.5891,N,12402.8830,W,1,07,1.0,27.0,M,-21.8,M,,*64
2021-06-11 20:10:32Z, 6cda8203-a249-e411-b0cc-f8bc1246af59, $GPGGA,201031.00,4437.5890,N,12402.8830,W,1,07,1.0,27.1,M,-21.8,M,,*6D
2021-06-11 20:10:33Z, 6cda8203-a249-e411-b0cc-f8bc1246af59, $GPGGA,201032.00,4437.5890,N,12402.8830,W,1,07,1.0,27.1,M,-21.8,M,,*6E
2021-06-11 20:10:34Z, 6cda8203-a249-e411-b0cc-f8bc1246af59, $GPGGA,201033.00,4437.5890,N,12402.8830,W,1,07,1.0,27.1,M,-21.8,M,,*6F
2021-06-11 20:10:35Z, 6cda8203-a249-e411-b0cc-f8bc1246af59, $GPGGA,201034.00,4437.5890,N,12402.8830,W,1,07,1.0,27.1,M,-21.8,M,,*68
2021-06-11 20:10:36Z, 6cda8203-a249-e411-b0cc-f8bc1246af59, $GPGGA,201035.00,4437.5890,N,12402.8830,W,1,07,1.0,27.2,M,-21.8,M,,*6A
2021-06-11 20:10:38Z, 6cda8203-a249-e411-b0cc-f8bc1246af59, $GPGGA,201037.00,4437.5894,N,12402.8822,W,1,07,1.0,26.1,M,-21.8,M,,*6D
2021-06-11 20:10:39Z, 6cda8203-a249-e411-b0cc-f8bc1246af59, $GPGGA,201038.00,4437.5892,N,12402.8820,W,1,07,1.0,26.1,M,-21.8,M,,*66
2021-06-11 20:10:41Z, 6cda8203-a249-e411-b0cc-f8bc1246af59, $GPGGA,201040.00,4437.5891,N,12402.8816,W,1,07,1.3,25.9,M,-21.8,M,,*67
2021-06-11 20:10:42Z, 6cda8203-a249-e411-b0cc-f8bc1246af59, $GPGGA,201041.00,4437.5890,N,12402.8816,W,1,07,1.0,26.0,M,-21.8,M,,*6E
2021-06-11 20:10:43Z, 6cda8203-a249-e411-b0cc-f8bc1246af59, $GPGGA,201042.00,4437.5889,N,12402.8817,W,1,07,1.0,26.1,M,-21.8,M,,*65
2021-06-11 20:10:44Z, 6cda8203-a249-e411-b0cc-f8bc1246af59, $GPGGA,201043.00,4437.5888,N,12402.8815,W,1,07,1.0,26.1,M,-21.8,M,,*67
2021-06-11 20:10:46Z, 6cda8203-a249-e411-b0cc-f8bc1246af59, $GPGGA,201045.00,4437.5886,N,12402.8816,W,1,07,1.0,26.4,M,-21.8,M,,*69
2021-06-11 20:10:47Z, 6cda8203-a249-e411-b0cc-f8bc1246af59, $GPGGA,201046.00,4437.5885,N,12402.8816,W,1,07,1.0,26.6,M,-21.8,M,,*6B
2021-06-11 20:10:49Z, 6cda8203-a249-e411-b0cc-f8bc1246af59, $GPGGA,201048.00,4437.5891,N,12402.8809,W,1,07,1.0,27.1,M,-21.8,M,,*68
2021-06-11 20:10:50Z, 6cda8203-a249-e411-b0cc-f8bc1246af59, $GPGGA,201049.00,4437.5893,N,12402.8806,W,1,07,1.0,27.2,M,-21.8,M,,*67
2021-06-11 20:10:52Z, 6cda8203-a249-e411-b0cc-f8bc1246af59, $GPGGA,201051.00,4437.5895,N,12402.8803,W,1,07,1.0,27.5,M,-21.8,M,,*6A
2021-06-11 20:10:53Z, 6cda8203-a249-e411-b0cc-f8bc1246af59, $GPGGA,201052.00,4437.5895,N,12402.8802,W,1,07,1.0,27.5,M,-21.8,M,,*68
2021-06-11 20:10:54Z, 6cda8203-a249-e411-b0cc-f8bc1246af59, $GPGGA,201053.00,4437.5895,N,12402.8801,W,1,07,1.0,27.7,M,-21.8,M,,*68
2021-06-11 20:10:55Z, 6cda8203-a249-e411-b0cc-f8bc1246af59, $GPGGA,201054.00,4437.5896,N,12402.8800,W,1,07,1.0,27.8,M,-21.8,M,,*62
2021-06-11 20:10:56Z, 6cda8203-a249-e411-b0cc-f8bc1246af59, $GPGGA,201055.00,4437.5896,N,12402.8799,W,1,07,1.0,27.9,M,-21.8,M,,*6D
2021-06-11 20:10:57Z, 6cda8203-a249-e411-b0cc-f8bc1246af59, $GPGGA,201056.00,4437.5896,N,12402.8795,W,1,07,1.0,27.9,M,-21.8,M,,*62
2021-06-11 20:10:58Z, 6cda8203-a249-e411-b0cc-f8bc1246af59, $GPGGA,201057.00,4437.5895,N,12402.8794,W,1,07,1.0,27.9,M,-21.8,M,,*61
2021-06-11 20:11:00Z, 6cda8203-a249-e411-b0cc-f8bc1246af59, $GPGGA,201059.00,4437.5894,N,12402.8794,W,1,07,1.0,27.9,M,-21.8,M,,*6E
2021-06-11 20:11:01Z, 6cda8203-a249-e411-b0cc-f8bc1246af59, $GPGGA,201100.00,4437.5894,N,12402.8794,W,1,07,1.0,27.9,M,-21.8,M,,*63
2021-06-11 20:11:02Z, 6cda8203-a249-e411-b0cc-f8bc1246af59, $GPGGA,201101.00,4437.5894,N,12402.8795,W,1,07,1.0,27.9,M,-21.8,M,,*63
2021-06-11 20:11:03Z, 6cda8203-a249-e411-b0cc-f8bc1246af59, $GPGGA,201102.00,4437.5894,N,12402.8794,W,1,07,1.0,27.9,M,-21.8,M,,*61
2021-06-11 20:11:05Z, 6cda8203-a249-e411-b0cc-f8bc1246af59, $GPGGA,201104.00,4437.5893,N,12402.8794,W,1,06,1.3,27.8,M,-21.8,M,,*63
2021-06-11 20:11:06Z, 6cda8203-a249-e411-b0cc-f8bc1246af59, $GPGGA,201105.00,4437.5893,N,12402.8795,W,1,06,1.3,27.8,M,-21.8,M,,*63
2021-06-11 20:11:07Z, 6cda8203-a249-e411-b0cc-f8bc1246af59, $GPGGA,201106.00,4437.5893,N,12402.8795,W,1,07,1.0,27.8,M,-21.8,M,,*62
2021-06-11 20:11:08Z, 6cda8203-a249-e411-b0cc-f8bc1246af59, $GPGGA,201107.00,4437.5893,N,12402.8795,W,1,07,1.0,27.8,M,-21.8,M,,*63
2021-06-11 20:11:10Z, 6cda8203-a249-e411-b0cc-f8bc1246af59, $GPGGA,201109.00,4437.5894,N,12402.8795,W,1,07,1.0,27.9,M,-21.8,M,,*6B
2021-06-11 20:11:11Z, 6cda8203-a249-e411-b0cc-f8bc1246af59, $GPGGA,201110.00,4437.5893,N,12402.8795,W,1,07,1.0,27.9,M,-21.8,M,,*64
2021-06-11 20:11:12Z, 6cda8203-a249-e411-b0cc-f8bc1246af59, $GPGGA,201111.00,4437.5894,N,12402.8796,W,1,07,1.0,27.9,M,-21.8,M,,*61
2021-06-11 20:11:13Z, 6cda8203-a249-e411-b0cc-f8bc1246af59, $GPGGA,201112.00,4437.5894,N,12402.8800,W,1,07,1.0,27.7,M,-21.8,M,,*6C
2021-06-11 20:11:14Z, 6cda8203-a249-e411-b0cc-f8bc1246af59, $GPGGA,201113.00,4437.5895,N,12402.8796,W,1,07,1.0,27.0,M,-21.8,M,,*6B
2021-06-11 20:11:16Z, 6cda8203-a249-e411-b0cc-f8bc1246af59, $GPGGA,201115.00,4437.5903,N,12402.8826,W,1,07,1.0,25.5,M,-21.8,M,,*60
2021-06-11 20:11:17Z, 6cda8203-a249-e411-b0cc-f8bc1246af59, $GPGGA,201116.00,4437.5906,N,12402.8828,W,1,07,1.0,25.3,M,-21.8,M,,*6E
2021-06-11 20:11:19Z, 6cda8203-a249-e411-b0cc-f8bc1246af59, $GPGGA,201118.00,4437.5919,N,12402.8823,W,1,07,1.0,25.2,M,-21.8,M,,*64
2021-06-11 20:11:20Z, 6cda8203-a249-e411-b0cc-f8bc1246af59, $GPGGA,201119.00,4437.5920,N,12402.8824,W,1,07,1.0,25.0,M,-21.8,M,,*6A
2021-06-11 20:11:22Z, 6cda8203-a249-e411-b0cc-f8bc1246af59, $GPGGA,201121.00,4437.5917,N,12402.8827,W,1,07,1.0,25.1,M,-21.8,M,,*67
2021-06-11 20:11:23Z, 6cda8203-a249-e411-b0cc-f8bc1246af59, $GPGGA,201122.00,4437.5914,N,12402.8827,W,1,07,1.0,25.2,M,-21.8,M,,*64
2021-06-11 20:11:24Z, 6cda8203-a249-e411-b0cc-f8bc1246af59, $GPGGA,201123.00,4437.5913,N,12402.8829,W,1,07,1.0,25.3,M,-21.8,M,,*6D
2021-06-11 20:11:26Z, 6cda8203-a249-e411-b0cc-f8bc1246af59, $GPGGA,201125.00,4437.5914,N,12402.8831,W,1,07,1.0,25.2,M,-21.8,M,,*64
2021-06-11 20:11:27Z, 6cda8203-a249-e411-b0cc-f8bc1246af59, $GPGGA,201126.00,4437.5913,N,12402.8831,W,1,07,1.0,25.2,M,-21.8,M,,*60
2021-06-11 20:11:28Z, 6cda8203-a249-e411-b0cc-f8bc1246af59, $GPGGA,201127.00,4437.5913,N,12402.8830,W,1,07,1.0,25.3,M,-21.8,M,,*61
2021-06-11 20:11:29Z, 6cda8203-a249-e411-b0cc-f8bc1246af59, $GPGGA,201128.00,4437.5914,N,12402.8828,W,1,07,1.0,25.1,M,-21.8,M,,*62
2021-06-11 20:11:31Z, 6cda8203-a249-e411-b0cc-f8bc1246af59, $GPGGA,201130.00,4437.5913,N,12402.8827,W,1,07,1.0,25.1,M,-21.8,M,,*63
2021-06-11 20:11:32Z, 6cda8203-a249-e411-b0cc-f8bc1246af59, $GPGGA,201131.00,4437.5914,N,12402.8824,W,1,07,1.0,25.0,M,-21.8,M,,*67
2021-06-11 20:11:33Z, 6cda8203-a249-e411-b0cc-f8bc1246af59, $GPGGA,201132.00,4437.5911,N,12402.8824,W,1,07,1.0,25.0,M,-21.8,M,,*61
2021-06-11 20:11:34Z, 6cda8203-a249-e411-b0cc-f8bc1246af59, $GPGGA,201133.00,4437.5910,N,12402.8824,W,1,07,1.0,25.0,M,-21.8,M,,*61
2021-06-11 20:11:36Z, 6cda8203-a249-e411-b0cc-f8bc1246af59, $GPGGA,201135.00,4437.5911,N,12402.8828,W,1,07,1.0,25.1,M,-21.8,M,,*6B
2021-06-11 20:11:37Z, 6cda8203-a249-e411-b0cc-f8bc1246af59, $GPGGA,201136.00,4437.5910,N,12402.8829,W,1,07,1.0,25.1,M,-21.8,M,,*68
2021-06-11 20:11:38Z, 6cda8203-a249-e411-b0cc-f8bc1246af59, $GPGGA,201137.00,4437.5905,N,12402.8836,W,1,07,1.0,24.8,M,-21.8,M,,*6B
2021-06-11 20:11:39Z, 6cda8203-a249-e411-b0cc-f8bc1246af59, $GPGGA,201138.00,4437.5903,N,12402.8837,W,1,07,1.0,24.7,M,-21.8,M,,*6C
2021-06-11 20:11:41Z, 6cda8203-a249-e411-b0cc-f8bc1246af59, $GPGGA,201140.00,4437.5901,N,12402.8840,W,1,07,1.0,24.8,M,-21.8,M,,*6E
2021-06-11 20:11:42Z, 6cda8203-a249-e411-b0cc-f8bc1246af59, $GPGGA,201141.00,4437.5901,N,12402.8841,W,1,07,1.0,24.8,M,-21.8,M,,*6E
2021-06-11 20:11:43Z, 6cda8203-a249-e411-b0cc-f8bc1246af59, $GPGGA,201142.00,4437.5900,N,12402.8841,W,1,07,1.0,24.8,M,-21.8,M,,*6C
2021-06-11 20:11:45Z, 6cda8203-a249-e411-b0cc-f8bc1246af59, $GPGGA,201144.00,4437.5900,N,12402.8842,W,1,07,1.0,24.9,M,-21.8,M,,*68
2021-06-11 20:11:46Z, 6cda8203-a249-e411-b0cc-f8bc1246af59, $GPGGA,201145.00,4437.5899,N,12402.8842,W,1,07,1.0,24.9,M,-21.8,M,,*68
2021-06-11 20:11:47Z, 6cda8203-a249-e411-b0cc-f8bc1246af59, $GPGGA,201146.00,4437.5899,N,12402.8843,W,1,07,1.0,24.9,M,-21.8,M,,*6A
2021-06-11 20:11:48Z, 6cda8203-a249-e411-b0cc-f8bc1246af59, $GPGGA,201147.00,4437.5898,N,12402.8843,W,1,07,1.0,24.9,M,-21.8,M,,*6A
2021-06-11 20:11:50Z, 6cda8203-a249-e411-b0cc-f8bc1246af59, $GPGGA,201149.00,4437.5898,N,12402.8844,W,1,07,1.0,24.9,M,-21.8,M,,*63
2021-06-11 20:11:51Z, 6cda8203-a249-e411-b0cc-f8bc1246af59, $GPGGA,201150.00,4437.5898,N,12402.8844,W,1,07,1.0,24.9,M,-21.8,M,,*6B
2021-06-11 20:11:52Z, 6cda8203-a249-e411-b0cc-f8bc1246af59, $GPGGA,201151.00,4437.5897,N,12402.8845,W,1,07,1.0,24.9,M,-21.8,M,,*64
2021-06-11 20:11:53Z, 6cda8203-a249-e411-b0cc-f8bc1246af59, $GPGGA,201152.00,4437.5897,N,12402.8845,W,1,07,1.0,24.8,M,-21.8,M,,*66
2021-06-11 20:11:54Z, 6cda8203-a249-e411-b0cc-f8bc1246af59, $GPGGA,201153.00,4437.5897,N,12402.8845,W,1,07,1.0,24.8,M,-21.8,M,,*67
2021-06-11 20:11:55Z, 6cda8203-a249-e411-b0cc-f8bc1246af59, $GPGGA,201154.00,4437.5896,N,12402.8845,W,1,07,1.0,24.9,M,-21.8,M,,*60
2021-06-11 20:11:56Z, 6cda8203-a249-e411-b0cc-f8bc1246af59, $GPGGA,201155.00,4437.5896,N,12402.8846,W,1,07,1.0,24.9,M,-21.8,M,,*62
2021-06-11 20:11:57Z, 6cda8203-a249-e411-b0cc-f8bc1246af59, $GPGGA,201156.00,4437.5895,N,12402.8846,W,1,07,1.0,24.9,M,-21.8,M,,*62
2021-06-11 20:11:58Z, 6cda8203-a249-e411-b0cc-f8bc1246af59, $GPGGA,201157.00,4437.5895,N,12402.8847,W,1,07,1.0,24.9,M,-21.8,M,,*62
2021-06-11 20:11:59Z, 6cda8203-a249-e411-b0cc-f8bc1246af59, $GPGGA,201158.00,4437.5894,N,12402.8847,W,1,07,1.0,25.0,M,-21.8,M,,*64
2021-06-11 20:12:00Z, 6cda8203-a249-e411-b0cc-f8bc1246af59, $GPGGA,201159.00,4437.5894,N,12402.8848,W,1,07,1.0,25.0,M,-21.8,M,,*6A
2021-06-11 20:12:02Z, 6cda8203-a249-e411-b0cc-f8bc1246af59, $GPGGA,201201.00,4437.5893,N,12402.8848,W,1,07,1.0,25.0,M,-21.8,M,,*63
2021-06-11 20:12:03Z, 6cda8203-a249-e411-b0cc-f8bc1246af59, $GPGGA,201202.00,4437.5894,N,12402.8848,W,1,07,1.0,25.0,M,-21.8,M,,*67
2021-06-11 20:12:05Z, 6cda8203-a249-e411-b0cc-f8bc1246af59, $GPGGA,201204.00,4437.5889,N,12402.8861,W,1,07,1.0,25.8,M,-21.8,M,,*6E
2021-06-11 20:12:06Z, 6cda8203-a249-e411-b0cc-f8bc1246af59, $GPGGA,201205.00,4437.5887,N,12402.8867,W,1,07,1.0,26.1,M,-21.8,M,,*6D
2021-06-11 20:12:08Z, 6cda8203-a249-e411-b0cc-f8bc1246af59, $GPGGA,201207.00,4437.5895,N,12402.8871,W,1,07,1.3,26.3,M,-21.8,M,,*6A
2021-06-11 20:12:09Z, 6cda8203-a249-e411-b0cc-f8bc1246af59, $GPGGA,201208.00,4437.5898,N,12402.8874,W,1,07,1.3,26.5,M,-21.8,M,,*6B
2021-06-11 20:12:11Z, 6cda8203-a249-e411-b0cc-f8bc1246af59, $GPGGA,201210.00,4437.5903,N,12402.8876,W,1,07,1.3,26.7,M,-21.8,M,,*61
2021-06-11 20:12:12Z, 6cda8203-a249-e411-b0cc-f8bc1246af59, $GPGGA,201211.00,4437.5906,N,12402.8874,W,1,07,1.3,26.7,M,-21.8,M,,*67
2021-06-11 20:12:14Z, 6cda8203-a249-e411-b0cc-f8bc1246af59, $GPGGA,201213.00,4437.5907,N,12402.8869,W,1,07,1.3,26.9,M,-21.8,M,,*66
2021-06-11 20:12:15Z, 6cda8203-a249-e411-b0cc-f8bc1246af59, $GPGGA,201214.00,4437.5907,N,12402.8869,W,1,07,1.3,27.2,M,-21.8,M,,*6B
2021-06-11 20:12:17Z, 6cda8203-a249-e411-b0cc-f8bc1246af59, $GPGGA,201216.00,4437.5907,N,12402.8867,W,1,07,1.3,27.4,M,-21.8,M,,*61
2021-06-11 20:12:18Z, 6cda8203-a249-e411-b0cc-f8bc1246af59, $GPGGA,201217.00,4437.5906,N,12402.8865,W,1,07,1.3,27.4,M,-21.8,M,,*63
2021-06-11 20:12:20Z, 6cda8203-a249-e411-b0cc-f8bc1246af59, $GPGGA,201219.00,4437.5906,N,12402.8864,W,1,07,1.3,27.5,M,-21.8,M,,*6D
2021-06-11 20:12:21Z, 6cda8203-a249-e411-b0cc-f8bc1246af59, $GPGGA,201220.00,4437.5905,N,12402.8862,W,1,07,1.3,27.6,M,-21.8,M,,*61
2021-06-11 20:12:23Z, 6cda8203-a249-e411-b0cc-f8bc1246af59, $GPGGA,201222.00,4437.5904,N,12402.8862,W,1,07,1.0,27.6,M,-21.8,M,,*61
2021-06-11 20:12:24Z, 6cda8203-a249-e411-b0cc-f8bc1246af59, $GPGGA,201223.00,4437.5904,N,12402.8862,W,1,07,1.0,27.7,M,-21.8,M,,*61
2021-06-11 20:12:26Z, 6cda8203-a249-e411-b0cc-f8bc1246af59, $GPGGA,201225.00,4437.5903,N,12402.8862,W,1,07,1.0,27.8,M,-21.8,M,,*6F
2021-06-11 20:12:27Z, 6cda8203-a249-e411-b0cc-f8bc1246af59, $GPGGA,201226.00,4437.5902,N,12402.8862,W,1,07,1.0,27.9,M,-21.8,M,,*6C
2021-06-11 20:12:29Z, 6cda8203-a249-e411-b0cc-f8bc1246af59, $GPGGA,201228.00,4437.5900,N,12402.8862,W,1,07,1.0,28.1,M,-21.8,M,,*67
2021-06-11 20:12:30Z, 6cda8203-a249-e411-b0cc-f8bc1246af59, $GPGGA,201229.00,4437.5899,N,12402.8862,W,1,07,1.0,28.1,M,-21.8,M,,*67
2021-06-11 20:12:32Z, 6cda8203-a249-e411-b0cc-f8bc1246af59, $GPGGA,201231.00,4437.5898,N,12402.8861,W,1,07,1.0,28.1,M,-21.8,M,,*6C
2021-06-11 20:12:33Z, 6cda8203-a249-e411-b0cc-f8bc1246af59, $GPGGA,201232.00,4437.5898,N,12402.8861,W,1,07,1.0,28.1,M,-21.8,M,,*6F
2021-06-11 20:12:35Z, 6cda8203-a249-e411-b0cc-f8bc1246af59, $GPGGA,201234.00,4437.5897,N,12402.8860,W,1,07,1.0,28.2,M,-21.8,M,,*64
2021-06-11 20:12:36Z, 6cda8203-a249-e411-b0cc-f8bc1246af59, $GPGGA,201235.00,4437.5897,N,12402.8860,W,1,07,1.0,28.3,M,-21.8,M,,*64
2021-06-11 20:12:38Z, 6cda8203-a249-e411-b0cc-f8bc1246af59, $GPGGA,201237.00,4437.5896,N,12402.8857,W,1,07,1.3,28.4,M,-21.8,M,,*67
2021-06-11 20:12:39Z, 6cda8203-a249-e411-b0cc-f8bc1246af59, $GPGGA,201238.00,4437.5896,N,12402.8857,W,1,07,1.3,28.4,M,-21.8,M,,*68
2021-06-11 20:12:41Z, 6cda8203-a249-e411-b0cc-f8bc1246af59, $GPGGA,201240.00,4437.5896,N,12402.8855,W,1,07,1.0,28.4,M,-21.8,M,,*66
2021-06-11 20:12:42Z, 6cda8203-a249-e411-b0cc-f8bc1246af59, $GPGGA,201241.00,4437.5896,N,12402.8855,W,1,07,1.0,28.4,M,-21.8,M,,*67
2021-06-11 20:12:44Z, 6cda8203-a249-e411-b0cc-f8bc1246af59, $GPGGA,201243.00,4437.5896,N,12402.8854,W,1,07,1.0,28.5,M,-21.8,M,,*65
2021-06-11 20:12:45Z, 6cda8203-a249-e411-b0cc-f8bc1246af59, $GPGGA,201244.00,4437.5896,N,12402.8854,W,1,07,1.0,28.5,M,-21.8,M,,*62
2021-06-11 20:12:47Z, 6cda8203-a249-e411-b0cc-f8bc1246af59, $GPGGA,201246.00,4437.5896,N,12402.8854,W,1,07,1.0,28.5,M,-21.8,M,,*60
2021-06-11 20:12:48Z, 6cda8203-a249-e411-b0cc-f8bc1246af59, $GPGGA,201247.00,4437.5896,N,12402.8854,W,1,07,1.0,28.6,M,-21.8,M,,*62
2021-06-11 20:12:50Z, 6cda8203-a249-e411-b0cc-f8bc1246af59, $GPGGA,201249.00,4437.5896,N,12402.8854,W,1,07,1.0,28.6,M,-21.8,M,,*6C
2021-06-11 20:12:51Z, 6cda8203-a249-e411-b0cc-f8bc1246af59, $GPGGA,201250.00,4437.5896,N,12402.8854,W,1,07,1.0,28.6,M,-21.8,M,,*64
2021-06-11 20:12:53Z, 6cda8203-a249-e411-b0cc-f8bc1246af59, $GPGGA,201252.00,4437.5896,N,12402.8856,W,1,07,1.0,28.7,M,-21.8,M,,*65
2021-06-11 20:12:54Z, 6cda8203-a249-e411-b0cc-f8bc1246af59, $GPGGA,201253.00,4437.5896,N,12402.8857,W,1,07,1.0,28.7,M,-21.8,M,,*65
2021-06-11 20:12:56Z, 6cda8203-a249-e411-b0cc-f8bc1246af59, $GPGGA,201255.00,4437.5886,N,12402.8869,W,1,07,1.0,28.9,M,-21.8,M,,*61
2021-06-11 20:12:57Z, 6cda8203-a249-e411-b0cc-f8bc1246af59, $GPGGA,201256.00,4437.5886,N,12402.8874,W,1,07,1.0,28.6,M,-21.8,M,,*61
2021-06-11 20:12:59Z, 6cda8203-a249-e411-b0cc-f8bc1246af59, $GPGGA,201258.00,4437.5884,N,12402.8877,W,1,07,1.0,28.0,M,-21.8,M,,*68
2021-06-11 20:13:00Z, 6cda8203-a249-e411-b0cc-f8bc1246af59, $GPGGA,201259.00,4437.5885,N,12402.8876,W,1,07,1.0,27.8,M,-21.8,M,,*6E
2021-06-11 20:13:02Z, 6cda8203-a249-e411-b0cc-f8bc1246af59, $GPGGA,201301.00,4437.5885,N,12402.8876,W,1,07,1.0,27.8,M,-21.8,M,,*62
2021-06-11 20:13:03Z, 6cda8203-a249-e411-b0cc-f8bc1246af59, $GPGGA,201302.00,4437.5884,N,12402.8877,W,1,07,1.3,27.8,M,-21.8,M,,*62
2021-06-11 20:13:05Z, 6cda8203-a249-e411-b0cc-f8bc1246af59, $GPGGA,201304.00,4437.5884,N,12402.8877,W,1,06,1.3,27.8,M,-21.8,M,,*65
2021-06-11 20:13:06Z, 6cda8203-a249-e411-b0cc-f8bc1246af59, $GPGGA,201305.00,4437.5884,N,12402.8878,W,1,05,2.0,27.9,M,-21.8,M,,*69
2021-06-11 20:13:08Z, 6cda8203-a249-e411-b0cc-f8bc1246af59, $GPGGA,201307.00,4437.5883,N,12402.8879,W,1,05,2.0,27.8,M,-21.8,M,,*6C
2021-06-11 20:13:09Z, 6cda8203-a249-e411-b0cc-f8bc1246af59, $GPGGA,201308.00,4437.5883,N,12402.8878,W,1,07,1.3,27.8,M,-21.8,M,,*60
2021-06-11 20:13:11Z, 6cda8203-a249-e411-b0cc-f8bc1246af59, $GPGGA,201310.00,4437.5882,N,12402.8878,W,1,06,1.3,27.7,M,-21.8,M,,*66
2021-06-11 20:13:12Z, 6cda8203-a249-e411-b0cc-f8bc1246af59, $GPGGA,201311.00,4437.5882,N,12402.8879,W,1,06,1.3,27.7,M,-21.8,M,,*66
2021-06-11 20:13:14Z, 6cda8203-a249-e411-b0cc-f8bc1246af59, $GPGGA,201313.00,4437.5881,N,12402.8879,W,1,07,1.0,27.6,M,-21.8,M,,*64
2021-06-11 20:13:15Z, 6cda8203-a249-e411-b0cc-f8bc1246af59, $GPGGA,201314.00,4437.5880,N,12402.8879,W,1,07,1.0,27.6,M,-21.8,M,,*62
2021-06-11 20:13:17Z, 6cda8203-a249-e411-b0cc-f8bc1246af59, $GPGGA,201316.00,4437.5880,N,12402.8879,W,1,07,1.0,27.6,M,-21.8,M,,*60
