ACQ Timestamp (Server Time in UTC), MessageID, Data Value For: GNSS-6452-$GPGGA
2021-08-08 00:00:00Z, 6cda8203-a249-e411-b0cc-f8bc1246af59, $GPGGA,235959.00,4434.8209,N,12408.2204,W,1,10,0.8,25.2,M,-22.0,M,,*61
2021-08-08 00:00:02Z, 6cda8203-a249-e411-b0cc-f8bc1246af59, $GPGGA,000001.00,4434.8197,N,12408.2220,W,1,10,0.8,23.0,M,-22.0,M,,*67
2021-08-08 00:00:03Z, 6cda8203-a249-e411-b0cc-f8bc1246af59, $GPGGA,000002.00,4434.8191,N,12408.2228,W,1,10,0.8,25.4,M,-22.0,M,,*68
2021-08-08 00:00:05Z, 6cda8203-a249-e411-b0cc-f8bc1246af59, $GPGGA,000004.00,4434.8177,N,12408.2244,W,1,10,0.8,23.0,M,-22.0,M,,*6E
2021-08-08 00:00:06Z, 6cda8203-a249-e411-b0cc-f8bc1246af59, $GPGGA,000005.00,4434.8171,N,12408.2251,W,1,10,0.8,22.1,M,-22.0,M,,*6D
2021-08-08 00:00:08Z, 6cda8203-a249-e411-b0cc-f8bc1246af59, $GPGGA,000007.00,4434.8157,N,12408.2265,W,1,10,0.8,19.7,M,-22.0,M,,*62
2021-08-08 00:00:09Z, 6cda8203-a249-e411-b0cc-f8bc1246af59, $GPGGA,000008.00,4434.8149,N,12408.2274,W,1,10,0.8,20.0,M,-22.0,M,,*6F
2021-08-08 00:00:11Z, 6cda8203-a249-e411-b0cc-f8bc1246af59, $GPGGA,000010.00,4434.8136,N,12408.2293,W,1,10,0.8,16.1,M,-22.0,M,,*63
2021-08-08 00:00:12Z, 6cda8203-a249-e411-b0cc-f8bc1246af59, $GPGGA,000011.00,4434.8130,N,12408.2300,W,1,10,0.8,17.2,M,-22.0,M,,*6D
2021-08-08 00:00:13Z, 6cda8203-a249-e411-b0cc-f8bc1246af59, $GPGGA,000012.00,4434.8123,N,12408.2306,W,1,10,0.8,18.9,M,-22.0,M,,*6E
2021-08-08 00:00:14Z, 6cda8203-a249-e411-b0cc-f8bc1246af59, $GPGGA,000013.00,4434.8116,N,12408.2312,W,1,10,0.8,21.5,M,-22.0,M,,*6A
2021-08-08 00:00:15Z, 6cda8203-a249-e411-b0cc-f8bc1246af59, $GPGGA,000014.00,4434.8108,N,12408.2319,W,1,10,0.8,23.0,M,-22.0,M,,*6E
2021-08-08 00:00:16Z, 6cda8203-a249-e411-b0cc-f8bc1246af59, $GPGGA,000015.00,4434.8100,N,12408.2326,W,1,10,0.8,24.1,M,-22.0,M,,*6D
2021-08-08 00:00:17Z, 6cda8203-a249-e411-b0cc-f8bc1246af59, $GPGGA,000016.00,4434.8093,N,12408.2332,W,1,10,0.8,23.9,M,-22.0,M,,*6F
2021-08-08 00:00:19Z, 6cda8203-a249-e411-b0cc-f8bc1246af59, $GPGGA,000017.00,4434.8086,N,12408.2338,W,1,10,0.8,24.0,M,-22.0,M,,*6E
2021-08-08 00:00:20Z, 6cda8203-a249-e411-b0cc-f8bc1246af59, $GPGGA,000019.00,4434.8074,N,12408.2353,W,1,10,0.8,21.8,M,-22.0,M,,*6D
2021-08-08 00:00:21Z, 6cda8203-a249-e411-b0cc-f8bc1246af59, $GPGGA,000020.00,4434.8068,N,12408.2360,W,1,10,0.8,21.0,M,-22.0,M,,*62
2021-08-08 00:00:23Z, 6cda8203-a249-e411-b0cc-f8bc1246af59, $GPGGA,000022.00,4434.8054,N,12408.2372,W,1,10,0.8,21.9,M,-22.0,M,,*65
2021-08-08 00:00:25Z, 6cda8203-a249-e411-b0cc-f8bc1246af59, $GPGGA,000023.00,4434.8047,N,12408.2380,W,1,10,0.8,23.1,M,-22.0,M,,*61
2021-08-08 00:00:26Z, 6cda8203-a249-e411-b0cc-f8bc1246af59, $GPGGA,000025.00,4434.8035,N,12408.2397,W,1,10,0.8,20.1,M,-22.0,M,,*67
2021-08-08 00:00:28Z, 6cda8203-a249-e411-b0cc-f8bc1246af59, $GPGGA,000026.00,4434.8027,N,12408.2405,W,1,10,0.8,20.7,M,-22.0,M,,*6D
2021-08-08 00:00:29Z, 6cda8203-a249-e411-b0cc-f8bc1246af59, $GPGGA,000028.00,4434.8013,N,12408.2419,W,1,10,0.8,24.0,M,-22.0,M,,*6A
2021-08-08 00:00:31Z, 6cda8203-a249-e411-b0cc-f8bc1246af59, $GPGGA,000029.00,4434.8006,N,12408.2426,W,1,10,0.8,22.8,M,-22.0,M,,*6D
2021-08-08 00:00:32Z, 6cda8203-a249-e411-b0cc-f8bc1246af59, $GPGGA,000031.00,4434.7993,N,12408.2445,W,1,10,0.8,21.1,M,-22.0,M,,*61
2021-08-08 00:00:33Z, 6cda8203-a249-e411-b0cc-f8bc1246af59, $GPGGA,000032.00,4434.7986,N,12408.2453,W,1,10,0.8,21.2,M,-22.0,M,,*62
2021-08-08 00:00:35Z, 6cda8203-a249-e411-b0cc-f8bc1246af59, $GPGGA,000034.00,4434.7973,N,12408.2464,W,1,10,0.8,21.7,M,-22.0,M,,*6F
2021-08-08 00:00:36Z, 6cda8203-a249-e411-b0cc-f8bc1246af59, $GPGGA,000035.00,4434.7965,N,12408.2469,W,1,10,0.8,24.1,M,-22.0,M,,*67
2021-08-08 00:00:38Z, 6cda8203-a249-e411-b0cc-f8bc1246af59, $GPGGA,000037.00,4434.7952,N,12408.2486,W,1,10,0.8,23.7,M,-22.0,M,,*61
2021-08-08 00:00:40Z, 6cda8203-a249-e411-b0cc-f8bc1246af59, $GPGGA,000038.00,4434.7946,N,12408.2495,W,1,10,0.8,22.2,M,-22.0,M,,*6D
2021-08-08 00:00:41Z, 6cda8203-a249-e411-b0cc-f8bc1246af59, $GPGGA,000040.00,4434.7932,N,12408.2509,W,1,10,0.8,20.2,M,-22.0,M,,*67
2021-08-08 00:00:43Z, 6cda8203-a249-e411-b0cc-f8bc1246af59, $GPGGA,000041.00,4434.7925,N,12408.2515,W,1,10,0.8,19.7,M,-22.0,M,,*62
2021-08-08 00:00:44Z, 6cda8203-a249-e411-b0cc-f8bc1246af59, $GPGGA,000043.00,4434.7911,N,12408.2528,W,1,10,0.8,24.4,M,-22.0,M,,*64
2021-08-08 00:00:46Z, 6cda8203-a249-e411-b0cc-f8bc1246af59, $GPGGA,000044.00,4434.7905,N,12408.2535,W,1,10,0.8,25.8,M,-22.0,M,,*67
2021-08-08 00:00:47Z, 6cda8203-a249-e411-b0cc-f8bc1246af59, $GPGGA,000046.00,4434.7892,N,12408.2549,W,1,10,0.8,25.9,M,-22.0,M,,*60
2021-08-08 00:00:48Z, 6cda8203-a249-e411-b0cc-f8bc1246af59, $GPGGA,000047.00,4434.7884,N,12408.2555,W,1,10,0.8,29.5,M,-22.0,M,,*6B
2021-08-08 00:00:50Z, 6cda8203-a249-e411-b0cc-f8bc1246af59, $GPGGA,000049.00,4434.7870,N,12408.2566,W,1,10,0.8,25.5,M,-22.0,M,,*62
2021-08-08 00:00:51Z, 6cda8203-a249-e411-b0cc-f8bc1246af59, $GPGGA,000050.00,4434.7865,N,12408.2574,W,1,10,0.8,23.7,M,-22.0,M,,*69
2021-08-08 00:00:53Z, 6cda8203-a249-e411-b0cc-f8bc1246af59, $GPGGA,000052.00,4434.7854,N,12408.2590,W,1,10,0.8,21.3,M,-22.0,M,,*65
2021-08-08 00:00:54Z, 6cda8203-a249-e411-b0cc-f8bc1246af59, $GPGGA,000053.00,4434.7845,N,12408.2597,W,1,10,0.8,19.1,M,-22.0,M,,*6A
2021-08-08 00:00:56Z, 6cda8203-a249-e411-b0cc-f8bc1246af59, $GPGGA,000055.00,4434.7830,N,12408.2608,W,1,10,0.8,20.3,M,-22.0,M,,*63
2021-08-08 00:00:57Z, 6cda8203-a249-e411-b0cc-f8bc1246af59, $GPGGA,000056.00,4434.7824,N,12408.2614,W,1,10,0.8,20.3,M,-22.0,M,,*68
2021-08-08 00:00:59Z, 6cda8203-a249-e411-b0cc-f8bc1246af59, $GPGGA,000058.00,4434.7807,N,12408.2629,W,1,10,0.8,18.3,M,-22.0,M,,*62
2021-08-08 00:01:00Z, 6cda8203-a249-e411-b0cc-f8bc1246af59, $GPGGA,000059.00,4434.7800,N,12408.2637,W,1,10,0.8,18.0,M,-22.0,M,,*68
2021-08-08 00:01:02Z, 6cda8203-a249-e411-b0cc-f8bc1246af59, $GPGGA,000101.00,4434.7787,N,12408.2652,W,1,10,0.8,20.2,M,-22.0,M,,*6E
2021-08-08 00:01:03Z, 6cda8203-a249-e411-b0cc-f8bc1246af59, $GPGGA,000102.00,4434.7779,N,12408.2660,W,1,10,0.8,20.7,M,-22.0,M,,*68
2021-08-08 00:01:05Z, 6cda8203-a249-e411-b0cc-f8bc1246af59, $GPGGA,000104.00,4434.7764,N,12408.2677,W,1,10,0.8,18.4,M,-22.0,M,,*6C
2021-08-08 00:01:06Z, 6cda8203-a249-e411-b0cc-f8bc1246af59, $GPGGA,000105.00,4434.7756,N,12408.2686,W,1,10,0.8,19.4,M,-22.0,M,,*63
2021-08-08 00:01:08Z, 6cda8203-a249-e411-b0cc-f8bc1246af59, $GPGGA,000107.00,4434.7741,N,12408.2696,W,1,10,0.8,19.2,M,-22.0,M,,*60
2021-08-08 00:01:09Z, 6cda8203-a249-e411-b0cc-f8bc1246af59, $GPGGA,000108.00,4434.7735,N,12408.2701,W,1,10,0.8,20.4,M,-22.0,M,,*6F
2021-08-08 00:01:11Z, 6cda8203-a249-e411-b0cc-f8bc1246af59, $GPGGA,000110.00,4434.7723,N,12408.2714,W,1,10,0.8,19.7,M,-22.0,M,,*6C
2021-08-08 00:01:12Z, 6cda8203-a249-e411-b0cc-f8bc1246af59, $GPGGA,000111.00,4434.7716,N,12408.2721,W,1,10,0.8,18.8,M,-22.0,M,,*63
2021-08-08 00:01:14Z, 6cda8203-a249-e411-b0cc-f8bc1246af59, $GPGGA,000113.00,4434.7701,N,12408.2735,W,1,10,0.8,16.4,M,-22.0,M,,*60
2021-08-08 00:01:15Z, 6cda8203-a249-e411-b0cc-f8bc1246af59, $GPGGA,000114.00,4434.7695,N,12408.2739,W,1,10,0.8,14.8,M,-22.0,M,,*69
2021-08-08 00:01:17Z, 6cda8203-a249-e411-b0cc-f8bc1246af59, $GPGGA,000116.00,4434.7682,N,12408.2746,W,1,10,0.8,17.5,M,-22.0,M,,*6B
2021-08-08 00:01:18Z, 6cda8203-a249-e411-b0cc-f8bc1246af59, $GPGGA,000117.00,4434.7674,N,12408.2753,W,1,10,0.8,16.9,M,-22.0,M,,*6A
2021-08-08 00:01:20Z, 6cda8203-a249-e411-b0cc-f8bc1246af59, $GPGGA,000119.00,4434.7658,N,12408.2772,W,1,10,0.8,16.4,M,-22.0,M,,*64
2021-08-08 00:01:21Z, 6cda8203-a249-e411-b0cc-f8bc1246af59, $GPGGA,000120.00,4434.7653,N,12408.2780,W,1,10,0.8,18.3,M,-22.0,M,,*61
2021-08-08 00:01:23Z, 6cda8203-a249-e411-b0cc-f8bc1246af59, $GPGGA,000122.00,4434.7640,N,12408.2792,W,1,10,0.8,19.1,M,-22.0,M,,*61
2021-08-08 00:01:24Z, 6cda8203-a249-e411-b0cc-f8bc1246af59, $GPGGA,000123.00,4434.7631,N,12408.2799,W,1,10,0.8,19.2,M,-22.0,M,,*6E
2021-08-08 00:01:26Z, 6cda8203-a249-e411-b0cc-f8bc1246af59, $GPGGA,000125.00,4434.7616,N,12408.2814,W,1,10,0.8,20.0,M,-22.0,M,,*6F
2021-08-08 00:01:27Z, 6cda8203-a249-e411-b0cc-f8bc1246af59, $GPGGA,000126.00,4434.7610,N,12408.2822,W,1,10,0.8,18.2,M,-22.0,M,,*66
2021-08-08 00:01:29Z, 6cda8203-a249-e411-b0cc-f8bc1246af59, $GPGGA,000128.00,4434.7597,N,12408.2838,W,1,10,0.8,18.7,M,-22.0,M,,*6A
2021-08-08 00:01:30Z, 6cda8203-a249-e411-b0cc-f8bc1246af59, $GPGGA,000129.00,4434.7590,N,12408.2847,W,1,10,0.8,17.0,M,-22.0,M,,*6C
2021-08-08 00:01:32Z, 6cda8203-a249-e411-b0cc-f8bc1246af59, $GPGGA,000131.00,4434.7575,N,12408.2862,W,1,10,0.8,17.1,M,-22.0,M,,*68
2021-08-08 00:01:33Z, 6cda8203-a249-e411-b0cc-f8bc1246af59, $GPGGA,000132.00,4434.7567,N,12408.2866,W,1,10,0.8,20.2,M,-22.0,M,,*6B
2021-08-08 00:01:35Z, 6cda8203-a249-e411-b0cc-f8bc1246af59, $GPGGA,000134.00,4434.7551,N,12408.2883,W,1,10,0.8,19.4,M,-22.0,M,,*6F
2021-08-08 00:01:36Z, 6cda8203-a249-e411-b0cc-f8bc1246af59, $GPGGA,000135.00,4434.7545,N,12408.2895,W,1,10,0.8,17.9,M,-22.0,M,,*6F
2021-08-08 00:01:38Z, 6cda8203-a249-e411-b0cc-f8bc1246af59, $GPGGA,000137.00,4434.7535,N,12408.2914,W,1,10,0.8,19.2,M,-22.0,M,,*67
2021-08-08 00:01:39Z, 6cda8203-a249-e411-b0cc-f8bc1246af59, $GPGGA,000138.00,4434.7529,N,12408.2920,W,1,10,0.8,20.4,M,-22.0,M,,*6E
2021-08-08 00:01:41Z, 6cda8203-a249-e411-b0cc-f8bc1246af59, $GPGGA,000140.00,4434.7514,N,12408.2931,W,1,10,0.8,22.3,M,-22.0,M,,*6A
2021-08-08 00:01:42Z, 6cda8203-a249-e411-b0cc-f8bc1246af59, $GPGGA,000141.00,4434.7506,N,12408.2938,W,1,10,0.8,21.3,M,-22.0,M,,*62
2021-08-08 00:01:44Z, 6cda8203-a249-e411-b0cc-f8bc1246af59, $GPGGA,000143.00,4434.7491,N,12408.2954,W,1,10,0.8,18.5,M,-22.0,M,,*69
2021-08-08 00:01:45Z, 6cda8203-a249-e411-b0cc-f8bc1246af59, $GPGGA,000144.00,4434.7486,N,12408.2962,W,1,10,0.8,18.0,M,-22.0,M,,*68
2021-08-08 00:01:47Z, 6cda8203-a249-e411-b0cc-f8bc1246af59, $GPGGA,000146.00,4434.7474,N,12408.2973,W,1,10,0.8,20.0,M,-22.0,M,,*6C
2021-08-08 00:01:48Z, 6cda8203-a249-e411-b0cc-f8bc1246af59, $GPGGA,000147.00,4434.7467,N,12408.2978,W,1,10,0.8,19.2,M,-22.0,M,,*6C
2021-08-08 00:01:50Z, 6cda8203-a249-e411-b0cc-f8bc1246af59, $GPGGA,000149.00,4434.7453,N,12408.2990,W,1,10,0.8,16.5,M,-22.0,M,,*6B
2021-08-08 00:01:51Z, 6cda8203-a249-e411-b0cc-f8bc1246af59, $GPGGA,000150.00,4434.7447,N,12408.2997,W,1,10,0.8,15.5,M,-22.0,M,,*62
2021-08-08 00:01:53Z, 6cda8203-a249-e411-b0cc-f8bc1246af59, $GPGGA,000152.00,4434.7434,N,12408.3009,W,1,10,0.8,19.3,M,-22.0,M,,*61
2021-08-08 00:01:54Z, 6cda8203-a249-e411-b0cc-f8bc1246af59, $GPGGA,000153.00,4434.7426,N,12408.3015,W,1,10,0.8,19.3,M,-22.0,M,,*6E
2021-08-08 00:01:56Z, 6cda8203-a249-e411-b0cc-f8bc1246af59, $GPGGA,000155.00,4434.7412,N,12408.3029,W,1,10,0.8,18.8,M,-22.0,M,,*6A
2021-08-08 00:01:57Z, 6cda8203-a249-e411-b0cc-f8bc1246af59, $GPGGA,000156.00,4434.7406,N,12408.3036,W,1,10,0.8,18.8,M,-22.0,M,,*62
2021-08-08 00:01:59Z, 6cda8203-a249-e411-b0cc-f8bc1246af59, $GPGGA,000158.00,4434.7393,N,12408.3050,W,1,10,0.8,20.0,M,-22.0,M,,*64
2021-08-08 00:02:00Z, 6cda8203-a249-e411-b0cc-f8bc1246af59, $GPGGA,000159.00,4434.7386,N,12408.3056,W,1,10,0.8,18.3,M,-22.0,M,,*6F
2021-08-08 00:02:02Z, 6cda8203-a249-e411-b0cc-f8bc1246af59, $GPGGA,000201.00,4434.7370,N,12408.3067,W,1,10,0.8,19.6,M,-22.0,M,,*6E
2021-08-08 00:02:03Z, 6cda8203-a249-e411-b0cc-f8bc1246af59, $GPGGA,000202.00,4434.7364,N,12408.3073,W,1,10,0.8,22.1,M,-22.0,M,,*62
2021-08-08 00:02:05Z, 6cda8203-a249-e411-b0cc-f8bc1246af59, $GPGGA,000204.00,4434.7354,N,12408.3088,W,1,10,0.8,21.5,M,-22.0,M,,*64
2021-08-08 00:02:06Z, 6cda8203-a249-e411-b0cc-f8bc1246af59, $GPGGA,000205.00,4434.7348,N,12408.3096,W,1,10,0.8,20.8,M,-22.0,M,,*6B
2021-08-08 00:02:08Z, 6cda8203-a249-e411-b0cc-f8bc1246af59, $GPGGA,000207.00,4434.7332,N,12408.3109,W,1,10,0.8,20.8,M,-22.0,M,,*63
2021-08-08 00:02:09Z, 6cda8203-a249-e411-b0cc-f8bc1246af59, $GPGGA,000208.00,4434.7324,N,12408.3113,W,1,10,0.8,18.5,M,-22.0,M,,*66
2021-08-08 00:02:11Z, 6cda8203-a249-e411-b0cc-f8bc1246af59, $GPGGA,000210.00,4434.7312,N,12408.3125,W,1,10,0.8,21.5,M,-22.0,M,,*65
2021-08-08 00:02:12Z, 6cda8203-a249-e411-b0cc-f8bc1246af59, $GPGGA,000211.00,4434.7306,N,12408.3133,W,1,10,0.8,19.9,M,-22.0,M,,*61
2021-08-08 00:02:14Z, 6cda8203-a249-e411-b0cc-f8bc1246af59, $GPGGA,000213.00,4434.7292,N,12408.3148,W,1,10,0.8,19.7,M,-22.0,M,,*6D
2021-08-08 00:02:15Z, 6cda8203-a249-e411-b0cc-f8bc1246af59, $GPGGA,000214.00,4434.7286,N,12408.3157,W,1,10,0.8,21.3,M,-22.0,M,,*6E
2021-08-08 00:02:16Z, 6cda8203-a249-e411-b0cc-f8bc1246af59, $GPGGA,000216.00,4434.7274,N,12408.3171,W,1,10,0.8,21.8,M,-22.0,M,,*6E
2021-08-08 00:02:18Z, 6cda8203-a249-e411-b0cc-f8bc1246af59, $GPGGA,000217.00,4434.7267,N,12408.3175,W,1,10,0.8,21.7,M,-22.0,M,,*66
2021-08-08 00:02:19Z, 6cda8203-a249-e411-b0cc-f8bc1246af59, $GPGGA,000218.00,4434.7260,N,12408.3179,W,1,10,0.8,19.1,M,-22.0,M,,*6F
2021-08-08 00:02:20Z, 6cda8203-a249-e411-b0cc-f8bc1246af59, $GPGGA,000219.00,4434.7253,N,12408.3185,W,1,10,0.8,18.2,M,-22.0,M,,*6F
2021-08-08 00:02:22Z, 6cda8203-a249-e411-b0cc-f8bc1246af59, $GPGGA,000220.00,4434.7246,N,12408.3192,W,1,10,0.8,18.9,M,-22.0,M,,*6C
2021-08-08 00:02:23Z, 6cda8203-a249-e411-b0cc-f8bc1246af59, $GPGGA,000222.00,4434.7233,N,12408.3209,W,1,10,0.8,18.9,M,-22.0,M,,*6D
2021-08-08 00:02:24Z, 6cda8203-a249-e411-b0cc-f8bc1246af59, $GPGGA,000223.00,4434.7227,N,12408.3218,W,1,10,0.8,19.1,M,-22.0,M,,*60
2021-08-08 00:02:26Z, 6cda8203-a249-e411-b0cc-f8bc1246af59, $GPGGA,000225.00,4434.7215,N,12408.3230,W,1,10,0.8,20.1,M,-22.0,M,,*67
2021-08-08 00:02:28Z, 6cda8203-a249-e411-b0cc-f8bc1246af59, $GPGGA,000226.00,4434.7207,N,12408.3236,W,1,10,0.8,20.6,M,-22.0,M,,*66
2021-08-08 00:02:30Z, 6cda8203-a249-e411-b0cc-f8bc1246af59, $GPGGA,000228.00,4434.7191,N,12408.3250,W,1,10,0.8,19.6,M,-22.0,M,,*6E
2021-08-08 00:02:31Z, 6cda8203-a249-e411-b0cc-f8bc1246af59, $GPGGA,000229.00,4434.7186,N,12408.3259,W,1,10,0.8,19.8,M,-22.0,M,,*6E
2021-08-08 00:02:32Z, 6cda8203-a249-e411-b0cc-f8bc1246af59, $GPGGA,000231.00,4434.7176,N,12408.3274,W,1,10,0.8,22.5,M,-22.0,M,,*62
2021-08-08 00:02:34Z, 6cda8203-a249-e411-b0cc-f8bc1246af59, $GPGGA,000232.00,4434.7170,N,12408.3283,W,1,10,0.8,21.1,M,-22.0,M,,*68
2021-08-08 00:02:35Z, 6cda8203-a249-e411-b0cc-f8bc1246af59, $GPGGA,000234.00,4434.7153,N,12408.3296,W,1,10,0.8,20.7,M,-22.0,M,,*6C
2021-08-08 00:02:36Z, 6cda8203-a249-e411-b0cc-f8bc1246af59, $GPGGA,000235.00,4434.7146,N,12408.3302,W,1,10,0.8,22.5,M,-22.0,M,,*65
2021-08-08 00:02:38Z, 6cda8203-a249-e411-b0cc-f8bc1246af59, $GPGGA,000237.00,4434.7137,N,12408.3315,W,1,10,0.8,21.9,M,-22.0,M,,*68
2021-08-08 00:02:39Z, 6cda8203-a249-e411-b0cc-f8bc1246af59, $GPGGA,000238.00,4434.7132,N,12408.3326,W,1,10,0.8,20.5,M,-22.0,M,,*6F
2021-08-08 00:02:42Z, 6cda8203-a249-e411-b0cc-f8bc1246af59, $GPGGA,000240.00,4434.7116,N,12408.3345,W,1,10,0.8,18.8,M,-22.0,M,,*65
2021-08-08 00:02:43Z, 6cda8203-a249-e411-b0cc-f8bc1246af59, $GPGGA,000241.00,4434.7109,N,12408.3350,W,1,10,0.8,19.9,M,-22.0,M,,*6E
2021-08-08 00:02:45Z, 6cda8203-a249-e411-b0cc-f8bc1246af59, $GPGGA,000243.00,4434.7098,N,12408.3363,W,1,10,0.8,20.2,M,-22.0,M,,*64
2021-08-08 00:02:46Z, 6cda8203-a249-e411-b0cc-f8bc1246af59, $GPGGA,000244.00,4434.7092,N,12408.3370,W,1,10,0.8,20.3,M,-22.0,M,,*6A
2021-08-08 00:02:47Z, 6cda8203-a249-e411-b0cc-f8bc1246af59, $GPGGA,000246.00,4434.7077,N,12408.3382,W,1,10,0.8,20.1,M,-22.0,M,,*6C
2021-08-08 00:02:49Z, 6cda8203-a249-e411-b0cc-f8bc1246af59, $GPGGA,000247.00,4434.7070,N,12408.3388,W,1,10,0.8,20.2,M,-22.0,M,,*63
2021-08-08 00:02:50Z, 6cda8203-a249-e411-b0cc-f8bc1246af59, $GPGGA,000249.00,4434.7059,N,12408.3400,W,1,10,0.8,19.0,M,-22.0,M,,*69
2021-08-08 00:02:51Z, 6cda8203-a249-e411-b0cc-f8bc1246af59, $GPGGA,000250.00,4434.7052,N,12408.3405,W,1,10,0.8,17.3,M,-22.0,M,,*62
2021-08-08 00:02:53Z, 6cda8203-a249-e411-b0cc-f8bc1246af59, $GPGGA,000252.00,4434.7037,N,12408.3418,W,1,10,0.8,17.6,M,-22.0,M,,*6A
2021-08-08 00:02:54Z, 6cda8203-a249-e411-b0cc-f8bc1246af59, $GPGGA,000253.00,4434.7030,N,12408.3423,W,1,10,0.8,20.8,M,-22.0,M,,*6E
2021-08-08 00:02:56Z, 6cda8203-a249-e411-b0cc-f8bc1246af59, $GPGGA,000255.00,4434.7019,N,12408.3433,W,1,10,0.8,20.9,M,-22.0,M,,*63
2021-08-08 00:02:57Z, 6cda8203-a249-e411-b0cc-f8bc1246af59, $GPGGA,000256.00,4434.7012,N,12408.3438,W,1,10,0.8,23.0,M,-22.0,M,,*6A
2021-08-08 00:02:59Z, 6cda8203-a249-e411-b0cc-f8bc1246af59, $GPGGA,000258.00,4434.6997,N,12408.3451,W,1,10,0.8,21.8,M,-22.0,M,,*64
2021-08-08 00:03:00Z, 6cda8203-a249-e411-b0cc-f8bc1246af59, $GPGGA,000259.00,4434.6989,N,12408.3460,W,1,10,0.8,21.9,M,-22.0,M,,*69
2021-08-08 00:03:02Z, 6cda8203-a249-e411-b0cc-f8bc1246af59, $GPGGA,000301.00,4434.6977,N,12408.3475,W,1,10,0.8,22.5,M,-22.0,M,,*6F
2021-08-08 00:03:03Z, 6cda8203-a249-e411-b0cc-f8bc1246af59, $GPGGA,000302.00,4434.6971,N,12408.3481,W,1,10,0.8,22.6,M,-22.0,M,,*62
2021-08-08 00:03:05Z, 6cda8203-a249-e411-b0cc-f8bc1246af59, $GPGGA,000304.00,4434.6954,N,12408.3493,W,1,10,0.8,24.4,M,-22.0,M,,*64
2021-08-08 00:03:06Z, 6cda8203-a249-e411-b0cc-f8bc1246af59, $GPGGA,000305.00,4434.6946,N,12408.3497,W,1,10,0.8,23.2,M,-22.0,M,,*63
2021-08-08 00:03:08Z, 6cda8203-a249-e411-b0cc-f8bc1246af59, $GPGGA,000307.00,4434.6931,N,12408.3505,W,1,10,0.8,28.0,M,-22.0,M,,*62
2021-08-08 00:03:09Z, 6cda8203-a249-e411-b0cc-f8bc1246af59, $GPGGA,000308.00,4434.6924,N,12408.3511,W,1,10,0.8,29.2,M,-22.0,M,,*6F
2021-08-08 00:03:11Z, 6cda8203-a249-e411-b0cc-f8bc1246af59, $GPGGA,000310.00,4434.6911,N,12408.3529,W,1,10,0.8,27.1,M,-22.0,M,,*66
2021-08-08 00:03:12Z, 6cda8203-a249-e411-b0cc-f8bc1246af59, $GPGGA,000311.00,4434.6905,N,12408.3536,W,1,10,0.8,26.6,M,-22.0,M,,*6A
2021-08-08 00:03:14Z, 6cda8203-a249-e411-b0cc-f8bc1246af59, $GPGGA,000313.00,4434.6891,N,12408.3542,W,1,10,0.8,26.8,M,-22.0,M,,*69
2021-08-08 00:03:15Z, 6cda8203-a249-e411-b0cc-f8bc1246af59, $GPGGA,000314.00,4434.6883,N,12408.3546,W,1,10,0.8,26.4,M,-22.0,M,,*65
2021-08-08 00:03:17Z, 6cda8203-a249-e411-b0cc-f8bc1246af59, $GPGGA,000316.00,4434.6866,N,12408.3560,W,1,10,0.8,24.8,M,-22.0,M,,*66
2021-08-08 00:03:18Z, 6cda8203-a249-e411-b0cc-f8bc1246af59, $GPGGA,000317.00,4434.6859,N,12408.3570,W,1,10,0.8,22.6,M,-22.0,M,,*62
2021-08-08 00:03:20Z, 6cda8203-a249-e411-b0cc-f8bc1246af59, $GPGGA,000319.00,4434.6847,N,12408.3587,W,1,10,0.8,24.4,M,-22.0,M,,*6F
2021-08-08 00:03:21Z, 6cda8203-a249-e411-b0cc-f8bc1246af59, $GPGGA,000320.00,4434.6840,N,12408.3592,W,1,10,0.8,23.6,M,-22.0,M,,*63
2021-08-08 00:03:23Z, 6cda8203-a249-e411-b0cc-f8bc1246af59, $GPGGA,000322.00,4434.6822,N,12408.3603,W,1,10,0.8,23.1,M,-22.0,M,,*69
2021-08-08 00:03:24Z, 6cda8203-a249-e411-b0cc-f8bc1246af59, $GPGGA,000323.00,4434.6814,N,12408.3611,W,1,10,0.8,21.4,M,-22.0,M,,*69
2021-08-08 00:03:26Z, 6cda8203-a249-e411-b0cc-f8bc1246af59, $GPGGA,000325.00,4434.6802,N,12408.3627,W,1,10,0.8,21.6,M,-22.0,M,,*6F
2021-08-08 00:03:27Z, 6cda8203-a249-e411-b0cc-f8bc1246af59, $GPGGA,000326.00,4434.6796,N,12408.3634,W,1,10,0.8,22.5,M,-22.0,M,,*6C
2021-08-08 00:03:29Z, 6cda8203-a249-e411-b0cc-f8bc1246af59, $GPGGA,000328.00,4434.6781,N,12408.3648,W,1,10,0.8,24.3,M,-22.0,M,,*6F
2021-08-08 00:03:30Z, 6cda8203-a249-e411-b0cc-f8bc1246af59, $GPGGA,000329.00,4434.6774,N,12408.3656,W,1,10,0.8,21.6,M,-22.0,M,,*6B
2021-08-08 00:03:32Z, 6cda8203-a249-e411-b0cc-f8bc1246af59, $GPGGA,000331.00,4434.6759,N,12408.3670,W,1,10,0.8,18.0,M,-22.0,M,,*65
2021-08-08 00:03:33Z, 6cda8203-a249-e411-b0cc-f8bc1246af59, $GPGGA,000332.00,4434.6751,N,12408.3675,W,1,10,0.8,17.5,M,-22.0,M,,*61
2021-08-08 00:03:35Z, 6cda8203-a249-e411-b0cc-f8bc1246af59, $GPGGA,000334.00,4434.6735,N,12408.3689,W,1,10,0.8,19.3,M,-22.0,M,,*6E
2021-08-08 00:03:36Z, 6cda8203-a249-e411-b0cc-f8bc1246af59, $GPGGA,000335.00,4434.6729,N,12408.3697,W,1,10,0.8,19.2,M,-22.0,M,,*6C
2021-08-08 00:03:38Z, 6cda8203-a249-e411-b0cc-f8bc1246af59, $GPGGA,000337.00,4434.6716,N,12408.3715,W,1,10,0.8,18.8,M,-22.0,M,,*62
2021-08-08 00:03:39Z, 6cda8203-a249-e411-b0cc-f8bc1246af59, $GPGGA,000338.00,4434.6708,N,12408.3723,W,1,10,0.8,18.5,M,-22.0,M,,*6A
2021-08-08 00:03:41Z, 6cda8203-a249-e411-b0cc-f8bc1246af59, $GPGGA,000340.00,4434.6694,N,12408.3736,W,1,10,0.8,23.2,M,-22.0,M,,*6A
2021-08-08 00:03:42Z, 6cda8203-a249-e411-b0cc-f8bc1246af59, $GPGGA,000341.00,4434.6687,N,12408.3743,W,1,10,0.8,22.4,M,-22.0,M,,*6C
2021-08-08 00:03:44Z, 6cda8203-a249-e411-b0cc-f8bc1246af59, $GPGGA,000343.00,4434.6673,N,12408.3757,W,1,10,0.8,23.1,M,-22.0,M,,*64
2021-08-08 00:03:45Z, 6cda8203-a249-e411-b0cc-f8bc1246af59, $GPGGA,000344.00,4434.6666,N,12408.3767,W,1,10,0.8,23.9,M,-22.0,M,,*6C
2021-08-08 00:03:47Z, 6cda8203-a249-e411-b0cc-f8bc1246af59, $GPGGA,000346.00,4434.6654,N,12408.3784,W,1,10,0.8,24.5,M,-22.0,M,,*69
2021-08-08 00:03:48Z, 6cda8203-a249-e411-b0cc-f8bc1246af59, $GPGGA,000347.00,4434.6647,N,12408.3791,W,1,10,0.8,23.7,M,-22.0,M,,*6B
2021-08-08 00:03:50Z, 6cda8203-a249-e411-b0cc-f8bc1246af59, $GPGGA,000349.00,4434.6630,N,12408.3805,W,1,10,0.8,24.3,M,-22.0,M,,*64
2021-08-08 00:03:51Z, 6cda8203-a249-e411-b0cc-f8bc1246af59, $GPGGA,000350.00,4434.6623,N,12408.3814,W,1,10,0.8,22.8,M,-22.0,M,,*63
2021-08-08 00:03:53Z, 6cda8203-a249-e411-b0cc-f8bc1246af59, $GPGGA,000352.00,4434.6609,N,12408.3829,W,1,10,0.8,21.8,M,-22.0,M,,*64
2021-08-08 00:03:54Z, 6cda8203-a249-e411-b0cc-f8bc1246af59, $GPGGA,000353.00,4434.6601,N,12408.3837,W,1,10,0.8,22.2,M,-22.0,M,,*6B
2021-08-08 00:03:56Z, 6cda8203-a249-e411-b0cc-f8bc1246af59, $GPGGA,000355.00,4434.6584,N,12408.3851,W,1,10,0.8,22.7,M,-22.0,M,,*66
2021-08-08 00:03:57Z, 6cda8203-a249-e411-b0cc-f8bc1246af59, $GPGGA,000356.00,4434.6576,N,12408.3856,W,1,10,0.8,20.9,M,-22.0,M,,*63
2021-08-08 00:03:59Z, 6cda8203-a249-e411-b0cc-f8bc1246af59, $GPGGA,000358.00,4434.6561,N,12408.3865,W,1,10,0.8,23.0,M,-22.0,M,,*61
2021-08-08 00:04:00Z, 6cda8203-a249-e411-b0cc-f8bc1246af59, $GPGGA,000359.00,4434.6554,N,12408.3869,W,1,10,0.8,21.7,M,-22.0,M,,*6F
2021-08-08 00:04:02Z, 6cda8203-a249-e411-b0cc-f8bc1246af59, $GPGGA,000401.00,4434.6538,N,12408.3883,W,1,10,0.8,21.1,M,-22.0,M,,*6D
2021-08-08 00:04:03Z, 6cda8203-a249-e411-b0cc-f8bc1246af59, $GPGGA,000402.00,4434.6530,N,12408.3890,W,1,10,0.8,21.3,M,-22.0,M,,*66
2021-08-08 00:04:05Z, 6cda8203-a249-e411-b0cc-f8bc1246af59, $GPGGA,000404.00,4434.6516,N,12408.3904,W,1,10,0.8,22.4,M,-22.0,M,,*6C
2021-08-08 00:04:06Z, 6cda8203-a249-e411-b0cc-f8bc1246af59, $GPGGA,000405.00,4434.6507,N,12408.3913,W,1,10,0.8,22.8,M,-22.0,M,,*67
2021-08-08 00:04:08Z, 6cda8203-a249-e411-b0cc-f8bc1246af59, $GPGGA,000407.00,4434.6490,N,12408.3927,W,1,10,0.8,22.5,M,-22.0,M,,*60
2021-08-08 00:04:09Z, 6cda8203-a249-e411-b0cc-f8bc1246af59, $GPGGA,000408.00,4434.6482,N,12408.3935,W,1,10,0.8,25.7,M,-22.0,M,,*6A
2021-08-08 00:04:11Z, 6cda8203-a249-e411-b0cc-f8bc1246af59, $GPGGA,000410.00,4434.6467,N,12408.3951,W,1,10,0.8,24.4,M,-22.0,M,,*68
2021-08-08 00:04:12Z, 6cda8203-a249-e411-b0cc-f8bc1246af59, $GPGGA,000411.00,4434.6459,N,12408.3959,W,1,10,0.8,24.6,M,-22.0,M,,*6E
2021-08-08 00:04:14Z, 6cda8203-a249-e411-b0cc-f8bc1246af59, $GPGGA,000413.00,4434.6441,N,12408.3976,W,1,10,0.8,25.1,M,-22.0,M,,*6E
2021-08-08 00:04:15Z, 6cda8203-a249-e411-b0cc-f8bc1246af59, $GPGGA,000414.00,4434.6433,N,12408.3984,W,1,10,0.8,23.5,M,-22.0,M,,*63
2021-08-08 00:04:17Z, 6cda8203-a249-e411-b0cc-f8bc1246af59, $GPGGA,000416.00,4434.6420,N,12408.3998,W,1,10,0.8,24.4,M,-22.0,M,,*68
2021-08-08 00:04:18Z, 6cda8203-a249-e411-b0cc-f8bc1246af59, $GPGGA,000417.00,4434.6412,N,12408.4006,W,1,10,0.8,23.6,M,-22.0,M,,*64
2021-08-08 00:04:20Z, 6cda8203-a249-e411-b0cc-f8bc1246af59, $GPGGA,000419.00,4434.6395,N,12408.4022,W,1,10,0.8,25.7,M,-22.0,M,,*63
2021-08-08 00:04:21Z, 6cda8203-a249-e411-b0cc-f8bc1246af59, $GPGGA,000420.00,4434.6387,N,12408.4028,W,1,10,0.8,23.9,M,-22.0,M,,*68
2021-08-08 00:04:21Z, 6cda8203-a249-e411-b0cc-f8bc1246af59, $GPGGA,000421.00,4434.6380,N,12408.4034,W,1,10,0.8,22.0,M,-22.0,M,,*6B
2021-08-08 00:04:23Z, 6cda8203-a249-e411-b0cc-f8bc1246af59, $GPGGA,000422.00,4434.6373,N,12408.4041,W,1,10,0.8,20.8,M,-22.0,M,,*6C
2021-08-08 00:04:24Z, 6cda8203-a249-e411-b0cc-f8bc1246af59, $GPGGA,000423.00,4434.6366,N,12408.4049,W,1,10,0.8,20.4,M,-22.0,M,,*6D
2021-08-08 00:04:26Z, 6cda8203-a249-e411-b0cc-f8bc1246af59, $GPGGA,000424.00,4434.6359,N,12408.4057,W,1,10,0.8,21.7,M,-22.0,M,,*6B
2021-08-08 00:04:26Z, 6cda8203-a249-e411-b0cc-f8bc1246af59, $GPGGA,000425.00,4434.6352,N,12408.4066,W,1,10,0.8,20.1,M,-22.0,M,,*64
2021-08-08 00:04:28Z, 6cda8203-a249-e411-b0cc-f8bc1246af59, $GPGGA,000427.00,4434.6337,N,12408.4084,W,1,10,0.8,17.8,M,-22.0,M,,*64
2021-08-08 00:04:29Z, 6cda8203-a249-e411-b0cc-f8bc1246af59, $GPGGA,000428.00,4434.6329,N,12408.4091,W,1,10,0.8,19.1,M,-22.0,M,,*67
2021-08-08 00:04:32Z, 6cda8203-a249-e411-b0cc-f8bc1246af59, $GPGGA,000430.00,4434.6312,N,12408.4104,W,1,10,0.8,17.5,M,-22.0,M,,*61
2021-08-08 00:04:33Z, 6cda8203-a249-e411-b0cc-f8bc1246af59, $GPGGA,000431.00,4434.6305,N,12408.4114,W,1,10,0.8,17.6,M,-22.0,M,,*64
2021-08-08 00:04:35Z, 6cda8203-a249-e411-b0cc-f8bc1246af59, $GPGGA,000433.00,4434.6293,N,12408.4131,W,1,10,0.8,18.4,M,-22.0,M,,*62
2021-08-08 00:04:36Z, 6cda8203-a249-e411-b0cc-f8bc1246af59, $GPGGA,000434.00,4434.6284,N,12408.4137,W,1,10,0.8,20.7,M,-22.0,M,,*6D
2021-08-08 00:04:38Z, 6cda8203-a249-e411-b0cc-f8bc1246af59, $GPGGA,000436.00,4434.6268,N,12408.4147,W,1,10,0.8,19.8,M,-22.0,M,,*6F
2021-08-08 00:04:39Z, 6cda8203-a249-e411-b0cc-f8bc1246af59, $GPGGA,000437.00,4434.6260,N,12408.4155,W,1,10,0.8,18.9,M,-22.0,M,,*65
2021-08-08 00:04:40Z, 6cda8203-a249-e411-b0cc-f8bc1246af59, $GPGGA,000439.00,4434.6247,N,12408.4173,W,1,10,0.8,22.1,M,-22.0,M,,*6B
2021-08-08 00:04:41Z, 6cda8203-a249-e411-b0cc-f8bc1246af59, $GPGGA,000440.00,4434.6239,N,12408.4178,W,1,10,0.8,22.8,M,-22.0,M,,*6E
2021-08-08 00:04:44Z, 6cda8203-a249-e411-b0cc-f8bc1246af59, $GPGGA,000442.00,4434.6221,N,12408.4188,W,1,10,0.8,23.6,M,-22.0,M,,*65
2021-08-08 00:04:45Z, 6cda8203-a249-e411-b0cc-f8bc1246af59, $GPGGA,000443.00,4434.6212,N,12408.4196,W,1,10,0.8,23.3,M,-22.0,M,,*6E
2021-08-08 00:04:47Z, 6cda8203-a249-e411-b0cc-f8bc1246af59, $GPGGA,000445.00,4434.6198,N,12408.4217,W,1,10,0.8,21.3,M,-22.0,M,,*61
2021-08-08 00:04:48Z, 6cda8203-a249-e411-b0cc-f8bc1246af59, $GPGGA,000446.00,4434.6192,N,12408.4223,W,1,10,0.8,22.9,M,-22.0,M,,*66
2021-08-08 00:04:50Z, 6cda8203-a249-e411-b0cc-f8bc1246af59, $GPGGA,000448.00,4434.6173,N,12408.4232,W,1,10,0.8,21.7,M,-22.0,M,,*6A
2021-08-08 00:04:51Z, 6cda8203-a249-e411-b0cc-f8bc1246af59, $GPGGA,000449.00,4434.6162,N,12408.4239,W,1,10,0.8,24.0,M,-22.0,M,,*62
2021-08-08 00:04:52Z, 6cda8203-a249-e411-b0cc-f8bc1246af59, $GPGGA,000451.00,4434.6147,N,12408.4256,W,1,10,0.8,22.9,M,-22.0,M,,*6A
2021-08-08 00:04:53Z, 6cda8203-a249-e411-b0cc-f8bc1246af59, $GPGGA,000452.00,4434.6141,N,12408.4263,W,1,10,0.8,23.0,M,-22.0,M,,*61
2021-08-08 00:04:55Z, 6cda8203-a249-e411-b0cc-f8bc1246af59, $GPGGA,000454.00,4434.6125,N,12408.4276,W,1,10,0.8,23.4,M,-22.0,M,,*65
2021-08-08 00:04:56Z, 6cda8203-a249-e411-b0cc-f8bc1246af59, $GPGGA,000455.00,4434.6116,N,12408.4285,W,1,10,0.8,23.7,M,-22.0,M,,*6B
2021-08-08 00:04:58Z, 6cda8203-a249-e411-b0cc-f8bc1246af59, $GPGGA,000457.00,4434.6101,N,12408.4303,W,1,10,0.8,20.4,M,-22.0,M,,*60
2021-08-08 00:04:59Z, 6cda8203-a249-e411-b0cc-f8bc1246af59, $GPGGA,000458.00,4434.6095,N,12408.4310,W,1,10,0.8,21.8,M,-22.0,M,,*6C
2021-08-08 00:05:01Z, 6cda8203-a249-e411-b0cc-f8bc1246af59, $GPGGA,000500.00,4434.6077,N,12408.4321,W,1,10,0.8,20.7,M,-22.0,M,,*60
2021-08-08 00:05:02Z, 6cda8203-a249-e411-b0cc-f8bc1246af59, $GPGGA,000501.00,4434.6067,N,12408.4328,W,1,10,0.8,21.2,M,-22.0,M,,*6D
2021-08-08 00:05:04Z, 6cda8203-a249-e411-b0cc-f8bc1246af59, $GPGGA,000503.00,4434.6053,N,12408.4349,W,1,10,0.8,17.9,M,-22.0,M,,*61
2021-08-08 00:05:05Z, 6cda8203-a249-e411-b0cc-f8bc1246af59, $GPGGA,000504.00,4434.6048,N,12408.4360,W,1,10,0.8,18.6,M,-22.0,M,,*67
2021-08-08 00:05:07Z, 6cda8203-a249-e411-b0cc-f8bc1246af59, $GPGGA,000506.00,4434.6032,N,12408.4373,W,1,10,0.8,20.5,M,-22.0,M,,*62
2021-08-08 00:05:08Z, 6cda8203-a249-e411-b0cc-f8bc1246af59, $GPGGA,000507.00,4434.6022,N,12408.4378,W,1,10,0.8,22.2,M,-22.0,M,,*6C
2021-08-08 00:05:10Z, 6cda8203-a249-e411-b0cc-f8bc1246af59, $GPGGA,000509.00,4434.6002,N,12408.4392,W,1,10,0.8,22.6,M,-22.0,M,,*60
2021-08-08 00:05:11Z, 6cda8203-a249-e411-b0cc-f8bc1246af59, $GPGGA,000510.00,4434.5996,N,12408.4400,W,1,10,0.8,20.8,M,-22.0,M,,*6F
2021-08-08 00:05:13Z, 6cda8203-a249-e411-b0cc-f8bc1246af59, $GPGGA,000512.00,4434.5983,N,12408.4418,W,1,10,0.8,24.2,M,-22.0,M,,*6E
2021-08-08 00:05:14Z, 6cda8203-a249-e411-b0cc-f8bc1246af59, $GPGGA,000513.00,4434.5975,N,12408.4425,W,1,10,0.8,25.0,M,-22.0,M,,*6B
2021-08-08 00:05:16Z, 6cda8203-a249-e411-b0cc-f8bc1246af59, $GPGGA,000515.00,4434.5958,N,12408.4434,W,1,10,0.8,21.8,M,-22.0,M,,*6E
2021-08-08 00:05:17Z, 6cda8203-a249-e411-b0cc-f8bc1246af59, $GPGGA,000516.00,4434.5950,N,12408.4437,W,1,10,0.8,20.1,M,-22.0,M,,*6E
2021-08-08 00:05:19Z, 6cda8203-a249-e411-b0cc-f8bc1246af59, $GPGGA,000518.00,4434.5932,N,12408.4448,W,1,10,0.8,22.5,M,-22.0,M,,*6A
2021-08-08 00:05:20Z, 6cda8203-a249-e411-b0cc-f8bc1246af59, $GPGGA,000519.00,4434.5925,N,12408.4458,W,1,10,0.8,19.5,M,-22.0,M,,*64
2021-08-08 00:05:22Z, 6cda8203-a249-e411-b0cc-f8bc1246af59, $GPGGA,000521.00,4434.5915,N,12408.4482,W,1,10,0.8,20.1,M,-22.0,M,,*65
2021-08-08 00:05:23Z, 6cda8203-a249-e411-b0cc-f8bc1246af59, $GPGGA,000522.00,4434.5910,N,12408.4490,W,1,10,0.8,20.4,M,-22.0,M,,*65
2021-08-08 00:05:25Z, 6cda8203-a249-e411-b0cc-f8bc1246af59, $GPGGA,000524.00,4434.5890,N,12408.4498,W,1,10,0.8,24.1,M,-22.0,M,,*63
2021-08-08 00:05:26Z, 6cda8203-a249-e411-b0cc-f8bc1246af59, $GPGGA,000525.00,4434.5880,N,12408.4502,W,1,10,0.8,22.5,M,-22.0,M,,*63
2021-08-08 00:05:28Z, 6cda8203-a249-e411-b0cc-f8bc1246af59, $GPGGA,000527.00,4434.5865,N,12408.4518,W,1,10,0.8,19.1,M,-22.0,M,,*6D
2021-08-08 00:05:29Z, 6cda8203-a249-e411-b0cc-f8bc1246af59, $GPGGA,000528.00,4434.5860,N,12408.4528,W,1,10,0.8,17.6,M,-22.0,M,,*6D
2021-08-08 00:05:31Z, 6cda8203-a249-e411-b0cc-f8bc1246af59, $GPGGA,000530.00,4434.5845,N,12408.4544,W,1,10,0.8,16.6,M,-22.0,M,,*68
2021-08-08 00:05:32Z, 6cda8203-a249-e411-b0cc-f8bc1246af59, $GPGGA,000531.00,4434.5835,N,12408.4550,W,1,10,0.8,17.6,M,-22.0,M,,*6A
2021-08-08 00:05:34Z, 6cda8203-a249-e411-b0cc-f8bc1246af59, $GPGGA,000533.00,4434.5818,N,12408.4562,W,1,10,0.8,23.4,M,-22.0,M,,*63
2021-08-08 00:05:35Z, 6cda8203-a249-e411-b0cc-f8bc1246af59, $GPGGA,000534.00,4434.5810,N,12408.4568,W,1,10,0.8,23.7,M,-22.0,M,,*65
2021-08-08 00:05:37Z, 6cda8203-a249-e411-b0cc-f8bc1246af59, $GPGGA,000536.00,4434.5796,N,12408.4584,W,1,10,0.8,21.7,M,-22.0,M,,*66
2021-08-08 00:05:38Z, 6cda8203-a249-e411-b0cc-f8bc1246af59, $GPGGA,000537.00,4434.5788,N,12408.4593,W,1,10,0.8,19.7,M,-22.0,M,,*65
2021-08-08 00:05:40Z, 6cda8203-a249-e411-b0cc-f8bc1246af59, $GPGGA,000539.00,4434.5773,N,12408.4610,W,1,10,0.8,20.8,M,-22.0,M,,*62
2021-08-08 00:05:41Z, 6cda8203-a249-e411-b0cc-f8bc1246af59, $GPGGA,000540.00,4434.5766,N,12408.4617,W,1,10,0.8,20.3,M,-22.0,M,,*64
2021-08-08 00:05:43Z, 6cda8203-a249-e411-b0cc-f8bc1246af59, $GPGGA,000542.00,4434.5750,N,12408.4630,W,1,10,0.8,23.2,M,-22.0,M,,*64
2021-08-08 00:05:44Z, 6cda8203-a249-e411-b0cc-f8bc1246af59, $GPGGA,000543.00,4434.5741,N,12408.4636,W,1,10,0.8,22.6,M,-22.0,M,,*66
2021-08-08 00:05:46Z, 6cda8203-a249-e411-b0cc-f8bc1246af59, $GPGGA,000545.00,4434.5726,N,12408.4652,W,1,10,0.8,17.9,M,-22.0,M,,*6A
2021-08-08 00:05:47Z, 6cda8203-a249-e411-b0cc-f8bc1246af59, $GPGGA,000546.00,4434.5719,N,12408.4660,W,1,10,0.8,19.5,M,-22.0,M,,*66
2021-08-08 00:05:49Z, 6cda8203-a249-e411-b0cc-f8bc1246af59, $GPGGA,000548.00,4434.5705,N,12408.4675,W,1,10,0.8,21.3,M,-22.0,M,,*6C
2021-08-08 00:05:50Z, 6cda8203-a249-e411-b0cc-f8bc1246af59, $GPGGA,000549.00,4434.5696,N,12408.4682,W,1,10,0.8,21.1,M,-22.0,M,,*6C
2021-08-08 00:05:52Z, 6cda8203-a249-e411-b0cc-f8bc1246af59, $GPGGA,000551.00,4434.5680,N,12408.4698,W,1,10,0.8,18.3,M,-22.0,M,,*61
2021-08-08 00:05:53Z, 6cda8203-a249-e411-b0cc-f8bc1246af59, $GPGGA,000552.00,4434.5674,N,12408.4705,W,1,10,0.8,19.7,M,-22.0,M,,*69
2021-08-08 00:05:55Z, 6cda8203-a249-e411-b0cc-f8bc1246af59, $GPGGA,000554.00,4434.5658,N,12408.4721,W,1,10,0.8,22.1,M,-22.0,M,,*69
2021-08-08 00:05:56Z, 6cda8203-a249-e411-b0cc-f8bc1246af59, $GPGGA,000555.00,4434.5647,N,12408.4730,W,1,10,0.8,21.6,M,-22.0,M,,*62
2021-08-08 00:05:58Z, 6cda8203-a249-e411-b0cc-f8bc1246af59, $GPGGA,000557.00,4434.5630,N,12408.4748,W,1,10,0.8,17.8,M,-22.0,M,,*64
2021-08-08 00:05:59Z, 6cda8203-a249-e411-b0cc-f8bc1246af59, $GPGGA,000558.00,4434.5624,N,12408.4756,W,1,10,0.8,20.0,M,-22.0,M,,*6D
2021-08-08 00:06:01Z, 6cda8203-a249-e411-b0cc-f8bc1246af59, $GPGGA,000600.00,4434.5609,N,12408.4769,W,1,10,0.8,22.6,M,-22.0,M,,*64
2021-08-08 00:06:02Z, 6cda8203-a249-e411-b0cc-f8bc1246af59, $GPGGA,000601.00,4434.5601,N,12408.4776,W,1,10,0.8,23.8,M,-22.0,M,,*6C
2021-08-08 00:06:04Z, 6cda8203-a249-e411-b0cc-f8bc1246af59, $GPGGA,000603.00,4434.5585,N,12408.4792,W,1,10,0.8,18.7,M,-22.0,M,,*6C
2021-08-08 00:06:05Z, 6cda8203-a249-e411-b0cc-f8bc1246af59, $GPGGA,000604.00,4434.5579,N,12408.4800,W,1,10,0.8,19.5,M,-22.0,M,,*6F
2021-08-08 00:06:07Z, 6cda8203-a249-e411-b0cc-f8bc1246af59, $GPGGA,000606.00,4434.5564,N,12408.4815,W,1,10,0.8,23.4,M,-22.0,M,,*6D
2021-08-08 00:06:08Z, 6cda8203-a249-e411-b0cc-f8bc1246af59, $GPGGA,000607.00,4434.5556,N,12408.4822,W,1,10,0.8,23.0,M,-22.0,M,,*6D
2021-08-08 00:06:10Z, 6cda8203-a249-e411-b0cc-f8bc1246af59, $GPGGA,000609.00,4434.5538,N,12408.4835,W,1,10,0.8,23.0,M,-22.0,M,,*6D
2021-08-08 00:06:11Z, 6cda8203-a249-e411-b0cc-f8bc1246af59, $GPGGA,000610.00,4434.5530,N,12408.4844,W,1,10,0.8,21.7,M,-22.0,M,,*6E
2021-08-08 00:06:13Z, 6cda8203-a249-e411-b0cc-f8bc1246af59, $GPGGA,000612.00,4434.5515,N,12408.4863,W,1,10,0.8,21.4,M,-22.0,M,,*6D
2021-08-08 00:06:14Z, 6cda8203-a249-e411-b0cc-f8bc1246af59, $GPGGA,000613.00,4434.5508,N,12408.4871,W,1,10,0.8,21.4,M,-22.0,M,,*63
2021-08-08 00:06:16Z, 6cda8203-a249-e411-b0cc-f8bc1246af59, $GPGGA,000615.00,4434.5493,N,12408.4885,W,1,10,0.8,21.6,M,-22.0,M,,*6F
2021-08-08 00:06:17Z, 6cda8203-a249-e411-b0cc-f8bc1246af59, $GPGGA,000616.00,4434.5483,N,12408.4892,W,1,10,0.8,20.2,M,-22.0,M,,*6E
2021-08-08 00:06:19Z, 6cda8203-a249-e411-b0cc-f8bc1246af59, $GPGGA,000618.00,4434.5467,N,12408.4903,W,1,10,0.8,21.1,M,-22.0,M,,*61
2021-08-08 00:06:20Z, 6cda8203-a249-e411-b0cc-f8bc1246af59, $GPGGA,000619.00,4434.5461,N,12408.4911,W,1,10,0.8,22.4,M,-22.0,M,,*63
2021-08-08 00:06:22Z, 6cda8203-a249-e411-b0cc-f8bc1246af59, $GPGGA,000621.00,4434.5448,N,12408.4928,W,1,10,0.8,20.3,M,-22.0,M,,*6C
2021-08-08 00:06:23Z, 6cda8203-a249-e411-b0cc-f8bc1246af59, $GPGGA,000622.00,4434.5440,N,12408.4936,W,1,10,0.8,21.8,M,-22.0,M,,*62
2021-08-08 00:06:25Z, 6cda8203-a249-e411-b0cc-f8bc1246af59, $GPGGA,000624.00,4434.5425,N,12408.4949,W,1,10,0.8,21.8,M,-22.0,M,,*6F
2021-08-08 00:06:26Z, 6cda8203-a249-e411-b0cc-f8bc1246af59, $GPGGA,000625.00,4434.5418,N,12408.4956,W,1,10,0.8,22.4,M,-22.0,M,,*61
2021-08-08 00:06:26Z, 6cda8203-a249-e411-b0cc-f8bc1246af59, $GPGGA,000626.00,4434.5412,N,12408.4963,W,1,10,0.8,21.7,M,-22.0,M,,*6E
2021-08-08 00:06:28Z, 6cda8203-a249-e411-b0cc-f8bc1246af59, $GPGGA,000627.00,4434.5405,N,12408.4971,W,1,10,0.8,21.0,M,-22.0,M,,*6D
2021-08-08 00:06:29Z, 6cda8203-a249-e411-b0cc-f8bc1246af59, $GPGGA,000628.00,4434.5396,N,12408.4979,W,1,10,0.8,21.3,M,-22.0,M,,*64
2021-08-08 00:06:30Z, 6cda8203-a249-e411-b0cc-f8bc1246af59, $GPGGA,000629.00,4434.5387,N,12408.4987,W,1,10,0.8,20.5,M,-22.0,M,,*63
2021-08-08 00:06:31Z, 6cda8203-a249-e411-b0cc-f8bc1246af59, $GPGGA,000630.00,4434.5379,N,12408.4994,W,1,10,0.8,18.8,M,-22.0,M,,*6E
2021-08-08 00:06:33Z, 6cda8203-a249-e411-b0cc-f8bc1246af59, $GPGGA,000632.00,4434.5366,N,12408.5011,W,1,11,0.8,18.8,M,-22.0,M,,*66
2021-08-08 00:06:34Z, 6cda8203-a249-e411-b0cc-f8bc1246af59, $GPGGA,000633.00,4434.5358,N,12408.5019,W,1,11,0.8,17.2,M,-22.0,M,,*67
2021-08-08 00:06:36Z, 6cda8203-a249-e411-b0cc-f8bc1246af59, $GPGGA,000635.00,4434.5341,N,12408.5035,W,1,11,0.8,18.2,M,-22.0,M,,*68
2021-08-08 00:06:37Z, 6cda8203-a249-e411-b0cc-f8bc1246af59, $GPGGA,000636.00,4434.5332,N,12408.5043,W,1,11,0.8,17.3,M,-22.0,M,,*60
2021-08-08 00:06:39Z, 6cda8203-a249-e411-b0cc-f8bc1246af59, $GPGGA,000638.00,4434.5316,N,12408.5059,W,1,11,0.8,17.0,M,-22.0,M,,*60
2021-08-08 00:06:40Z, 6cda8203-a249-e411-b0cc-f8bc1246af59, $GPGGA,000639.00,4434.5309,N,12408.5067,W,1,11,0.8,16.6,M,-22.0,M,,*65
2021-08-08 00:06:42Z, 6cda8203-a249-e411-b0cc-f8bc1246af59, $GPGGA,000641.00,4434.5292,N,12408.5082,W,1,11,0.8,15.6,M,-22.0,M,,*61
2021-08-08 00:06:43Z, 6cda8203-a249-e411-b0cc-f8bc1246af59, $GPGGA,000642.00,4434.5283,N,12408.5089,W,1,11,0.8,15.7,M,-22.0,M,,*68
2021-08-08 00:06:45Z, 6cda8203-a249-e411-b0cc-f8bc1246af59, $GPGGA,000644.00,4434.5266,N,12408.5105,W,1,11,0.8,19.3,M,-22.0,M,,*68
2021-08-08 00:06:46Z, 6cda8203-a249-e411-b0cc-f8bc1246af59, $GPGGA,000645.00,4434.5258,N,12408.5115,W,1,11,0.8,17.8,M,-22.0,M,,*60
2021-08-08 00:06:48Z, 6cda8203-a249-e411-b0cc-f8bc1246af59, $GPGGA,000647.00,4434.5241,N,12408.5133,W,1,11,0.8,20.5,M,-22.0,M,,*67
2021-08-08 00:06:49Z, 6cda8203-a249-e411-b0cc-f8bc1246af59, $GPGGA,000648.00,4434.5231,N,12408.5138,W,1,11,0.8,19.8,M,-22.0,M,,*63
2021-08-08 00:06:51Z, 6cda8203-a249-e411-b0cc-f8bc1246af59, $GPGGA,000650.00,4434.5214,N,12408.5153,W,1,11,0.8,19.4,M,-22.0,M,,*6C
2021-08-08 00:06:52Z, 6cda8203-a249-e411-b0cc-f8bc1246af59, $GPGGA,000651.00,4434.5206,N,12408.5163,W,1,11,0.8,19.0,M,-22.0,M,,*69
2021-08-08 00:06:54Z, 6cda8203-a249-e411-b0cc-f8bc1246af59, $GPGGA,000653.00,4434.5195,N,12408.5181,W,1,11,0.8,17.8,M,-22.0,M,,*68
2021-08-08 00:06:55Z, 6cda8203-a249-e411-b0cc-f8bc1246af59, $GPGGA,000654.00,4434.5189,N,12408.5190,W,1,11,0.8,18.1,M,-22.0,M,,*64
2021-08-08 00:06:57Z, 6cda8203-a249-e411-b0cc-f8bc1246af59, $GPGGA,000656.00,4434.5172,N,12408.5206,W,1,11,0.8,19.6,M,-22.0,M,,*68
2021-08-08 00:06:58Z, 6cda8203-a249-e411-b0cc-f8bc1246af59, $GPGGA,000657.00,4434.5162,N,12408.5214,W,1,11,0.8,21.3,M,-22.0,M,,*65
2021-08-08 00:07:00Z, 6cda8203-a249-e411-b0cc-f8bc1246af59, $GPGGA,000659.00,4434.5148,N,12408.5232,W,1,11,0.8,21.7,M,-22.0,M,,*63
2021-08-08 00:07:01Z, 6cda8203-a249-e411-b0cc-f8bc1246af59, $GPGGA,000700.00,4434.5142,N,12408.5241,W,1,11,0.8,20.3,M,-22.0,M,,*65
2021-08-08 00:07:03Z, 6cda8203-a249-e411-b0cc-f8bc1246af59, $GPGGA,000702.00,4434.5127,N,12408.5257,W,1,11,0.8,20.5,M,-22.0,M,,*65
2021-08-08 00:07:04Z, 6cda8203-a249-e411-b0cc-f8bc1246af59, $GPGGA,000703.00,4434.5119,N,12408.5264,W,1,11,0.8,20.3,M,-22.0,M,,*6F
2021-08-08 00:07:06Z, 6cda8203-a249-e411-b0cc-f8bc1246af59, $GPGGA,000705.00,4434.5104,N,12408.5278,W,1,11,0.8,19.8,M,-22.0,M,,*69
2021-08-08 00:07:07Z, 6cda8203-a249-e411-b0cc-f8bc1246af59, $GPGGA,000706.00,4434.5096,N,12408.5285,W,1,11,0.8,19.6,M,-22.0,M,,*6C
2021-08-08 00:07:09Z, 6cda8203-a249-e411-b0cc-f8bc1246af59, $GPGGA,000708.00,4434.5080,N,12408.5299,W,1,11,0.8,16.5,M,-22.0,M,,*64
2021-08-08 00:07:10Z, 6cda8203-a249-e411-b0cc-f8bc1246af59, $GPGGA,000709.00,4434.5072,N,12408.5306,W,1,11,0.8,15.6,M,-22.0,M,,*6F
2021-08-08 00:07:12Z, 6cda8203-a249-e411-b0cc-f8bc1246af59, $GPGGA,000711.00,4434.5056,N,12408.5322,W,1,11,0.8,16.1,M,-22.0,M,,*62
2021-08-08 00:07:13Z, 6cda8203-a249-e411-b0cc-f8bc1246af59, $GPGGA,000712.00,4434.5049,N,12408.5331,W,1,11,0.8,16.3,M,-22.0,M,,*6F
2021-08-08 00:07:15Z, 6cda8203-a249-e411-b0cc-f8bc1246af59, $GPGGA,000714.00,4434.5032,N,12408.5348,W,1,11,0.8,18.4,M,-22.0,M,,*62
2021-08-08 00:07:16Z, 6cda8203-a249-e411-b0cc-f8bc1246af59, $GPGGA,000715.00,4434.5024,N,12408.5356,W,1,11,0.8,18.5,M,-22.0,M,,*6A
2021-08-08 00:07:18Z, 6cda8203-a249-e411-b0cc-f8bc1246af59, $GPGGA,000717.00,4434.5008,N,12408.5374,W,1,11,0.8,16.3,M,-22.0,M,,*6E
2021-08-08 00:07:19Z, 6cda8203-a249-e411-b0cc-f8bc1246af59, $GPGGA,000718.00,4434.4999,N,12408.5383,W,1,11,0.8,16.7,M,-22.0,M,,*6D
2021-08-08 00:07:21Z, 6cda8203-a249-e411-b0cc-f8bc1246af59, $GPGGA,000720.00,4434.4979,N,12408.5401,W,1,11,0.8,21.8,M,-22.0,M,,*6E
2021-08-08 00:07:22Z, 6cda8203-a249-e411-b0cc-f8bc1246af59, $GPGGA,000721.00,4434.4971,N,12408.5409,W,1,11,0.8,20.7,M,-22.0,M,,*61
2021-08-08 00:07:24Z, 6cda8203-a249-e411-b0cc-f8bc1246af59, $GPGGA,000723.00,4434.4955,N,12408.5424,W,1,11,0.8,22.0,M,-22.0,M,,*6F
2021-08-08 00:07:25Z, 6cda8203-a249-e411-b0cc-f8bc1246af59, $GPGGA,000724.00,4434.4947,N,12408.5432,W,1,11,0.8,22.8,M,-22.0,M,,*64
2021-08-08 00:07:27Z, 6cda8203-a249-e411-b0cc-f8bc1246af59, $GPGGA,000726.00,4434.4932,N,12408.5450,W,1,11,0.8,23.7,M,-22.0,M,,*6E
2021-08-08 00:07:28Z, 6cda8203-a249-e411-b0cc-f8bc1246af59, $GPGGA,000727.00,4434.4924,N,12408.5458,W,1,11,0.8,22.8,M,-22.0,M,,*6E
2021-08-08 00:07:30Z, 6cda8203-a249-e411-b0cc-f8bc1246af59, $GPGGA,000729.00,4434.4909,N,12408.5470,W,1,11,0.8,21.6,M,-22.0,M,,*68
2021-08-08 00:07:31Z, 6cda8203-a249-e411-b0cc-f8bc1246af59, $GPGGA,000730.00,4434.4903,N,12408.5476,W,1,11,0.8,22.0,M,-22.0,M,,*69
2021-08-08 00:07:33Z, 6cda8203-a249-e411-b0cc-f8bc1246af59, $GPGGA,000732.00,4434.4886,N,12408.5490,W,1,11,0.8,21.3,M,-22.0,M,,*6F
2021-08-08 00:07:34Z, 6cda8203-a249-e411-b0cc-f8bc1246af59, $GPGGA,000733.00,4434.4878,N,12408.5496,W,1,11,0.8,20.5,M,-22.0,M,,*6E
2021-08-08 00:07:36Z, 6cda8203-a249-e411-b0cc-f8bc1246af59, $GPGGA,000735.00,4434.4866,N,12408.5512,W,1,11,0.8,17.6,M,-22.0,M,,*6D
2021-08-08 00:07:37Z, 6cda8203-a249-e411-b0cc-f8bc1246af59, $GPGGA,000736.00,4434.4859,N,12408.5520,W,1,11,0.8,16.2,M,-22.0,M,,*66
2021-08-08 00:07:39Z, 6cda8203-a249-e411-b0cc-f8bc1246af59, $GPGGA,000738.00,4434.4841,N,12408.5533,W,1,11,0.8,19.0,M,-22.0,M,,*6E
2021-08-08 00:07:40Z, 6cda8203-a249-e411-b0cc-f8bc1246af59, $GPGGA,000739.00,4434.4831,N,12408.5538,W,1,11,0.8,19.6,M,-22.0,M,,*65
2021-08-08 00:07:42Z, 6cda8203-a249-e411-b0cc-f8bc1246af59, $GPGGA,000741.00,4434.4815,N,12408.5557,W,1,11,0.8,16.8,M,-22.0,M,,*64
2021-08-08 00:07:43Z, 6cda8203-a249-e411-b0cc-f8bc1246af59, $GPGGA,000742.00,4434.4807,N,12408.5569,W,1,11,0.8,18.8,M,-22.0,M,,*67
2021-08-08 00:07:45Z, 6cda8203-a249-e411-b0cc-f8bc1246af59, $GPGGA,000744.00,4434.4791,N,12408.5585,W,1,11,0.8,17.6,M,-22.0,M,,*62
2021-08-08 00:07:46Z, 6cda8203-a249-e411-b0cc-f8bc1246af59, $GPGGA,000745.00,4434.4783,N,12408.5591,W,1,11,0.8,18.2,M,-22.0,M,,*6E
2021-08-08 00:07:48Z, 6cda8203-a249-e411-b0cc-f8bc1246af59, $GPGGA,000747.00,4434.4764,N,12408.5605,W,1,11,0.8,19.6,M,-22.0,M,,*6E
2021-08-08 00:07:49Z, 6cda8203-a249-e411-b0cc-f8bc1246af59, $GPGGA,000748.00,4434.4755,N,12408.5614,W,1,11,0.8,20.7,M,-22.0,M,,*68
2021-08-08 00:07:51Z, 6cda8203-a249-e411-b0cc-f8bc1246af59, $GPGGA,000750.00,4434.4742,N,12408.5636,W,1,11,0.8,20.1,M,-22.0,M,,*61
2021-08-08 00:07:52Z, 6cda8203-a249-e411-b0cc-f8bc1246af59, $GPGGA,000751.00,4434.4735,N,12408.5645,W,1,11,0.8,20.8,M,-22.0,M,,*6D
2021-08-08 00:07:54Z, 6cda8203-a249-e411-b0cc-f8bc1246af59, $GPGGA,000753.00,4434.4717,N,12408.5658,W,1,11,0.8,16.5,M,-22.0,M,,*6B
2021-08-08 00:07:55Z, 6cda8203-a249-e411-b0cc-f8bc1246af59, $GPGGA,000754.00,4434.4707,N,12408.5665,W,1,11,0.8,16.3,M,-22.0,M,,*65
2021-08-08 00:07:57Z, 6cda8203-a249-e411-b0cc-f8bc1246af59, $GPGGA,000756.00,4434.4691,N,12408.5682,W,1,11,0.8,19.2,M,-22.0,M,,*6E
2021-08-08 00:07:58Z, 6cda8203-a249-e411-b0cc-f8bc1246af59, $GPGGA,000757.00,4434.4684,N,12408.5690,W,1,11,0.8,17.5,M,-22.0,M,,*61
2021-08-08 00:08:00Z, 6cda8203-a249-e411-b0cc-f8bc1246af59, $GPGGA,000759.00,4434.4668,N,12408.5703,W,1,11,0.8,16.2,M,-22.0,M,,*60
2021-08-08 00:08:01Z, 6cda8203-a249-e411-b0cc-f8bc1246af59, $GPGGA,000800.00,4434.4659,N,12408.5708,W,1,11,0.8,13.7,M,-22.0,M,,*6A
2021-08-08 00:08:03Z, 6cda8203-a249-e411-b0cc-f8bc1246af59, $GPGGA,000802.00,4434.4644,N,12408.5723,W,1,11,0.8,16.4,M,-22.0,M,,*6B
2021-08-08 00:08:04Z, 6cda8203-a249-e411-b0cc-f8bc1246af59, $GPGGA,000803.00,4434.4638,N,12408.5731,W,1,11,0.8,14.4,M,-22.0,M,,*60
2021-08-08 00:08:06Z, 6cda8203-a249-e411-b0cc-f8bc1246af59, $GPGGA,000805.00,4434.4623,N,12408.5748,W,1,11,0.8,16.1,M,-22.0,M,,*65
2021-08-08 00:08:07Z, 6cda8203-a249-e411-b0cc-f8bc1246af59, $GPGGA,000806.00,4434.4614,N,12408.5756,W,1,11,0.8,16.5,M,-22.0,M,,*69
2021-08-08 00:08:09Z, 6cda8203-a249-e411-b0cc-f8bc1246af59, $GPGGA,000808.00,4434.4600,N,12408.5773,W,1,11,0.8,16.7,M,-22.0,M,,*67
2021-08-08 00:08:10Z, 6cda8203-a249-e411-b0cc-f8bc1246af59, $GPGGA,000809.00,4434.4592,N,12408.5780,W,1,11,0.8,17.2,M,-22.0,M,,*66
2021-08-08 00:08:12Z, 6cda8203-a249-e411-b0cc-f8bc1246af59, $GPGGA,000811.00,4434.4577,N,12408.5796,W,1,11,0.8,17.8,M,-22.0,M,,*69
2021-08-08 00:08:13Z, 6cda8203-a249-e411-b0cc-f8bc1246af59, $GPGGA,000812.00,4434.4568,N,12408.5803,W,1,11,0.8,19.6,M,-22.0,M,,*67
2021-08-08 00:08:15Z, 6cda8203-a249-e411-b0cc-f8bc1246af59, $GPGGA,000814.00,4434.4551,N,12408.5815,W,1,11,0.8,18.8,M,-22.0,M,,*63
2021-08-08 00:08:16Z, 6cda8203-a249-e411-b0cc-f8bc1246af59, $GPGGA,000815.00,4434.4543,N,12408.5821,W,1,11,0.8,19.1,M,-22.0,M,,*6E
2021-08-08 00:08:18Z, 6cda8203-a249-e411-b0cc-f8bc1246af59, $GPGGA,000817.00,4434.4528,N,12408.5836,W,1,11,0.8,15.7,M,-22.0,M,,*6D
2021-08-08 00:08:19Z, 6cda8203-a249-e411-b0cc-f8bc1246af59, $GPGGA,000818.00,4434.4521,N,12408.5845,W,1,11,0.8,18.5,M,-22.0,M,,*60
2021-08-08 00:08:21Z, 6cda8203-a249-e411-b0cc-f8bc1246af59, $GPGGA,000820.00,4434.4505,N,12408.5862,W,1,11,0.8,18.3,M,-22.0,M,,*6E
2021-08-08 00:08:22Z, 6cda8203-a249-e411-b0cc-f8bc1246af59, $GPGGA,000821.00,4434.4497,N,12408.5867,W,1,11,0.8,19.3,M,-22.0,M,,*61
2021-08-08 00:08:24Z, 6cda8203-a249-e411-b0cc-f8bc1246af59, $GPGGA,000823.00,4434.4480,N,12408.5878,W,1,11,0.8,18.8,M,-22.0,M,,*61
2021-08-08 00:08:25Z, 6cda8203-a249-e411-b0cc-f8bc1246af59, $GPGGA,000824.00,4434.4472,N,12408.5886,W,1,11,0.8,20.4,M,-22.0,M,,*6D
2021-08-08 00:08:27Z, 6cda8203-a249-e411-b0cc-f8bc1246af59, $GPGGA,000826.00,4434.4457,N,12408.5906,W,1,11,0.8,19.7,M,-22.0,M,,*68
2021-08-08 00:08:28Z, 6cda8203-a249-e411-b0cc-f8bc1246af59, $GPGGA,000827.00,4434.4450,N,12408.5916,W,1,11,0.8,18.6,M,-22.0,M,,*6F
2021-08-08 00:08:30Z, 6cda8203-a249-e411-b0cc-f8bc1246af59, $GPGGA,000829.00,4434.4434,N,12408.5931,W,1,11,0.8,17.0,M,-22.0,M,,*6F
2021-08-08 00:08:31Z, 6cda8203-a249-e411-b0cc-f8bc1246af59, $GPGGA,000830.00,4434.4425,N,12408.5939,W,1,11,0.8,18.8,M,-22.0,M,,*68
2021-08-08 00:08:31Z, 6cda8203-a249-e411-b0cc-f8bc1246af59, $GPGGA,000831.00,4434.4414,N,12408.5948,W,1,11,0.8,20.2,M,-22.0,M,,*6C
2021-08-08 00:08:33Z, 6cda8203-a249-e411-b0cc-f8bc1246af59, $GPGGA,000832.00,4434.4405,N,12408.5957,W,1,11,0.8,16.3,M,-22.0,M,,*65
2021-08-08 00:08:34Z, 6cda8203-a249-e411-b0cc-f8bc1246af59, $GPGGA,000833.00,4434.4397,N,12408.5967,W,1,11,0.8,15.1,M,-22.0,M,,*6A
2021-08-08 00:08:35Z, 6cda8203-a249-e411-b0cc-f8bc1246af59, $GPGGA,000834.00,4434.4389,N,12408.5976,W,1,11,0.8,18.0,M,-22.0,M,,*6E
2021-08-08 00:08:36Z, 6cda8203-a249-e411-b0cc-f8bc1246af59, $GPGGA,000835.00,4434.4381,N,12408.5985,W,1,11,0.8,17.0,M,-22.0,M,,*64
2021-08-08 00:08:38Z, 6cda8203-a249-e411-b0cc-f8bc1246af59, $GPGGA,000837.00,4434.4364,N,12408.6001,W,1,11,0.8,15.8,M,-22.0,M,,*61
2021-08-08 00:08:39Z, 6cda8203-a249-e411-b0cc-f8bc1246af59, $GPGGA,000838.00,4434.4354,N,12408.6008,W,1,11,0.8,16.8,M,-22.0,M,,*67
2021-08-08 00:08:41Z, 6cda8203-a249-e411-b0cc-f8bc1246af59, $GPGGA,000840.00,4434.4338,N,12408.6022,W,1,11,0.8,19.0,M,-22.0,M,,*6D
2021-08-08 00:08:43Z, 6cda8203-a249-e411-b0cc-f8bc1246af59, $GPGGA,000841.00,4434.4332,N,12408.6032,W,1,11,0.8,18.8,M,-22.0,M,,*6E
2021-08-08 00:08:44Z, 6cda8203-a249-e411-b0cc-f8bc1246af59, $GPGGA,000843.00,4434.4314,N,12408.6048,W,1,11,0.8,19.4,M,-22.0,M,,*68
2021-08-08 00:08:46Z, 6cda8203-a249-e411-b0cc-f8bc1246af59, $GPGGA,000844.00,4434.4303,N,12408.6055,W,1,11,0.8,21.8,M,-22.0,M,,*62
2021-08-08 00:08:47Z, 6cda8203-a249-e411-b0cc-f8bc1246af59, $GPGGA,000846.00,4434.4284,N,12408.6069,W,1,11,0.8,20.7,M,-22.0,M,,*6F
2021-08-08 00:08:49Z, 6cda8203-a249-e411-b0cc-f8bc1246af59, $GPGGA,000847.00,4434.4279,N,12408.6080,W,1,11,0.8,21.7,M,-22.0,M,,*6A
2021-08-08 00:08:50Z, 6cda8203-a249-e411-b0cc-f8bc1246af59, $GPGGA,000849.00,4434.4266,N,12408.6098,W,1,11,0.8,19.5,M,-22.0,M,,*6A
2021-08-08 00:08:51Z, 6cda8203-a249-e411-b0cc-f8bc1246af59, $GPGGA,000850.00,4434.4258,N,12408.6104,W,1,11,0.8,20.9,M,-22.0,M,,*6D
2021-08-08 00:08:53Z, 6cda8203-a249-e411-b0cc-f8bc1246af59, $GPGGA,000852.00,4434.4240,N,12408.6112,W,1,11,0.8,22.9,M,-22.0,M,,*63
2021-08-08 00:08:54Z, 6cda8203-a249-e411-b0cc-f8bc1246af59, $GPGGA,000853.00,4434.4232,N,12408.6117,W,1,11,0.8,23.8,M,-22.0,M,,*62
2021-08-08 00:08:56Z, 6cda8203-a249-e411-b0cc-f8bc1246af59, $GPGGA,000855.00,4434.4218,N,12408.6132,W,1,11,0.8,20.2,M,-22.0,M,,*62
2021-08-08 00:08:57Z, 6cda8203-a249-e411-b0cc-f8bc1246af59, $GPGGA,000856.00,4434.4210,N,12408.6140,W,1,11,0.8,21.5,M,-22.0,M,,*6A
2021-08-08 00:08:59Z, 6cda8203-a249-e411-b0cc-f8bc1246af59, $GPGGA,000858.00,4434.4194,N,12408.6153,W,1,11,0.8,21.8,M,-22.0,M,,*64
2021-08-08 00:09:00Z, 6cda8203-a249-e411-b0cc-f8bc1246af59, $GPGGA,000859.00,4434.4185,N,12408.6159,W,1,11,0.8,20.8,M,-22.0,M,,*6E
2021-08-08 00:09:02Z, 6cda8203-a249-e411-b0cc-f8bc1246af59, $GPGGA,000901.00,4434.4166,N,12408.6174,W,1,11,0.8,20.2,M,-22.0,M,,*6A
2021-08-08 00:09:03Z, 6cda8203-a249-e411-b0cc-f8bc1246af59, $GPGGA,000902.00,4434.4158,N,12408.6183,W,1,11,0.8,18.9,M,-22.0,M,,*6C
2021-08-08 00:09:05Z, 6cda8203-a249-e411-b0cc-f8bc1246af59, $GPGGA,000904.00,4434.4144,N,12408.6203,W,1,11,0.8,18.3,M,-22.0,M,,*66
2021-08-08 00:09:06Z, 6cda8203-a249-e411-b0cc-f8bc1246af59, $GPGGA,000905.00,4434.4137,N,12408.6213,W,1,11,0.8,16.2,M,-22.0,M,,*6D
2021-08-08 00:09:08Z, 6cda8203-a249-e411-b0cc-f8bc1246af59, $GPGGA,000907.00,4434.4118,N,12408.6227,W,1,11,0.8,16.7,M,-22.0,M,,*60
2021-08-08 00:09:09Z, 6cda8203-a249-e411-b0cc-f8bc1246af59, $GPGGA,000908.00,4434.4109,N,12408.6235,W,1,11,0.8,15.3,M,-22.0,M,,*6B
2021-08-08 00:09:11Z, 6cda8203-a249-e411-b0cc-f8bc1246af59, $GPGGA,000910.00,4434.4095,N,12408.6254,W,1,11,0.8,17.9,M,-22.0,M,,*69
2021-08-08 00:09:12Z, 6cda8203-a249-e411-b0cc-f8bc1246af59, $GPGGA,000911.00,4434.4087,N,12408.6262,W,1,11,0.8,17.0,M,-22.0,M,,*67
2021-08-08 00:09:14Z, 6cda8203-a249-e411-b0cc-f8bc1246af59, $GPGGA,000913.00,4434.4070,N,12408.6276,W,1,11,0.8,15.8,M,-22.0,M,,*62
2021-08-08 00:09:15Z, 6cda8203-a249-e411-b0cc-f8bc1246af59, $GPGGA,000914.00,4434.4062,N,12408.6282,W,1,11,0.8,14.5,M,-22.0,M,,*61
2021-08-08 00:09:17Z, 6cda8203-a249-e411-b0cc-f8bc1246af59, $GPGGA,000916.00,4434.4049,N,12408.6298,W,1,11,0.8,15.3,M,-22.0,M,,*66
2021-08-08 00:09:18Z, 6cda8203-a249-e411-b0cc-f8bc1246af59, $GPGGA,000917.00,4434.4042,N,12408.6308,W,1,11,0.8,16.4,M,-22.0,M,,*60
2021-08-08 00:09:20Z, 6cda8203-a249-e411-b0cc-f8bc1246af59, $GPGGA,000919.00,4434.4025,N,12408.6324,W,1,11,0.8,18.5,M,-22.0,M,,*6E
2021-08-08 00:09:21Z, 6cda8203-a249-e411-b0cc-f8bc1246af59, $GPGGA,000920.00,4434.4018,N,12408.6331,W,1,11,0.8,18.4,M,-22.0,M,,*6F
2021-08-08 00:09:23Z, 6cda8203-a249-e411-b0cc-f8bc1246af59, $GPGGA,000922.00,4434.4002,N,12408.6345,W,1,11,0.8,17.4,M,-22.0,M,,*6A
2021-08-08 00:09:24Z, 6cda8203-a249-e411-b0cc-f8bc1246af59, $GPGGA,000923.00,4434.3992,N,12408.6355,W,1,11,0.8,20.2,M,-22.0,M,,*6F
2021-08-08 00:09:26Z, 6cda8203-a249-e411-b0cc-f8bc1246af59, $GPGGA,000925.00,4434.3970,N,12408.6375,W,1,11,0.8,19.8,M,-22.0,M,,*67
2021-08-08 00:09:27Z, 6cda8203-a249-e411-b0cc-f8bc1246af59, $GPGGA,000926.00,4434.3961,N,12408.6385,W,1,11,0.8,19.9,M,-22.0,M,,*6A
2021-08-08 00:09:29Z, 6cda8203-a249-e411-b0cc-f8bc1246af59, $GPGGA,000928.00,4434.3944,N,12408.6401,W,1,11,0.8,20.2,M,-22.0,M,,*69
2021-08-08 00:09:30Z, 6cda8203-a249-e411-b0cc-f8bc1246af59, $GPGGA,000929.00,4434.3935,N,12408.6409,W,1,11,0.8,19.9,M,-22.0,M,,*67
2021-08-08 00:09:32Z, 6cda8203-a249-e411-b0cc-f8bc1246af59, $GPGGA,000931.00,4434.3915,N,12408.6423,W,1,11,0.8,21.2,M,-22.0,M,,*64
2021-08-08 00:09:33Z, 6cda8203-a249-e411-b0cc-f8bc1246af59, $GPGGA,000932.00,4434.3906,N,12408.6430,W,1,11,0.8,20.4,M,-22.0,M,,*60
2021-08-08 00:09:35Z, 6cda8203-a249-e411-b0cc-f8bc1246af59, $GPGGA,000934.00,4434.3891,N,12408.6448,W,1,11,0.8,22.5,M,-22.0,M,,*65
2021-08-08 00:09:36Z, 6cda8203-a249-e411-b0cc-f8bc1246af59, $GPGGA,000935.00,4434.3885,N,12408.6456,W,1,11,0.8,22.3,M,-22.0,M,,*68
2021-08-08 00:09:38Z, 6cda8203-a249-e411-b0cc-f8bc1246af59, $GPGGA,000937.00,4434.3869,N,12408.6473,W,1,11,0.8,21.9,M,-22.0,M,,*66
2021-08-08 00:09:39Z, 6cda8203-a249-e411-b0cc-f8bc1246af59, $GPGGA,000938.00,4434.3858,N,12408.6479,W,1,11,0.8,22.8,M,-22.0,M,,*63
2021-08-08 00:09:41Z, 6cda8203-a249-e411-b0cc-f8bc1246af59, $GPGGA,000940.00,4434.3840,N,12408.6490,W,1,11,0.8,22.1,M,-22.0,M,,*6B
2021-08-08 00:09:42Z, 6cda8203-a249-e411-b0cc-f8bc1246af59, $GPGGA,000941.00,4434.3833,N,12408.6496,W,1,11,0.8,22.6,M,-22.0,M,,*6F
2021-08-08 00:09:44Z, 6cda8203-a249-e411-b0cc-f8bc1246af59, $GPGGA,000943.00,4434.3819,N,12408.6514,W,1,11,0.8,21.2,M,-22.0,M,,*69
2021-08-08 00:09:45Z, 6cda8203-a249-e411-b0cc-f8bc1246af59, $GPGGA,000944.00,4434.3811,N,12408.6525,W,1,11,0.8,20.9,M,-22.0,M,,*6E
2021-08-08 00:09:47Z, 6cda8203-a249-e411-b0cc-f8bc1246af59, $GPGGA,000946.00,4434.3795,N,12408.6544,W,1,11,0.8,19.7,M,-22.0,M,,*6C
2021-08-08 00:09:48Z, 6cda8203-a249-e411-b0cc-f8bc1246af59, $GPGGA,000947.00,4434.3787,N,12408.6550,W,1,11,0.8,20.2,M,-22.0,M,,*64
2021-08-08 00:09:50Z, 6cda8203-a249-e411-b0cc-f8bc1246af59, $GPGGA,000949.00,4434.3767,N,12408.6561,W,1,11,0.8,23.9,M,-22.0,M,,*6E
2021-08-08 00:09:51Z, 6cda8203-a249-e411-b0cc-f8bc1246af59, $GPGGA,000950.00,4434.3756,N,12408.6569,W,1,11,0.8,25.2,M,-22.0,M,,*61
2021-08-08 00:09:53Z, 6cda8203-a249-e411-b0cc-f8bc1246af59, $GPGGA,000952.00,4434.3739,N,12408.6589,W,1,11,0.8,22.9,M,-22.0,M,,*68
2021-08-08 00:09:54Z, 6cda8203-a249-e411-b0cc-f8bc1246af59, $GPGGA,000953.00,4434.3733,N,12408.6600,W,1,11,0.8,21.8,M,-22.0,M,,*63
2021-08-08 00:09:56Z, 6cda8203-a249-e411-b0cc-f8bc1246af59, $GPGGA,000955.00,4434.3719,N,12408.6615,W,1,11,0.8,23.5,M,-22.0,M,,*66
2021-08-08 00:09:57Z, 6cda8203-a249-e411-b0cc-f8bc1246af59, $GPGGA,000956.00,4434.3709,N,12408.6621,W,1,11,0.8,23.6,M,-22.0,M,,*60
2021-08-08 00:09:59Z, 6cda8203-a249-e411-b0cc-f8bc1246af59, $GPGGA,000958.00,4434.3691,N,12408.6634,W,1,11,0.8,22.4,M,-22.0,M,,*69
2021-08-08 00:10:00Z, 6cda8203-a249-e411-b0cc-f8bc1246af59, $GPGGA,000959.00,4434.3684,N,12408.6642,W,1,11,0.8,20.2,M,-22.0,M,,*69
2021-08-08 00:10:02Z, 6cda8203-a249-e411-b0cc-f8bc1246af59, $GPGGA,001001.00,4434.3671,N,12408.6658,W,1,11,0.8,18.0,M,-22.0,M,,*64
2021-08-08 00:10:03Z, 6cda8203-a249-e411-b0cc-f8bc1246af59, $GPGGA,001002.00,4434.3663,N,12408.6666,W,1,11,0.8,18.6,M,-22.0,M,,*6F
2021-08-08 00:10:05Z, 6cda8203-a249-e411-b0cc-f8bc1246af59, $GPGGA,001004.00,4434.3645,N,12408.6680,W,1,11,0.8,19.9,M,-22.0,M,,*6B
2021-08-08 00:10:06Z, 6cda8203-a249-e411-b0cc-f8bc1246af59, $GPGGA,001005.00,4434.3637,N,12408.6686,W,1,11,0.8,21.2,M,-22.0,M,,*69
2021-08-08 00:10:08Z, 6cda8203-a249-e411-b0cc-f8bc1246af59, $GPGGA,001007.00,4434.3620,N,12408.6702,W,1,11,0.8,20.2,M,-22.0,M,,*61
2021-08-08 00:10:09Z, 6cda8203-a249-e411-b0cc-f8bc1246af59, $GPGGA,001008.00,4434.3611,N,12408.6710,W,1,11,0.8,21.6,M,-22.0,M,,*6A
2021-08-08 00:10:11Z, 6cda8203-a249-e411-b0cc-f8bc1246af59, $GPGGA,001010.00,4434.3592,N,12408.6724,W,1,11,0.8,23.2,M,-22.0,M,,*6A
2021-08-08 00:10:12Z, 6cda8203-a249-e411-b0cc-f8bc1246af59, $GPGGA,001011.00,4434.3583,N,12408.6732,W,1,11,0.8,22.3,M,-22.0,M,,*6C
2021-08-08 00:10:14Z, 6cda8203-a249-e411-b0cc-f8bc1246af59, $GPGGA,001013.00,4434.3566,N,12408.6752,W,1,11,0.8,21.8,M,-22.0,M,,*6B
2021-08-08 00:10:15Z, 6cda8203-a249-e411-b0cc-f8bc1246af59, $GPGGA,001014.00,4434.3558,N,12408.6763,W,1,11,0.8,22.4,M,-22.0,M,,*6C
2021-08-08 00:10:17Z, 6cda8203-a249-e411-b0cc-f8bc1246af59, $GPGGA,001016.00,4434.3541,N,12408.6781,W,1,11,0.8,23.9,M,-22.0,M,,*66
2021-08-08 00:10:18Z, 6cda8203-a249-e411-b0cc-f8bc1246af59, $GPGGA,001017.00,4434.3533,N,12408.6788,W,1,11,0.8,22.9,M,-22.0,M,,*6A
2021-08-08 00:10:20Z, 6cda8203-a249-e411-b0cc-f8bc1246af59, $GPGGA,001019.00,4434.3516,N,12408.6804,W,1,11,0.8,22.4,M,-22.0,M,,*65
2021-08-08 00:10:21Z, 6cda8203-a249-e411-b0cc-f8bc1246af59, $GPGGA,001020.00,4434.3509,N,12408.6811,W,1,11,0.8,24.3,M,-22.0,M,,*64
2021-08-08 00:10:23Z, 6cda8203-a249-e411-b0cc-f8bc1246af59, $GPGGA,001022.00,4434.3492,N,12408.6827,W,1,11,0.8,24.1,M,-22.0,M,,*62
2021-08-08 00:10:24Z, 6cda8203-a249-e411-b0cc-f8bc1246af59, $GPGGA,001023.00,4434.3483,N,12408.6836,W,1,11,0.8,22.9,M,-22.0,M,,*6D
2021-08-08 00:10:26Z, 6cda8203-a249-e411-b0cc-f8bc1246af59, $GPGGA,001025.00,4434.3470,N,12408.6855,W,1,11,0.8,22.0,M,-22.0,M,,*6B
2021-08-08 00:10:27Z, 6cda8203-a249-e411-b0cc-f8bc1246af59, $GPGGA,001026.00,4434.3465,N,12408.6863,W,1,11,0.8,24.0,M,-22.0,M,,*6F
2021-08-08 00:10:29Z, 6cda8203-a249-e411-b0cc-f8bc1246af59, $GPGGA,001028.00,4434.3447,N,12408.6877,W,1,11,0.8,22.6,M,-22.0,M,,*64
2021-08-08 00:10:30Z, 6cda8203-a249-e411-b0cc-f8bc1246af59, $GPGGA,001029.00,4434.3438,N,12408.6885,W,1,11,0.8,21.5,M,-22.0,M,,*60
2021-08-08 00:10:32Z, 6cda8203-a249-e411-b0cc-f8bc1246af59, $GPGGA,001031.00,4434.3424,N,12408.6902,W,1,11,0.8,18.2,M,-22.0,M,,*67
2021-08-08 00:10:33Z, 6cda8203-a249-e411-b0cc-f8bc1246af59, $GPGGA,001032.00,4434.3420,N,12408.6910,W,1,11,0.8,17.1,M,-22.0,M,,*6F
2021-08-08 00:10:35Z, 6cda8203-a249-e411-b0cc-f8bc1246af59, $GPGGA,001034.00,4434.3404,N,12408.6928,W,1,11,0.8,22.5,M,-22.0,M,,*66
2021-08-08 00:10:36Z, 6cda8203-a249-e411-b0cc-f8bc1246af59, $GPGGA,001035.00,4434.3395,N,12408.6936,W,1,11,0.8,23.5,M,-22.0,M,,*66
2021-08-08 00:10:36Z, 6cda8203-a249-e411-b0cc-f8bc1246af59, $GPGGA,001036.00,4434.3387,N,12408.6944,W,1,11,0.8,21.9,M,-22.0,M,,*6D
2021-08-08 00:10:38Z, 6cda8203-a249-e411-b0cc-f8bc1246af59, $GPGGA,001037.00,4434.3381,N,12408.6949,W,1,11,0.8,21.2,M,-22.0,M,,*6C
2021-08-08 00:10:39Z, 6cda8203-a249-e411-b0cc-f8bc1246af59, $GPGGA,001038.00,4434.3374,N,12408.6955,W,1,11,0.8,25.0,M,-22.0,M,,*62
2021-08-08 00:10:40Z, 6cda8203-a249-e411-b0cc-f8bc1246af59, $GPGGA,001039.00,4434.3366,N,12408.6963,W,1,11,0.8,21.8,M,-22.0,M,,*69
2021-08-08 00:10:41Z, 6cda8203-a249-e411-b0cc-f8bc1246af59, $GPGGA,001040.00,4434.3356,N,12408.6973,W,1,11,0.8,19.1,M,-22.0,M,,*67
2021-08-08 00:10:43Z, 6cda8203-a249-e411-b0cc-f8bc1246af59, $GPGGA,001042.00,4434.3338,N,12408.6993,W,1,11,0.8,19.3,M,-22.0,M,,*61
2021-08-08 00:10:44Z, 6cda8203-a249-e411-b0cc-f8bc1246af59, $GPGGA,001043.00,4434.3332,N,12408.6999,W,1,11,0.8,21.9,M,-22.0,M,,*61
2021-08-08 00:10:46Z, 6cda8203-a249-e411-b0cc-f8bc1246af59, $GPGGA,001045.00,4434.3317,N,12408.7008,W,1,11,0.8,20.7,M,-22.0,M,,*6F
2021-08-08 00:10:47Z, 6cda8203-a249-e411-b0cc-f8bc1246af59, $GPGGA,001046.00,4434.3308,N,12408.7016,W,1,11,0.8,22.2,M,-22.0,M,,*6A
2021-08-08 00:10:49Z, 6cda8203-a249-e411-b0cc-f8bc1246af59, $GPGGA,001048.00,4434.3289,N,12408.7034,W,1,11,0.8,20.0,M,-22.0,M,,*6C
2021-08-08 00:10:50Z, 6cda8203-a249-e411-b0cc-f8bc1246af59, $GPGGA,001049.00,4434.3282,N,12408.7044,W,1,11,0.8,20.7,M,-22.0,M,,*66
2021-08-08 00:10:52Z, 6cda8203-a249-e411-b0cc-f8bc1246af59, $GPGGA,001051.00,4434.3268,N,12408.7055,W,1,11,0.8,20.7,M,-22.0,M,,*6B
2021-08-08 00:10:53Z, 6cda8203-a249-e411-b0cc-f8bc1246af59, $GPGGA,001052.00,4434.3259,N,12408.7061,W,1,11,0.8,20.0,M,-22.0,M,,*6A
2021-08-08 00:10:55Z, 6cda8203-a249-e411-b0cc-f8bc1246af59, $GPGGA,001054.00,4434.3242,N,12408.7084,W,1,11,0.8,20.1,M,-22.0,M,,*6C
2021-08-08 00:10:56Z, 6cda8203-a249-e411-b0cc-f8bc1246af59, $GPGGA,001055.00,4434.3235,N,12408.7097,W,1,11,0.8,17.5,M,-22.0,M,,*6F
2021-08-08 00:10:58Z, 6cda8203-a249-e411-b0cc-f8bc1246af59, $GPGGA,001057.00,4434.3220,N,12408.7110,W,1,11,0.8,19.0,M,-22.0,M,,*6C
2021-08-08 00:10:59Z, 6cda8203-a249-e411-b0cc-f8bc1246af59, $GPGGA,001058.00,4434.3211,N,12408.7113,W,1,11,0.8,17.6,M,-22.0,M,,*6A
2021-08-08 00:11:01Z, 6cda8203-a249-e411-b0cc-f8bc1246af59, $GPGGA,001100.00,4434.3194,N,12408.7124,W,1,11,0.8,19.5,M,-22.0,M,,*61
2021-08-08 00:11:02Z, 6cda8203-a249-e411-b0cc-f8bc1246af59, $GPGGA,001101.00,4434.3187,N,12408.7135,W,1,11,0.8,21.3,M,-22.0,M,,*6F
2021-08-08 00:11:04Z, 6cda8203-a249-e411-b0cc-f8bc1246af59, $GPGGA,001103.00,4434.3177,N,12408.7155,W,1,11,0.8,17.5,M,-22.0,M,,*67
2021-08-08 00:11:05Z, 6cda8203-a249-e411-b0cc-f8bc1246af59, $GPGGA,001104.00,4434.3172,N,12408.7160,W,1,11,0.8,19.4,M,-22.0,M,,*6C
2021-08-08 00:11:07Z, 6cda8203-a249-e411-b0cc-f8bc1246af59, $GPGGA,001106.00,4434.3152,N,12408.7163,W,1,11,0.8,17.9,M,-22.0,M,,*6C
2021-08-08 00:11:08Z, 6cda8203-a249-e411-b0cc-f8bc1246af59, $GPGGA,001107.00,4434.3142,N,12408.7167,W,1,11,0.8,16.1,M,-22.0,M,,*61
2021-08-08 00:11:10Z, 6cda8203-a249-e411-b0cc-f8bc1246af59, $GPGGA,001109.00,4434.3129,N,12408.7186,W,1,11,0.8,17.5,M,-22.0,M,,*68
