ACQ Timestamp (Server Time in UTC), MessageID, Data Value For: GNSS-6452-$GPGGA
2021-08-18T00:00:01.0863551Z, 6cda8203-a249-e411-b0cc-f8bc1246af59, $GPGGA,000000.00,4437.5835,N,12402.8838,W,1,08,1.3,17.6,M,-21.8,M,,*63
2021-08-18T00:00:02.6166663Z, 6cda8203-a249-e411-b0cc-f8bc1246af59, $GPGGA,000001.00,4437.5834,N,12402.8836,W,1,08,1.3,17.6,M,-21.8,M,,*6D
2021-08-18T00:00:04.0866837Z, 6cda8203-a249-e411-b0cc-f8bc1246af59, $GPGGA,000003.00,4437.5831,N,12402.8828,W,1,08,1.3,17.9,M,-21.8,M,,*6A
2021-08-18T00:00:05.6170282Z, 6cda8203-a249-e411-b0cc-f8bc1246af59, $GPGGA,000004.00,4437.5833,N,12402.8826,W,1,08,1.3,18.0,M,-21.8,M,,*67
2021-08-18T00:00:07.0865954Z, 6cda8203-a249-e411-b0cc-f8bc1246af59, $GPGGA,000006.00,4437.5834,N,12402.8824,W,1,08,1.3,18.3,M,-21.8,M,,*63
2021-08-18T00:00:08.6168951Z, 6cda8203-a249-e411-b0cc-f8bc1246af59, $GPGGA,000007.00,4437.5834,N,12402.8825,W,1,08,1.3,18.4,M,-21.8,M,,*64
2021-08-18T00:00:10.0867404Z, 6cda8203-a249-e411-b0cc-f8bc1246af59, $GPGGA,000009.00,4437.5836,N,12402.8825,W,1,08,1.3,18.4,M,-21.8,M,,*68
2021-08-18T00:00:11.6170725Z, 6cda8203-a249-e411-b0cc-f8bc1246af59, $GPGGA,000010.00,4437.5836,N,12402.8826,W,1,08,1.3,18.5,M,-21.8,M,,*62
2021-08-18T00:00:13.0866392Z, 6cda8203-a249-e411-b0cc-f8bc1246af59, $GPGGA,000012.00,4437.5838,N,12402.8828,W,1,08,1.3,18.5,M,-21.8,M,,*60
2021-08-18T00:00:14.6169514Z, 6cda8203-a249-e411-b0cc-f8bc1246af59, $GPGGA,000013.00,4437.5839,N,12402.8826,W,1,08,1.3,18.6,M,-21.8,M,,*6D
2021-08-18T00:00:16.0865430Z, 6cda8203-a249-e411-b0cc-f8bc1246af59, $GPGGA,000015.00,4437.5844,N,12402.8822,W,1,08,1.3,18.7,M,-21.8,M,,*64
2021-08-18T00:00:17.6168582Z, 6cda8203-a249-e411-b0cc-f8bc1246af59, $GPGGA,000016.00,4437.5846,N,12402.8820,W,1,08,1.3,18.8,M,-21.8,M,,*68
2021-08-18T00:00:17.8468558Z, 6cda8203-a249-e411-b0cc-f8bc1246af59, $GPGGA,000017.00,4437.5847,N,12402.8818,W,1,08,1.3,18.9,M,-21.8,M,,*62
2021-08-18T00:00:19.5973768Z, 6cda8203-a249-e411-b0cc-f8bc1246af59, $GPGGA,000018.00,4437.5848,N,12402.8816,W,1,08,1.3,18.9,M,-21.8,M,,*6C
2021-08-18T00:00:20.6268796Z, 6cda8203-a249-e411-b0cc-f8bc1246af59, $GPGGA,000019.00,4437.5848,N,12402.8815,W,1,08,1.3,19.0,M,-21.8,M,,*66
2021-08-18T00:00:21.5169712Z, 6cda8203-a249-e411-b0cc-f8bc1246af59, $GPGGA,000020.00,4437.5848,N,12402.8813,W,1,08,1.3,19.1,M,-21.8,M,,*6B
2021-08-18T00:00:22.9867682Z, 6cda8203-a249-e411-b0cc-f8bc1246af59, $GPGGA,000021.00,4437.5847,N,12402.8814,W,1,08,1.3,19.0,M,-21.8,M,,*63
2021-08-18T00:00:24.2671345Z, 6cda8203-a249-e411-b0cc-f8bc1246af59, $GPGGA,000023.00,4437.5843,N,12402.8815,W,1,08,1.3,19.0,M,-21.8,M,,*64
2021-08-18T00:00:25.7477197Z, 6cda8203-a249-e411-b0cc-f8bc1246af59, $GPGGA,000024.00,4437.5843,N,12402.8813,W,1,08,1.3,18.9,M,-21.8,M,,*6D
2021-08-18T00:00:27.0868670Z, 6cda8203-a249-e411-b0cc-f8bc1246af59, $GPGGA,000026.00,4437.5845,N,12402.8810,W,1,08,1.3,18.7,M,-21.8,M,,*64
2021-08-18T00:00:28.6174108Z, 6cda8203-a249-e411-b0cc-f8bc1246af59, $GPGGA,000027.00,4437.5856,N,12402.8810,W,1,08,1.3,18.7,M,-21.8,M,,*67
2021-08-18T00:00:30.0870244Z, 6cda8203-a249-e411-b0cc-f8bc1246af59, $GPGGA,000029.00,4437.5865,N,12402.8809,W,1,08,1.3,18.8,M,-21.8,M,,*6E
2021-08-18T00:00:31.6174799Z, 6cda8203-a249-e411-b0cc-f8bc1246af59, $GPGGA,000030.00,4437.5866,N,12402.8811,W,1,08,1.3,19.0,M,-21.8,M,,*65
2021-08-18T00:00:33.0880760Z, 6cda8203-a249-e411-b0cc-f8bc1246af59, $GPGGA,000032.00,4437.5868,N,12402.8812,W,1,08,1.3,19.1,M,-21.8,M,,*6B
2021-08-18T00:00:34.6173917Z, 6cda8203-a249-e411-b0cc-f8bc1246af59, $GPGGA,000033.00,4437.5870,N,12402.8812,W,1,08,1.3,19.2,M,-21.8,M,,*60
2021-08-18T00:00:36.0879852Z, 6cda8203-a249-e411-b0cc-f8bc1246af59, $GPGGA,000035.00,4437.5866,N,12402.8810,W,1,08,1.3,19.1,M,-21.8,M,,*60
2021-08-18T00:00:37.6172699Z, 6cda8203-a249-e411-b0cc-f8bc1246af59, $GPGGA,000036.00,4437.5865,N,12402.8811,W,1,08,1.3,19.1,M,-21.8,M,,*61
2021-08-18T00:00:39.0878631Z, 6cda8203-a249-e411-b0cc-f8bc1246af59, $GPGGA,000038.00,4437.5863,N,12402.8814,W,1,08,1.3,19.0,M,-21.8,M,,*6D
2021-08-18T00:00:40.6181936Z, 6cda8203-a249-e411-b0cc-f8bc1246af59, $GPGGA,000039.00,4437.5863,N,12402.8815,W,1,08,1.3,18.9,M,-21.8,M,,*65
2021-08-18T00:00:42.0877670Z, 6cda8203-a249-e411-b0cc-f8bc1246af59, $GPGGA,000041.00,4437.5863,N,12402.8816,W,1,08,1.3,18.8,M,-21.8,M,,*68
2021-08-18T00:00:43.6180633Z, 6cda8203-a249-e411-b0cc-f8bc1246af59, $GPGGA,000042.00,4437.5863,N,12402.8818,W,1,08,1.3,18.8,M,-21.8,M,,*65
2021-08-18T00:00:45.0879056Z, 6cda8203-a249-e411-b0cc-f8bc1246af59, $GPGGA,000044.00,4437.5862,N,12402.8821,W,1,08,1.3,18.8,M,-21.8,M,,*68
2021-08-18T00:00:46.6183884Z, 6cda8203-a249-e411-b0cc-f8bc1246af59, $GPGGA,000045.00,4437.5861,N,12402.8824,W,1,08,1.3,18.7,M,-21.8,M,,*60
2021-08-18T00:00:48.0881155Z, 6cda8203-a249-e411-b0cc-f8bc1246af59, $GPGGA,000047.00,4437.5860,N,12402.8819,W,1,08,1.3,18.3,M,-21.8,M,,*69
2021-08-18T00:00:49.6184272Z, 6cda8203-a249-e411-b0cc-f8bc1246af59, $GPGGA,000048.00,4437.5853,N,12402.8820,W,1,08,1.3,18.2,M,-21.8,M,,*6D
2021-08-18T00:00:51.0885858Z, 6cda8203-a249-e411-b0cc-f8bc1246af59, $GPGGA,000050.00,4437.5852,N,12402.8822,W,1,08,1.3,18.2,M,-21.8,M,,*67
2021-08-18T00:00:52.6183578Z, 6cda8203-a249-e411-b0cc-f8bc1246af59, $GPGGA,000051.00,4437.5852,N,12402.8823,W,1,08,1.3,18.1,M,-21.8,M,,*64
2021-08-18T00:00:54.0879305Z, 6cda8203-a249-e411-b0cc-f8bc1246af59, $GPGGA,000053.00,4437.5850,N,12402.8826,W,1,08,1.3,18.1,M,-21.8,M,,*61
2021-08-18T00:00:55.6183149Z, 6cda8203-a249-e411-b0cc-f8bc1246af59, $GPGGA,000054.00,4437.5851,N,12402.8827,W,1,08,1.3,18.0,M,-21.8,M,,*67
2021-08-18T00:00:57.0888942Z, 6cda8203-a249-e411-b0cc-f8bc1246af59, $GPGGA,000056.00,4437.5854,N,12402.8840,W,1,08,1.3,17.9,M,-21.8,M,,*67
2021-08-18T00:00:58.6182293Z, 6cda8203-a249-e411-b0cc-f8bc1246af59, $GPGGA,000057.00,4437.5854,N,12402.8839,W,1,08,1.3,17.8,M,-21.8,M,,*69
2021-08-18T00:01:00.0887900Z, 6cda8203-a249-e411-b0cc-f8bc1246af59, $GPGGA,000059.00,4437.5854,N,12402.8838,W,1,08,1.3,17.8,M,-21.8,M,,*66
2021-08-18T00:01:01.6191289Z, 6cda8203-a249-e411-b0cc-f8bc1246af59, $GPGGA,000100.00,4437.5853,N,12402.8838,W,1,08,1.3,17.8,M,-21.8,M,,*6C
2021-08-18T00:01:03.0886966Z, 6cda8203-a249-e411-b0cc-f8bc1246af59, $GPGGA,000102.00,4437.5861,N,12402.8838,W,1,08,1.3,17.6,M,-21.8,M,,*61
2021-08-18T00:01:04.6191401Z, 6cda8203-a249-e411-b0cc-f8bc1246af59, $GPGGA,000103.00,4437.5864,N,12402.8840,W,1,08,1.3,17.6,M,-21.8,M,,*6A
2021-08-18T00:01:06.0887214Z, 6cda8203-a249-e411-b0cc-f8bc1246af59, $GPGGA,000105.00,4437.5870,N,12402.8852,W,1,08,1.3,17.0,M,-21.8,M,,*6C
2021-08-18T00:01:07.6192339Z, 6cda8203-a249-e411-b0cc-f8bc1246af59, $GPGGA,000106.00,4437.5871,N,12402.8858,W,1,08,1.3,16.8,M,-21.8,M,,*6D
2021-08-18T00:01:09.0888176Z, 6cda8203-a249-e411-b0cc-f8bc1246af59, $GPGGA,000108.00,4437.5873,N,12402.8864,W,1,08,1.3,16.5,M,-21.8,M,,*63
2021-08-18T00:01:10.6191368Z, 6cda8203-a249-e411-b0cc-f8bc1246af59, $GPGGA,000109.00,4437.5874,N,12402.8866,W,1,08,1.3,16.5,M,-21.8,M,,*67
2021-08-18T00:01:12.0887154Z, 6cda8203-a249-e411-b0cc-f8bc1246af59, $GPGGA,000111.00,4437.5880,N,12402.8874,W,1,08,1.3,16.3,M,-21.8,M,,*60
2021-08-18T00:01:13.6190709Z, 6cda8203-a249-e411-b0cc-f8bc1246af59, $GPGGA,000112.00,4437.5880,N,12402.8874,W,1,08,1.3,16.2,M,-21.8,M,,*62
2021-08-18T00:01:15.0887761Z, 6cda8203-a249-e411-b0cc-f8bc1246af59, $GPGGA,000114.00,4437.5879,N,12402.8874,W,1,08,1.3,16.2,M,-21.8,M,,*62
2021-08-18T00:01:16.6191134Z, 6cda8203-a249-e411-b0cc-f8bc1246af59, $GPGGA,000115.00,4437.5879,N,12402.8874,W,1,08,1.3,16.2,M,-21.8,M,,*63
2021-08-18T00:01:18.0888110Z, 6cda8203-a249-e411-b0cc-f8bc1246af59, $GPGGA,000117.00,4437.5878,N,12402.8874,W,1,08,1.3,16.1,M,-21.8,M,,*63
2021-08-18T00:01:19.6191659Z, 6cda8203-a249-e411-b0cc-f8bc1246af59, $GPGGA,000118.00,4437.5878,N,12402.8874,W,1,08,1.3,16.2,M,-21.8,M,,*6F
2021-08-18T00:01:21.0897205Z, 6cda8203-a249-e411-b0cc-f8bc1246af59, $GPGGA,000120.00,4437.5877,N,12402.8874,W,1,08,1.3,16.2,M,-21.8,M,,*6B
2021-08-18T00:01:22.6190275Z, 6cda8203-a249-e411-b0cc-f8bc1246af59, $GPGGA,000121.00,4437.5877,N,12402.8875,W,1,08,1.3,16.1,M,-21.8,M,,*68
2021-08-18T00:01:24.0898004Z, 6cda8203-a249-e411-b0cc-f8bc1246af59, $GPGGA,000123.00,4437.5877,N,12402.8875,W,1,08,1.3,16.1,M,-21.8,M,,*6A
2021-08-18T00:01:25.6194010Z, 6cda8203-a249-e411-b0cc-f8bc1246af59, $GPGGA,000124.00,4437.5877,N,12402.8875,W,1,08,1.3,16.1,M,-21.8,M,,*6D
2021-08-18T00:01:27.0899728Z, 6cda8203-a249-e411-b0cc-f8bc1246af59, $GPGGA,000126.00,4437.5877,N,12402.8875,W,1,08,1.3,16.1,M,-21.8,M,,*6F
2021-08-18T00:01:28.6197798Z, 6cda8203-a249-e411-b0cc-f8bc1246af59, $GPGGA,000127.00,4437.5877,N,12402.8875,W,1,08,1.3,16.1,M,-21.8,M,,*6E
2021-08-18T00:01:30.0893833Z, 6cda8203-a249-e411-b0cc-f8bc1246af59, $GPGGA,000129.00,4437.5877,N,12402.8874,W,1,08,1.3,16.1,M,-21.8,M,,*61
2021-08-18T00:01:31.6196793Z, 6cda8203-a249-e411-b0cc-f8bc1246af59, $GPGGA,000130.00,4437.5877,N,12402.8874,W,1,08,1.3,16.1,M,-21.8,M,,*69
2021-08-18T00:01:33.0902374Z, 6cda8203-a249-e411-b0cc-f8bc1246af59, $GPGGA,000132.00,4437.5877,N,12402.8874,W,1,08,1.3,16.0,M,-21.8,M,,*6A
2021-08-18T00:01:34.6195754Z, 6cda8203-a249-e411-b0cc-f8bc1246af59, $GPGGA,000133.00,4437.5878,N,12402.8877,W,1,08,1.3,15.9,M,-21.8,M,,*6D
2021-08-18T00:01:36.0901574Z, 6cda8203-a249-e411-b0cc-f8bc1246af59, $GPGGA,000135.00,4437.5878,N,12402.8876,W,1,08,1.3,15.8,M,-21.8,M,,*6B
2021-08-18T00:01:37.6196179Z, 6cda8203-a249-e411-b0cc-f8bc1246af59, $GPGGA,000136.00,4437.5876,N,12402.8878,W,1,08,1.3,15.7,M,-21.8,M,,*67
2021-08-18T00:01:39.0899943Z, 6cda8203-a249-e411-b0cc-f8bc1246af59, $GPGGA,000138.00,4437.5872,N,12402.8878,W,1,08,1.3,15.3,M,-21.8,M,,*69
2021-08-18T00:01:40.6204318Z, 6cda8203-a249-e411-b0cc-f8bc1246af59, $GPGGA,000139.00,4437.5871,N,12402.8879,W,1,08,1.3,15.1,M,-21.8,M,,*68
2021-08-18T00:01:42.0899997Z, 6cda8203-a249-e411-b0cc-f8bc1246af59, $GPGGA,000141.00,4437.5873,N,12402.8880,W,1,08,1.3,14.9,M,-21.8,M,,*6A
2021-08-18T00:01:43.6203367Z, 6cda8203-a249-e411-b0cc-f8bc1246af59, $GPGGA,000142.00,4437.5873,N,12402.8879,W,1,08,1.3,14.8,M,-21.8,M,,*6E
2021-08-18T00:01:45.0901227Z, 6cda8203-a249-e411-b0cc-f8bc1246af59, $GPGGA,000144.00,4437.5877,N,12402.8880,W,1,08,1.3,14.6,M,-21.8,M,,*64
2021-08-18T00:01:46.6204824Z, 6cda8203-a249-e411-b0cc-f8bc1246af59, $GPGGA,000145.00,4437.5878,N,12402.8880,W,1,08,1.3,14.5,M,-21.8,M,,*69
2021-08-18T00:01:48.0905082Z, 6cda8203-a249-e411-b0cc-f8bc1246af59, $GPGGA,000147.00,4437.5873,N,12402.8880,W,1,08,1.3,14.5,M,-21.8,M,,*60
2021-08-18T00:01:49.6208525Z, 6cda8203-a249-e411-b0cc-f8bc1246af59, $GPGGA,000148.00,4437.5871,N,12402.8882,W,1,08,1.3,14.4,M,-21.8,M,,*6E
2021-08-18T00:01:51.0904048Z, 6cda8203-a249-e411-b0cc-f8bc1246af59, $GPGGA,000150.00,4437.5870,N,12402.8887,W,1,08,1.3,14.1,M,-21.8,M,,*66
2021-08-18T00:01:52.6207412Z, 6cda8203-a249-e411-b0cc-f8bc1246af59, $GPGGA,000151.00,4437.5869,N,12402.8886,W,1,08,1.3,14.0,M,-21.8,M,,*6F
2021-08-18T00:01:54.0903044Z, 6cda8203-a249-e411-b0cc-f8bc1246af59, $GPGGA,000153.00,4437.5870,N,12402.8885,W,1,08,1.3,13.8,M,-21.8,M,,*69
2021-08-18T00:01:55.6206917Z, 6cda8203-a249-e411-b0cc-f8bc1246af59, $GPGGA,000154.00,4437.5870,N,12402.8884,W,1,08,1.3,13.7,M,-21.8,M,,*60
2021-08-18T00:01:57.0912432Z, 6cda8203-a249-e411-b0cc-f8bc1246af59, $GPGGA,000156.00,4437.5870,N,12402.8874,W,1,08,1.3,13.0,M,-21.8,M,,*6A
2021-08-18T00:01:58.6208826Z, 6cda8203-a249-e411-b0cc-f8bc1246af59, $GPGGA,000157.00,4437.5870,N,12402.8874,W,1,08,1.3,13.0,M,-21.8,M,,*6B
2021-08-18T00:02:00.0905034Z, 6cda8203-a249-e411-b0cc-f8bc1246af59, $GPGGA,000159.00,4437.5866,N,12402.8872,W,1,08,1.3,13.1,M,-21.8,M,,*65
2021-08-18T00:02:01.6208334Z, 6cda8203-a249-e411-b0cc-f8bc1246af59, $GPGGA,000200.00,4437.5865,N,12402.8869,W,1,08,1.3,13.1,M,-21.8,M,,*63
2021-08-18T00:02:03.0913717Z, 6cda8203-a249-e411-b0cc-f8bc1246af59, $GPGGA,000202.00,4437.5860,N,12402.8868,W,1,08,1.3,13.4,M,-21.8,M,,*60
2021-08-18T00:02:04.6207885Z, 6cda8203-a249-e411-b0cc-f8bc1246af59, $GPGGA,000203.00,4437.5860,N,12402.8871,W,1,08,1.3,13.6,M,-21.8,M,,*6B
2021-08-18T00:02:06.0915787Z, 6cda8203-a249-e411-b0cc-f8bc1246af59, $GPGGA,000205.00,4437.5861,N,12402.8867,W,1,08,1.3,13.5,M,-21.8,M,,*68
2021-08-18T00:02:07.6209242Z, 6cda8203-a249-e411-b0cc-f8bc1246af59, $GPGGA,000206.00,4437.5861,N,12402.8867,W,1,08,1.3,13.5,M,-21.8,M,,*6B
2021-08-18T00:02:09.0916763Z, 6cda8203-a249-e411-b0cc-f8bc1246af59, $GPGGA,000208.00,4437.5862,N,12402.8871,W,1,08,1.3,13.7,M,-21.8,M,,*63
2021-08-18T00:02:10.6209998Z, 6cda8203-a249-e411-b0cc-f8bc1246af59, $GPGGA,000209.00,4437.5862,N,12402.8870,W,1,08,1.3,13.7,M,-21.8,M,,*63
2021-08-18T00:02:12.0915536Z, 6cda8203-a249-e411-b0cc-f8bc1246af59, $GPGGA,000211.00,4437.5863,N,12402.8869,W,1,08,1.3,13.7,M,-21.8,M,,*63
2021-08-18T00:02:13.6219258Z, 6cda8203-a249-e411-b0cc-f8bc1246af59, $GPGGA,000212.00,4437.5864,N,12402.8869,W,1,08,1.3,13.7,M,-21.8,M,,*67
2021-08-18T00:02:15.0913729Z, 6cda8203-a249-e411-b0cc-f8bc1246af59, $GPGGA,000214.00,4437.5867,N,12402.8867,W,1,08,1.3,13.9,M,-21.8,M,,*62
2021-08-18T00:02:16.6217062Z, 6cda8203-a249-e411-b0cc-f8bc1246af59, $GPGGA,000215.00,4437.5867,N,12402.8866,W,1,08,1.3,14.0,M,-21.8,M,,*6C
2021-08-18T00:02:18.0912723Z, 6cda8203-a249-e411-b0cc-f8bc1246af59, $GPGGA,000217.00,4437.5869,N,12402.8863,W,1,08,1.3,14.0,M,-21.8,M,,*65
2021-08-18T00:02:19.6216603Z, 6cda8203-a249-e411-b0cc-f8bc1246af59, $GPGGA,000218.00,4437.5869,N,12402.8862,W,1,08,1.3,14.0,M,-21.8,M,,*6B
2021-08-18T00:02:21.0914767Z, 6cda8203-a249-e411-b0cc-f8bc1246af59, $GPGGA,000220.00,4437.5867,N,12402.8858,W,1,08,1.3,14.1,M,-21.8,M,,*66
2021-08-18T00:02:22.6218092Z, 6cda8203-a249-e411-b0cc-f8bc1246af59, $GPGGA,000221.00,4437.5866,N,12402.8856,W,1,08,1.3,14.2,M,-21.8,M,,*6B
2021-08-18T00:02:22.8518044Z, 6cda8203-a249-e411-b0cc-f8bc1246af59, $GPGGA,000222.00,4437.5865,N,12402.8854,W,1,08,1.3,14.2,M,-21.8,M,,*69
2021-08-18T00:02:24.6021564Z, 6cda8203-a249-e411-b0cc-f8bc1246af59, $GPGGA,000223.00,4437.5865,N,12402.8854,W,1,08,1.3,14.2,M,-21.8,M,,*68
2021-08-18T00:02:25.6415810Z, 6cda8203-a249-e411-b0cc-f8bc1246af59, $GPGGA,000224.00,4437.5865,N,12402.8853,W,1,08,1.3,14.2,M,-21.8,M,,*68
2021-08-18T00:02:26.5118025Z, 6cda8203-a249-e411-b0cc-f8bc1246af59, $GPGGA,000225.00,4437.5864,N,12402.8853,W,1,08,1.3,14.2,M,-21.8,M,,*68
2021-08-18T00:02:27.9924196Z, 6cda8203-a249-e411-b0cc-f8bc1246af59, $GPGGA,000226.00,4437.5864,N,12402.8852,W,1,08,1.3,14.2,M,-21.8,M,,*6A
2021-08-18T00:02:29.2718299Z, 6cda8203-a249-e411-b0cc-f8bc1246af59, $GPGGA,000228.00,4437.5865,N,12402.8851,W,1,08,1.3,14.2,M,-21.8,M,,*66
2021-08-18T00:02:30.7424343Z, 6cda8203-a249-e411-b0cc-f8bc1246af59, $GPGGA,000229.00,4437.5864,N,12402.8851,W,1,08,1.3,14.2,M,-21.8,M,,*66
2021-08-18T00:02:32.0924804Z, 6cda8203-a249-e411-b0cc-f8bc1246af59, $GPGGA,000231.00,4437.5865,N,12402.8851,W,1,08,1.3,14.2,M,-21.8,M,,*6E
2021-08-18T00:02:33.6218002Z, 6cda8203-a249-e411-b0cc-f8bc1246af59, $GPGGA,000232.00,4437.5865,N,12402.8850,W,1,08,1.3,14.2,M,-21.8,M,,*6C
2021-08-18T00:02:35.0917796Z, 6cda8203-a249-e411-b0cc-f8bc1246af59, $GPGGA,000234.00,4437.5867,N,12402.8849,W,1,08,1.3,14.2,M,-21.8,M,,*60
2021-08-18T00:02:36.6221735Z, 6cda8203-a249-e411-b0cc-f8bc1246af59, $GPGGA,000235.00,4437.5867,N,12402.8848,W,1,08,1.3,14.2,M,-21.8,M,,*60
2021-08-18T00:02:38.0927501Z, 6cda8203-a249-e411-b0cc-f8bc1246af59, $GPGGA,000237.00,4437.5868,N,12402.8847,W,1,08,1.3,14.3,M,-21.8,M,,*63
2021-08-18T00:02:39.6220635Z, 6cda8203-a249-e411-b0cc-f8bc1246af59, $GPGGA,000238.00,4437.5868,N,12402.8847,W,1,08,1.3,14.3,M,-21.8,M,,*6C
2021-08-18T00:02:41.0926532Z, 6cda8203-a249-e411-b0cc-f8bc1246af59, $GPGGA,000240.00,4437.5870,N,12402.8847,W,1,08,1.3,14.4,M,-21.8,M,,*6D
2021-08-18T00:02:42.6222398Z, 6cda8203-a249-e411-b0cc-f8bc1246af59, $GPGGA,000241.00,4437.5870,N,12402.8847,W,1,08,1.3,14.4,M,-21.8,M,,*6C
2021-08-18T00:02:44.0928676Z, 6cda8203-a249-e411-b0cc-f8bc1246af59, $GPGGA,000243.00,4437.5871,N,12402.8847,W,1,08,1.3,14.5,M,-21.8,M,,*6E
2021-08-18T00:02:45.6224252Z, 6cda8203-a249-e411-b0cc-f8bc1246af59, $GPGGA,000244.00,4437.5871,N,12402.8848,W,1,08,1.3,14.6,M,-21.8,M,,*65
2021-08-18T00:02:47.0930254Z, 6cda8203-a249-e411-b0cc-f8bc1246af59, $GPGGA,000246.00,4437.5872,N,12402.8848,W,1,08,1.3,14.6,M,-21.8,M,,*64
2021-08-18T00:02:48.6223237Z, 6cda8203-a249-e411-b0cc-f8bc1246af59, $GPGGA,000247.00,4437.5872,N,12402.8848,W,1,08,1.3,14.6,M,-21.8,M,,*65
2021-08-18T00:02:50.0929722Z, 6cda8203-a249-e411-b0cc-f8bc1246af59, $GPGGA,000249.00,4437.5872,N,12402.8849,W,1,08,1.3,14.7,M,-21.8,M,,*6B
2021-08-18T00:02:51.6224073Z, 6cda8203-a249-e411-b0cc-f8bc1246af59, $GPGGA,000250.00,4437.5873,N,12402.8851,W,1,08,1.3,14.7,M,-21.8,M,,*6B
2021-08-18T00:02:53.0930007Z, 6cda8203-a249-e411-b0cc-f8bc1246af59, $GPGGA,000252.00,4437.5874,N,12402.8852,W,1,08,1.3,14.8,M,-21.8,M,,*62
2021-08-18T00:02:54.6233009Z, 6cda8203-a249-e411-b0cc-f8bc1246af59, $GPGGA,000253.00,4437.5874,N,12402.8853,W,1,08,1.3,14.8,M,-21.8,M,,*62
2021-08-18T00:02:56.0932547Z, 6cda8203-a249-e411-b0cc-f8bc1246af59, $GPGGA,000255.00,4437.5876,N,12402.8855,W,1,08,1.3,14.9,M,-21.8,M,,*61
2021-08-18T00:02:57.6227069Z, 6cda8203-a249-e411-b0cc-f8bc1246af59, $GPGGA,000256.00,4437.5877,N,12402.8855,W,1,08,1.3,15.0,M,-21.8,M,,*6B
2021-08-18T00:02:59.0932962Z, 6cda8203-a249-e411-b0cc-f8bc1246af59, $GPGGA,000258.00,4437.5878,N,12402.8857,W,1,08,1.3,15.1,M,-21.8,M,,*69
2021-08-18T00:03:00.6235990Z, 6cda8203-a249-e411-b0cc-f8bc1246af59, $GPGGA,000259.00,4437.5879,N,12402.8857,W,1,08,1.3,15.0,M,-21.8,M,,*68
2021-08-18T00:03:02.0932387Z, 6cda8203-a249-e411-b0cc-f8bc1246af59, $GPGGA,000301.00,4437.5879,N,12402.8858,W,1,08,1.3,15.0,M,-21.8,M,,*6B
2021-08-18T00:03:03.6237610Z, 6cda8203-a249-e411-b0cc-f8bc1246af59, $GPGGA,000302.00,4437.5879,N,12402.8858,W,1,08,1.3,15.1,M,-21.8,M,,*69
2021-08-18T00:03:05.0934900Z, 6cda8203-a249-e411-b0cc-f8bc1246af59, $GPGGA,000304.00,4437.5879,N,12402.8858,W,1,08,1.3,15.1,M,-21.8,M,,*6F
2021-08-18T00:03:06.6237994Z, 6cda8203-a249-e411-b0cc-f8bc1246af59, $GPGGA,000305.00,4437.5879,N,12402.8858,W,1,08,1.3,15.1,M,-21.8,M,,*6E
2021-08-18T00:03:08.0933789Z, 6cda8203-a249-e411-b0cc-f8bc1246af59, $GPGGA,000307.00,4437.5879,N,12402.8858,W,1,08,1.3,15.1,M,-21.8,M,,*6C
2021-08-18T00:03:09.6236972Z, 6cda8203-a249-e411-b0cc-f8bc1246af59, $GPGGA,000308.00,4437.5879,N,12402.8858,W,1,08,1.3,15.1,M,-21.8,M,,*63
2021-08-18T00:03:11.0933012Z, 6cda8203-a249-e411-b0cc-f8bc1246af59, $GPGGA,000310.00,4437.5881,N,12402.8861,W,1,08,1.3,15.5,M,-21.8,M,,*63
2021-08-18T00:03:12.6238702Z, 6cda8203-a249-e411-b0cc-f8bc1246af59, $GPGGA,000311.00,4437.5876,N,12402.8862,W,1,08,1.3,15.6,M,-21.8,M,,*6A
2021-08-18T00:03:14.0939075Z, 6cda8203-a249-e411-b0cc-f8bc1246af59, $GPGGA,000313.00,4437.5874,N,12402.8866,W,1,08,1.3,16.0,M,-21.8,M,,*6B
2021-08-18T00:03:15.6242420Z, 6cda8203-a249-e411-b0cc-f8bc1246af59, $GPGGA,000314.00,4437.5871,N,12402.8871,W,1,08,1.3,16.6,M,-21.8,M,,*69
2021-08-18T00:03:17.0938302Z, 6cda8203-a249-e411-b0cc-f8bc1246af59, $GPGGA,000316.00,4437.5871,N,12402.8874,W,1,08,1.3,16.3,M,-21.8,M,,*6B
2021-08-18T00:03:18.6242953Z, 6cda8203-a249-e411-b0cc-f8bc1246af59, $GPGGA,000317.00,4437.5871,N,12402.8876,W,1,08,1.3,16.0,M,-21.8,M,,*6B
2021-08-18T00:03:20.0938818Z, 6cda8203-a249-e411-b0cc-f8bc1246af59, $GPGGA,000319.00,4437.5870,N,12402.8878,W,1,08,1.3,15.7,M,-21.8,M,,*6E
2021-08-18T00:03:21.6242079Z, 6cda8203-a249-e411-b0cc-f8bc1246af59, $GPGGA,000320.00,4437.5871,N,12402.8880,W,1,08,1.3,15.5,M,-21.8,M,,*60
2021-08-18T00:03:23.0938075Z, 6cda8203-a249-e411-b0cc-f8bc1246af59, $GPGGA,000322.00,4437.5873,N,12402.8884,W,1,08,1.3,15.1,M,-21.8,M,,*60
2021-08-18T00:03:24.6241221Z, 6cda8203-a249-e411-b0cc-f8bc1246af59, $GPGGA,000323.00,4437.5871,N,12402.8883,W,1,08,1.3,15.0,M,-21.8,M,,*65
2021-08-18T00:03:26.0947168Z, 6cda8203-a249-e411-b0cc-f8bc1246af59, $GPGGA,000325.00,4437.5871,N,12402.8882,W,1,08,1.3,14.6,M,-21.8,M,,*65
2021-08-18T00:03:27.6241554Z, 6cda8203-a249-e411-b0cc-f8bc1246af59, $GPGGA,000326.00,4437.5870,N,12402.8880,W,1,08,1.3,14.6,M,-21.8,M,,*65
2021-08-18T00:03:29.0947154Z, 6cda8203-a249-e411-b0cc-f8bc1246af59, $GPGGA,000328.00,4437.5867,N,12402.8876,W,1,08,1.3,14.5,M,-21.8,M,,*67
2021-08-18T00:03:30.6240364Z, 6cda8203-a249-e411-b0cc-f8bc1246af59, $GPGGA,000329.00,4437.5866,N,12402.8874,W,1,08,1.3,14.5,M,-21.8,M,,*65
2021-08-18T00:03:32.0946440Z, 6cda8203-a249-e411-b0cc-f8bc1246af59, $GPGGA,000331.00,4437.5864,N,12402.8871,W,1,08,1.3,14.3,M,-21.8,M,,*6D
2021-08-18T00:03:33.6245176Z, 6cda8203-a249-e411-b0cc-f8bc1246af59, $GPGGA,000332.00,4437.5865,N,12402.8872,W,1,08,1.3,14.4,M,-21.8,M,,*6B
2021-08-18T00:03:35.0941598Z, 6cda8203-a249-e411-b0cc-f8bc1246af59, $GPGGA,000334.00,4437.5865,N,12402.8871,W,1,08,1.3,14.3,M,-21.8,M,,*69
2021-08-18T00:03:36.6247148Z, 6cda8203-a249-e411-b0cc-f8bc1246af59, $GPGGA,000335.00,4437.5863,N,12402.8869,W,1,08,1.3,14.2,M,-21.8,M,,*66
2021-08-18T00:03:38.0947859Z, 6cda8203-a249-e411-b0cc-f8bc1246af59, $GPGGA,000337.00,4437.5862,N,12402.8862,W,1,08,1.3,14.3,M,-21.8,M,,*6F
2021-08-18T00:03:39.6152056Z, 6cda8203-a249-e411-b0cc-f8bc1246af59, $GPGGA,000338.00,4437.5860,N,12402.8858,W,1,08,1.3,14.6,M,-21.8,M,,*6E
2021-08-18T00:03:41.0946817Z, 6cda8203-a249-e411-b0cc-f8bc1246af59, $GPGGA,000340.00,4437.5859,N,12402.8856,W,1,08,1.3,14.9,M,-21.8,M,,*6A
2021-08-18T00:03:42.6249937Z, 6cda8203-a249-e411-b0cc-f8bc1246af59, $GPGGA,000341.00,4437.5858,N,12402.8856,W,1,08,1.3,14.9,M,-21.8,M,,*6A
2021-08-18T00:03:44.0946670Z, 6cda8203-a249-e411-b0cc-f8bc1246af59, $GPGGA,000343.00,4437.5857,N,12402.8855,W,1,08,1.3,15.0,M,-21.8,M,,*6C
2021-08-18T00:03:45.6249954Z, 6cda8203-a249-e411-b0cc-f8bc1246af59, $GPGGA,000344.00,4437.5856,N,12402.8855,W,1,08,1.3,15.0,M,-21.8,M,,*6A
2021-08-18T00:03:47.0946194Z, 6cda8203-a249-e411-b0cc-f8bc1246af59, $GPGGA,000346.00,4437.5856,N,12402.8855,W,1,08,1.3,15.1,M,-21.8,M,,*69
2021-08-18T00:03:48.6249355Z, 6cda8203-a249-e411-b0cc-f8bc1246af59, $GPGGA,000347.00,4437.5855,N,12402.8854,W,1,08,1.3,15.1,M,-21.8,M,,*6A
2021-08-18T00:03:50.0955110Z, 6cda8203-a249-e411-b0cc-f8bc1246af59, $GPGGA,000349.00,4437.5855,N,12402.8858,W,1,08,1.3,15.3,M,-21.8,M,,*6A
2021-08-18T00:03:51.6248478Z, 6cda8203-a249-e411-b0cc-f8bc1246af59, $GPGGA,000350.00,4437.5855,N,12402.8857,W,1,08,1.3,15.5,M,-21.8,M,,*6B
2021-08-18T00:03:53.0954136Z, 6cda8203-a249-e411-b0cc-f8bc1246af59, $GPGGA,000352.00,4437.5854,N,12402.8857,W,1,08,1.3,15.7,M,-21.8,M,,*6A
2021-08-18T00:03:54.6158104Z, 6cda8203-a249-e411-b0cc-f8bc1246af59, $GPGGA,000353.00,4437.5854,N,12402.8857,W,1,08,1.3,15.7,M,-21.8,M,,*6B
2021-08-18T00:03:56.0953060Z, 6cda8203-a249-e411-b0cc-f8bc1246af59, $GPGGA,000355.00,4437.5853,N,12402.8857,W,1,08,1.3,15.7,M,-21.8,M,,*6A
2021-08-18T00:03:57.6157012Z, 6cda8203-a249-e411-b0cc-f8bc1246af59, $GPGGA,000356.00,4437.5853,N,12402.8857,W,1,08,1.3,15.8,M,-21.8,M,,*66
2021-08-18T00:03:59.0952131Z, 6cda8203-a249-e411-b0cc-f8bc1246af59, $GPGGA,000358.00,4437.5857,N,12402.8858,W,1,08,1.3,15.8,M,-21.8,M,,*63
2021-08-18T00:04:00.6156112Z, 6cda8203-a249-e411-b0cc-f8bc1246af59, $GPGGA,000359.00,4437.5858,N,12402.8857,W,1,08,1.3,15.8,M,-21.8,M,,*62
2021-08-18T00:04:02.0951062Z, 6cda8203-a249-e411-b0cc-f8bc1246af59, $GPGGA,000401.00,4437.5862,N,12402.8856,W,1,08,1.3,15.9,M,-21.8,M,,*61
2021-08-18T00:04:03.6254538Z, 6cda8203-a249-e411-b0cc-f8bc1246af59, $GPGGA,000402.00,4437.5860,N,12402.8859,W,1,08,1.3,15.9,M,-21.8,M,,*6F
2021-08-18T00:04:05.0959977Z, 6cda8203-a249-e411-b0cc-f8bc1246af59, $GPGGA,000404.00,4437.5861,N,12402.8866,W,1,08,1.3,16.3,M,-21.8,M,,*6D
2021-08-18T00:04:06.6253406Z, 6cda8203-a249-e411-b0cc-f8bc1246af59, $GPGGA,000405.00,4437.5859,N,12402.8868,W,1,08,1.3,16.4,M,-21.8,M,,*6E
2021-08-18T00:04:08.0959026Z, 6cda8203-a249-e411-b0cc-f8bc1246af59, $GPGGA,000407.00,4437.5861,N,12402.8874,W,1,08,1.3,16.2,M,-21.8,M,,*6C
2021-08-18T00:04:09.6162871Z, 6cda8203-a249-e411-b0cc-f8bc1246af59, $GPGGA,000408.00,4437.5863,N,12402.8876,W,1,08,1.3,16.0,M,-21.8,M,,*61
2021-08-18T00:04:11.0957908Z, 6cda8203-a249-e411-b0cc-f8bc1246af59, $GPGGA,000410.00,4437.5867,N,12402.8886,W,1,09,0.8,16.5,M,-21.8,M,,*6D
2021-08-18T00:04:12.6161871Z, 6cda8203-a249-e411-b0cc-f8bc1246af59, $GPGGA,000411.00,4437.5867,N,12402.8887,W,1,09,0.8,16.6,M,-21.8,M,,*6E
2021-08-18T00:04:14.0956986Z, 6cda8203-a249-e411-b0cc-f8bc1246af59, $GPGGA,000413.00,4437.5867,N,12402.8888,W,1,09,0.8,17.0,M,-21.8,M,,*64
2021-08-18T00:04:15.6160672Z, 6cda8203-a249-e411-b0cc-f8bc1246af59, $GPGGA,000414.00,4437.5865,N,12402.8889,W,1,09,0.8,17.3,M,-21.8,M,,*63
2021-08-18T00:04:17.0966002Z, 6cda8203-a249-e411-b0cc-f8bc1246af59, $GPGGA,000416.00,4437.5867,N,12402.8885,W,1,09,0.8,16.8,M,-21.8,M,,*65
2021-08-18T00:04:18.6259026Z, 6cda8203-a249-e411-b0cc-f8bc1246af59, $GPGGA,000417.00,4437.5866,N,12402.8882,W,1,09,0.8,16.8,M,-21.8,M,,*62
2021-08-18T00:04:20.0883227Z, 6cda8203-a249-e411-b0cc-f8bc1246af59, $GPGGA,000419.00,4437.5864,N,12402.8878,W,1,09,0.8,16.9,M,-21.8,M,,*6A
2021-08-18T00:04:21.6268135Z, 6cda8203-a249-e411-b0cc-f8bc1246af59, $GPGGA,000420.00,4437.5861,N,12402.8879,W,1,09,0.8,17.5,M,-21.8,M,,*69
2021-08-18T00:04:23.0964030Z, 6cda8203-a249-e411-b0cc-f8bc1246af59, $GPGGA,000422.00,4437.5860,N,12402.8877,W,1,09,0.8,17.9,M,-21.8,M,,*68
2021-08-18T00:04:24.6266944Z, 6cda8203-a249-e411-b0cc-f8bc1246af59, $GPGGA,000423.00,4437.5859,N,12402.8878,W,1,09,0.8,17.9,M,-21.8,M,,*6C
2021-08-18T00:04:26.0962964Z, 6cda8203-a249-e411-b0cc-f8bc1246af59, $GPGGA,000425.00,4437.5859,N,12402.8878,W,1,09,0.8,18.0,M,-21.8,M,,*6C
2021-08-18T00:04:27.6266125Z, 6cda8203-a249-e411-b0cc-f8bc1246af59, $GPGGA,000426.00,4437.5858,N,12402.8877,W,1,09,0.8,18.0,M,-21.8,M,,*61
2021-08-18T00:04:28.1463614Z, 6cda8203-a249-e411-b0cc-f8bc1246af59, $GPGGA,000427.00,4437.5858,N,12402.8877,W,1,09,0.8,18.0,M,-21.8,M,,*60
2021-08-18T00:04:29.5164181Z, 6cda8203-a249-e411-b0cc-f8bc1246af59, $GPGGA,000428.00,4437.5858,N,12402.8877,W,1,09,0.8,18.0,M,-21.8,M,,*6F
2021-08-18T00:04:30.8963308Z, 6cda8203-a249-e411-b0cc-f8bc1246af59, $GPGGA,000429.00,4437.5858,N,12402.8877,W,1,09,0.8,18.0,M,-21.8,M,,*6E
2021-08-18T00:04:31.4369473Z, 6cda8203-a249-e411-b0cc-f8bc1246af59, $GPGGA,000430.00,4437.5860,N,12402.8878,W,1,09,0.8,18.4,M,-21.8,M,,*66
2021-08-18T00:04:32.9065571Z, 6cda8203-a249-e411-b0cc-f8bc1246af59, $GPGGA,000431.00,4437.5860,N,12402.8876,W,1,09,0.8,18.6,M,-21.8,M,,*6B
2021-08-18T00:04:34.1869599Z, 6cda8203-a249-e411-b0cc-f8bc1246af59, $GPGGA,000433.00,4437.5860,N,12402.8880,W,1,09,0.8,19.0,M,-21.8,M,,*67
2021-08-18T00:04:35.6665076Z, 6cda8203-a249-e411-b0cc-f8bc1246af59, $GPGGA,000434.00,4437.5860,N,12402.8881,W,1,09,0.8,19.3,M,-21.8,M,,*62
2021-08-18T00:04:37.0972347Z, 6cda8203-a249-e411-b0cc-f8bc1246af59, $GPGGA,000436.00,4437.5859,N,12402.8887,W,1,09,0.8,20.1,M,-21.8,M,,*64
2021-08-18T00:04:38.6265747Z, 6cda8203-a249-e411-b0cc-f8bc1246af59, $GPGGA,000437.00,4437.5858,N,12402.8890,W,1,09,0.8,20.3,M,-21.8,M,,*60
2021-08-18T00:04:40.0971291Z, 6cda8203-a249-e411-b0cc-f8bc1246af59, $GPGGA,000439.00,4437.5860,N,12402.8894,W,1,09,0.8,20.4,M,-21.8,M,,*66
2021-08-18T00:04:41.6175071Z, 6cda8203-a249-e411-b0cc-f8bc1246af59, $GPGGA,000440.00,4437.5862,N,12402.8896,W,1,09,0.8,20.4,M,-21.8,M,,*68
2021-08-18T00:04:43.0970352Z, 6cda8203-a249-e411-b0cc-f8bc1246af59, $GPGGA,000442.00,4437.5865,N,12402.8897,W,1,09,0.8,20.3,M,-21.8,M,,*6B
2021-08-18T00:04:44.6174410Z, 6cda8203-a249-e411-b0cc-f8bc1246af59, $GPGGA,000443.00,4437.5867,N,12402.8898,W,1,09,0.8,20.5,M,-21.8,M,,*61
2021-08-18T00:04:46.0982784Z, 6cda8203-a249-e411-b0cc-f8bc1246af59, $GPGGA,000445.00,4437.5867,N,12402.8898,W,1,09,0.8,20.8,M,-21.8,M,,*6A
2021-08-18T00:04:47.6173050Z, 6cda8203-a249-e411-b0cc-f8bc1246af59, $GPGGA,000446.00,4437.5867,N,12402.8899,W,1,09,0.8,21.1,M,-21.8,M,,*60
2021-08-18T00:04:49.0878993Z, 6cda8203-a249-e411-b0cc-f8bc1246af59, $GPGGA,000448.00,4437.5867,N,12402.8898,W,1,09,0.8,21.5,M,-21.8,M,,*6B
2021-08-18T00:04:50.6172040Z, 6cda8203-a249-e411-b0cc-f8bc1246af59, $GPGGA,000449.00,4437.5867,N,12402.8897,W,1,09,0.8,21.5,M,-21.8,M,,*65
2021-08-18T00:04:52.0977115Z, 6cda8203-a249-e411-b0cc-f8bc1246af59, $GPGGA,000451.00,4437.5867,N,12402.8899,W,1,09,0.8,21.8,M,-21.8,M,,*6F
2021-08-18T00:04:53.6171093Z, 6cda8203-a249-e411-b0cc-f8bc1246af59, $GPGGA,000452.00,4437.5868,N,12402.8901,W,1,09,0.8,21.7,M,-21.8,M,,*6C
2021-08-18T00:04:55.0976111Z, 6cda8203-a249-e411-b0cc-f8bc1246af59, $GPGGA,000454.00,4437.5870,N,12402.8903,W,1,09,0.8,21.4,M,-21.8,M,,*62
2021-08-18T00:04:56.6179899Z, 6cda8203-a249-e411-b0cc-f8bc1246af59, $GPGGA,000455.00,4437.5871,N,12402.8902,W,1,09,0.8,21.3,M,-21.8,M,,*64
2021-08-18T00:04:58.0975123Z, 6cda8203-a249-e411-b0cc-f8bc1246af59, $GPGGA,000457.00,4437.5874,N,12402.8903,W,1,09,0.8,21.2,M,-21.8,M,,*63
2021-08-18T00:04:59.6179105Z, 6cda8203-a249-e411-b0cc-f8bc1246af59, $GPGGA,000458.00,4437.5876,N,12402.8902,W,1,09,0.8,21.1,M,-21.8,M,,*6C
2021-08-18T00:05:01.0974038Z, 6cda8203-a249-e411-b0cc-f8bc1246af59, $GPGGA,000500.00,4437.5887,N,12402.8893,W,1,09,0.8,20.9,M,-21.8,M,,*6E
2021-08-18T00:05:02.6178070Z, 6cda8203-a249-e411-b0cc-f8bc1246af59, $GPGGA,000501.00,4437.5888,N,12402.8891,W,1,09,0.8,20.9,M,-21.8,M,,*62
2021-08-18T00:05:04.0883655Z, 6cda8203-a249-e411-b0cc-f8bc1246af59, $GPGGA,000503.00,4437.5893,N,12402.8893,W,1,09,0.8,21.1,M,-21.8,M,,*61
2021-08-18T00:05:05.6177007Z, 6cda8203-a249-e411-b0cc-f8bc1246af59, $GPGGA,000504.00,4437.5893,N,12402.8892,W,1,09,0.8,21.1,M,-21.8,M,,*67
2021-08-18T00:05:07.0981959Z, 6cda8203-a249-e411-b0cc-f8bc1246af59, $GPGGA,000506.00,4437.5889,N,12402.8892,W,1,09,0.8,21.1,M,-21.8,M,,*6E
2021-08-18T00:05:08.6185952Z, 6cda8203-a249-e411-b0cc-f8bc1246af59, $GPGGA,000507.00,4437.5890,N,12402.8893,W,1,09,0.8,21.0,M,-21.8,M,,*67
2021-08-18T00:05:10.0980903Z, 6cda8203-a249-e411-b0cc-f8bc1246af59, $GPGGA,000509.00,4437.5891,N,12402.8892,W,1,09,0.8,21.2,M,-21.8,M,,*6B
2021-08-18T00:05:11.6184833Z, 6cda8203-a249-e411-b0cc-f8bc1246af59, $GPGGA,000510.00,4437.5889,N,12402.8895,W,1,09,0.8,21.1,M,-21.8,M,,*6E
2021-08-18T00:05:13.0979901Z, 6cda8203-a249-e411-b0cc-f8bc1246af59, $GPGGA,000512.00,4437.5888,N,12402.8899,W,1,09,0.8,20.6,M,-21.8,M,,*67
2021-08-18T00:05:14.6183702Z, 6cda8203-a249-e411-b0cc-f8bc1246af59, $GPGGA,000513.00,4437.5889,N,12402.8902,W,1,09,0.8,20.4,M,-21.8,M,,*66
2021-08-18T00:05:16.0989021Z, 6cda8203-a249-e411-b0cc-f8bc1246af59, $GPGGA,000515.00,4437.5889,N,12402.8904,W,1,09,0.8,20.2,M,-21.8,M,,*60
2021-08-18T00:05:17.6182914Z, 6cda8203-a249-e411-b0cc-f8bc1246af59, $GPGGA,000516.00,4437.5888,N,12402.8905,W,1,09,0.8,20.1,M,-21.8,M,,*60
2021-08-18T00:05:19.0888466Z, 6cda8203-a249-e411-b0cc-f8bc1246af59, $GPGGA,000518.00,4437.5889,N,12402.8899,W,1,09,0.8,20.3,M,-21.8,M,,*69
2021-08-18T00:05:20.6181650Z, 6cda8203-a249-e411-b0cc-f8bc1246af59, $GPGGA,000519.00,4437.5890,N,12402.8901,W,1,09,0.8,20.4,M,-21.8,M,,*67
2021-08-18T00:05:22.0986775Z, 6cda8203-a249-e411-b0cc-f8bc1246af59, $GPGGA,000521.00,4437.5891,N,12402.8902,W,1,09,0.8,20.4,M,-21.8,M,,*6E
2021-08-18T00:05:23.6190833Z, 6cda8203-a249-e411-b0cc-f8bc1246af59, $GPGGA,000522.00,4437.5892,N,12402.8904,W,1,09,0.8,20.3,M,-21.8,M,,*6F
2021-08-18T00:05:25.0985756Z, 6cda8203-a249-e411-b0cc-f8bc1246af59, $GPGGA,000524.00,4437.5892,N,12402.8903,W,1,09,0.8,20.1,M,-21.8,M,,*6C
2021-08-18T00:05:26.6189559Z, 6cda8203-a249-e411-b0cc-f8bc1246af59, $GPGGA,000525.00,4437.5894,N,12402.8903,W,1,09,0.8,20.2,M,-21.8,M,,*68
2021-08-18T00:05:28.0984780Z, 6cda8203-a249-e411-b0cc-f8bc1246af59, $GPGGA,000527.00,4437.5895,N,12402.8902,W,1,09,0.8,20.2,M,-21.8,M,,*6A
2021-08-18T00:05:29.6188644Z, 6cda8203-a249-e411-b0cc-f8bc1246af59, $GPGGA,000528.00,4437.5896,N,12402.8901,W,1,09,0.8,20.1,M,-21.8,M,,*66
2021-08-18T00:05:31.0894887Z, 6cda8203-a249-e411-b0cc-f8bc1246af59, $GPGGA,000530.00,4437.5897,N,12402.8897,W,1,09,0.8,20.0,M,-21.8,M,,*61
2021-08-18T00:05:32.6187552Z, 6cda8203-a249-e411-b0cc-f8bc1246af59, $GPGGA,000531.00,4437.5898,N,12402.8896,W,1,09,0.8,20.0,M,-21.8,M,,*6E
2021-08-18T00:05:34.0893338Z, 6cda8203-a249-e411-b0cc-f8bc1246af59, $GPGGA,000533.00,4437.5899,N,12402.8897,W,1,09,0.8,20.1,M,-21.8,M,,*6D
2021-08-18T00:05:35.6196623Z, 6cda8203-a249-e411-b0cc-f8bc1246af59, $GPGGA,000534.00,4437.5899,N,12402.8898,W,1,09,0.8,20.1,M,-21.8,M,,*65
2021-08-18T00:05:37.0892443Z, 6cda8203-a249-e411-b0cc-f8bc1246af59, $GPGGA,000536.00,4437.5898,N,12402.8899,W,1,09,0.8,20.4,M,-21.8,M,,*62
2021-08-18T00:05:38.6195571Z, 6cda8203-a249-e411-b0cc-f8bc1246af59, $GPGGA,000537.00,4437.5898,N,12402.8900,W,1,09,0.8,20.5,M,-21.8,M,,*63
2021-08-18T00:05:40.0990625Z, 6cda8203-a249-e411-b0cc-f8bc1246af59, $GPGGA,000539.00,4437.5897,N,12402.8902,W,1,09,0.8,20.5,M,-21.8,M,,*60
2021-08-18T00:05:41.6194434Z, 6cda8203-a249-e411-b0cc-f8bc1246af59, $GPGGA,000540.00,4437.5898,N,12402.8902,W,1,09,0.8,20.4,M,-21.8,M,,*60
2021-08-18T00:05:43.0999740Z, 6cda8203-a249-e411-b0cc-f8bc1246af59, $GPGGA,000542.00,4437.5898,N,12402.8901,W,1,09,0.8,20.4,M,-21.8,M,,*61
2021-08-18T00:05:44.6193422Z, 6cda8203-a249-e411-b0cc-f8bc1246af59, $GPGGA,000543.00,4437.5899,N,12402.8901,W,1,09,0.8,20.5,M,-21.8,M,,*60
2021-08-18T00:05:46.0899407Z, 6cda8203-a249-e411-b0cc-f8bc1246af59, $GPGGA,000545.00,4437.5897,N,12402.8896,W,1,09,0.8,20.4,M,-21.8,M,,*66
2021-08-18T00:05:47.6192363Z, 6cda8203-a249-e411-b0cc-f8bc1246af59, $GPGGA,000546.00,4437.5895,N,12402.8895,W,1,09,0.8,20.4,M,-21.8,M,,*64
2021-08-18T00:05:49.0898576Z, 6cda8203-a249-e411-b0cc-f8bc1246af59, $GPGGA,000548.00,4437.5893,N,12402.8894,W,1,09,0.8,20.5,M,-21.8,M,,*6C
2021-08-18T00:05:50.6201304Z, 6cda8203-a249-e411-b0cc-f8bc1246af59, $GPGGA,000549.00,4437.5892,N,12402.8893,W,1,09,0.8,20.7,M,-21.8,M,,*69
2021-08-18T00:05:52.0897239Z, 6cda8203-a249-e411-b0cc-f8bc1246af59, $GPGGA,000551.00,4437.5891,N,12402.8894,W,1,09,0.8,20.6,M,-21.8,M,,*65
2021-08-18T00:05:53.6200382Z, 6cda8203-a249-e411-b0cc-f8bc1246af59, $GPGGA,000552.00,4437.5891,N,12402.8893,W,1,09,0.8,20.6,M,-21.8,M,,*61
2021-08-18T00:05:55.0995474Z, 6cda8203-a249-e411-b0cc-f8bc1246af59, $GPGGA,000554.00,4437.5891,N,12402.8891,W,1,09,0.8,20.5,M,-21.8,M,,*66
2021-08-18T00:05:56.6199248Z, 6cda8203-a249-e411-b0cc-f8bc1246af59, $GPGGA,000555.00,4437.5889,N,12402.8894,W,1,09,0.8,20.3,M,-21.8,M,,*6D
2021-08-18T00:05:58.0905358Z, 6cda8203-a249-e411-b0cc-f8bc1246af59, $GPGGA,000557.00,4437.5890,N,12402.8894,W,1,09,0.8,20.2,M,-21.8,M,,*66
2021-08-18T00:05:59.6198211Z, 6cda8203-a249-e411-b0cc-f8bc1246af59, $GPGGA,000558.00,4437.5891,N,12402.8892,W,1,09,0.8,20.2,M,-21.8,M,,*6E
2021-08-18T00:06:01.0904339Z, 6cda8203-a249-e411-b0cc-f8bc1246af59, $GPGGA,000600.00,4437.5892,N,12402.8894,W,1,09,0.8,20.3,M,-21.8,M,,*64
2021-08-18T00:06:02.6207465Z, 6cda8203-a249-e411-b0cc-f8bc1246af59, $GPGGA,000601.00,4437.5893,N,12402.8895,W,1,09,0.8,20.3,M,-21.8,M,,*65
2021-08-18T00:06:04.0903366Z, 6cda8203-a249-e411-b0cc-f8bc1246af59, $GPGGA,000603.00,4437.5895,N,12402.8898,W,1,09,0.8,20.5,M,-21.8,M,,*6A
2021-08-18T00:06:05.6206214Z, 6cda8203-a249-e411-b0cc-f8bc1246af59, $GPGGA,000604.00,4437.5894,N,12402.8897,W,1,09,0.8,20.3,M,-21.8,M,,*65
2021-08-18T00:06:07.0901970Z, 6cda8203-a249-e411-b0cc-f8bc1246af59, $GPGGA,000606.00,4437.5894,N,12402.8893,W,1,09,0.8,20.2,M,-21.8,M,,*62
2021-08-18T00:06:08.6205284Z, 6cda8203-a249-e411-b0cc-f8bc1246af59, $GPGGA,000607.00,4437.5895,N,12402.8891,W,1,09,0.8,20.1,M,-21.8,M,,*63
2021-08-18T00:06:10.0901228Z, 6cda8203-a249-e411-b0cc-f8bc1246af59, $GPGGA,000609.00,4437.5895,N,12402.8891,W,1,09,0.8,19.9,M,-21.8,M,,*6F
2021-08-18T00:06:11.6204080Z, 6cda8203-a249-e411-b0cc-f8bc1246af59, $GPGGA,000610.00,4437.5894,N,12402.8893,W,1,09,0.8,19.8,M,-21.8,M,,*65
2021-08-18T00:06:13.0909850Z, 6cda8203-a249-e411-b0cc-f8bc1246af59, $GPGGA,000612.00,4437.5892,N,12402.8897,W,1,09,0.8,19.6,M,-21.8,M,,*6B
2021-08-18T00:06:14.6203261Z, 6cda8203-a249-e411-b0cc-f8bc1246af59, $GPGGA,000613.00,4437.5893,N,12402.8898,W,1,09,0.8,19.6,M,-21.8,M,,*64
2021-08-18T00:06:16.0908925Z, 6cda8203-a249-e411-b0cc-f8bc1246af59, $GPGGA,000615.00,4437.5893,N,12402.8897,W,1,09,0.8,19.5,M,-21.8,M,,*6E
2021-08-18T00:06:17.6212077Z, 6cda8203-a249-e411-b0cc-f8bc1246af59, $GPGGA,000616.00,4437.5892,N,12402.8894,W,1,09,0.8,19.6,M,-21.8,M,,*6C
2021-08-18T00:06:19.0908226Z, 6cda8203-a249-e411-b0cc-f8bc1246af59, $GPGGA,000618.00,4437.5890,N,12402.8891,W,1,09,0.8,19.6,M,-21.8,M,,*65
2021-08-18T00:06:20.6211489Z, 6cda8203-a249-e411-b0cc-f8bc1246af59, $GPGGA,000619.00,4437.5889,N,12402.8891,W,1,09,0.8,19.6,M,-21.8,M,,*6C
2021-08-18T00:06:22.0907485Z, 6cda8203-a249-e411-b0cc-f8bc1246af59, $GPGGA,000621.00,4437.5887,N,12402.8889,W,1,09,0.8,19.7,M,-21.8,M,,*61
2021-08-18T00:06:23.6210796Z, 6cda8203-a249-e411-b0cc-f8bc1246af59, $GPGGA,000622.00,4437.5887,N,12402.8887,W,1,09,0.8,19.6,M,-21.8,M,,*6D
2021-08-18T00:06:25.0907574Z, 6cda8203-a249-e411-b0cc-f8bc1246af59, $GPGGA,000624.00,4437.5886,N,12402.8885,W,1,09,0.8,19.6,M,-21.8,M,,*68
2021-08-18T00:06:26.6215602Z, 6cda8203-a249-e411-b0cc-f8bc1246af59, $GPGGA,000625.00,4437.5887,N,12402.8884,W,1,09,0.8,19.6,M,-21.8,M,,*69
2021-08-18T00:06:28.0911429Z, 6cda8203-a249-e411-b0cc-f8bc1246af59, $GPGGA,000627.00,4437.5888,N,12402.8886,W,1,09,0.8,19.7,M,-21.8,M,,*67
2021-08-18T00:06:29.6215016Z, 6cda8203-a249-e411-b0cc-f8bc1246af59, $GPGGA,000628.00,4437.5888,N,12402.8887,W,1,09,0.8,19.8,M,-21.8,M,,*66
2021-08-18T00:06:31.1010179Z, 6cda8203-a249-e411-b0cc-f8bc1246af59, $GPGGA,000630.00,4437.5887,N,12402.8887,W,1,09,0.8,19.9,M,-21.8,M,,*61
2021-08-18T00:06:32.6214151Z, 6cda8203-a249-e411-b0cc-f8bc1246af59, $GPGGA,000631.00,4437.5886,N,12402.8887,W,1,09,0.8,20.0,M,-21.8,M,,*62
2021-08-18T00:06:33.5911447Z, 6cda8203-a249-e411-b0cc-f8bc1246af59, $GPGGA,000632.00,4437.5885,N,12402.8887,W,1,09,0.8,20.0,M,-21.8,M,,*62
2021-08-18T00:06:34.5211011Z, 6cda8203-a249-e411-b0cc-f8bc1246af59, $GPGGA,000633.00,4437.5885,N,12402.8887,W,1,09,0.8,20.0,M,-21.8,M,,*63
2021-08-18T00:06:35.6412081Z, 6cda8203-a249-e411-b0cc-f8bc1246af59, $GPGGA,000634.00,4437.5885,N,12402.8887,W,1,09,0.8,20.0,M,-21.8,M,,*64
2021-08-18T00:06:36.6617545Z, 6cda8203-a249-e411-b0cc-f8bc1246af59, $GPGGA,000635.00,4437.5884,N,12402.8887,W,1,09,0.8,20.1,M,-21.8,M,,*65
2021-08-18T00:06:38.0317890Z, 6cda8203-a249-e411-b0cc-f8bc1246af59, $GPGGA,000636.00,4437.5884,N,12402.8887,W,1,09,0.8,20.1,M,-21.8,M,,*66
2021-08-18T00:06:39.4515415Z, 6cda8203-a249-e411-b0cc-f8bc1246af59, $GPGGA,000638.00,4437.5883,N,12402.8886,W,1,09,0.8,20.1,M,-21.8,M,,*6E
2021-08-18T00:06:40.7917124Z, 6cda8203-a249-e411-b0cc-f8bc1246af59, $GPGGA,000639.00,4437.5883,N,12402.8886,W,1,09,0.8,20.1,M,-21.8,M,,*6F
2021-08-18T00:06:42.2314032Z, 6cda8203-a249-e411-b0cc-f8bc1246af59, $GPGGA,000641.00,4437.5885,N,12402.8894,W,1,09,0.8,20.3,M,-21.8,M,,*67
2021-08-18T00:06:43.6214813Z, 6cda8203-a249-e411-b0cc-f8bc1246af59, $GPGGA,000642.00,4437.5883,N,12402.8897,W,1,09,0.8,20.4,M,-21.8,M,,*66
2021-08-18T00:06:45.2314205Z, 6cda8203-a249-e411-b0cc-f8bc1246af59, $GPGGA,000644.00,4437.5881,N,12402.8897,W,1,09,0.8,20.5,M,-21.8,M,,*63
2021-08-18T00:06:46.6224131Z, 6cda8203-a249-e411-b0cc-f8bc1246af59, $GPGGA,000645.00,4437.5880,N,12402.8898,W,1,09,0.8,20.5,M,-21.8,M,,*6C
2021-08-18T00:06:48.2314690Z, 6cda8203-a249-e411-b0cc-f8bc1246af59, $GPGGA,000647.00,4437.5880,N,12402.8896,W,1,09,0.8,20.5,M,-21.8,M,,*60
2021-08-18T00:06:49.6224709Z, 6cda8203-a249-e411-b0cc-f8bc1246af59, $GPGGA,000648.00,4437.5879,N,12402.8896,W,1,09,0.8,20.5,M,-21.8,M,,*69
2021-08-18T00:06:51.2224760Z, 6cda8203-a249-e411-b0cc-f8bc1246af59, $GPGGA,000650.00,4437.5879,N,12402.8895,W,1,09,0.8,20.5,M,-21.8,M,,*63
2021-08-18T00:06:52.6223389Z, 6cda8203-a249-e411-b0cc-f8bc1246af59, $GPGGA,000651.00,4437.5878,N,12402.8894,W,1,09,0.8,20.5,M,-21.8,M,,*62
2021-08-18T00:06:54.2322608Z, 6cda8203-a249-e411-b0cc-f8bc1246af59, $GPGGA,000653.00,4437.5878,N,12402.8892,W,1,09,0.8,20.5,M,-21.8,M,,*66
2021-08-18T00:06:55.6222261Z, 6cda8203-a249-e411-b0cc-f8bc1246af59, $GPGGA,000654.00,4437.5878,N,12402.8891,W,1,09,0.8,20.6,M,-21.8,M,,*61
2021-08-18T00:06:57.2323502Z, 6cda8203-a249-e411-b0cc-f8bc1246af59, $GPGGA,000656.00,4437.5874,N,12402.8889,W,1,09,0.8,20.6,M,-21.8,M,,*66
2021-08-18T00:06:58.6222880Z, 6cda8203-a249-e411-b0cc-f8bc1246af59, $GPGGA,000657.00,4437.5874,N,12402.8885,W,1,09,0.8,20.5,M,-21.8,M,,*68
2021-08-18T00:07:00.2322367Z, 6cda8203-a249-e411-b0cc-f8bc1246af59, $GPGGA,000659.00,4437.5879,N,12402.8882,W,1,09,0.8,20.7,M,-21.8,M,,*6E
2021-08-18T00:07:01.6222775Z, 6cda8203-a249-e411-b0cc-f8bc1246af59, $GPGGA,000700.00,4437.5879,N,12402.8881,W,1,09,0.8,20.9,M,-21.8,M,,*6E
2021-08-18T00:07:03.2322163Z, 6cda8203-a249-e411-b0cc-f8bc1246af59, $GPGGA,000702.00,4437.5878,N,12402.8880,W,1,09,0.8,21.0,M,-21.8,M,,*64
2021-08-18T00:07:04.6221539Z, 6cda8203-a249-e411-b0cc-f8bc1246af59, $GPGGA,000703.00,4437.5879,N,12402.8880,W,1,09,0.8,21.0,M,-21.8,M,,*64
2021-08-18T00:07:06.2231926Z, 6cda8203-a249-e411-b0cc-f8bc1246af59, $GPGGA,000705.00,4437.5878,N,12402.8879,W,1,09,0.8,21.0,M,-21.8,M,,*65
2021-08-18T00:07:07.6230732Z, 6cda8203-a249-e411-b0cc-f8bc1246af59, $GPGGA,000706.00,4437.5878,N,12402.8878,W,1,09,0.8,21.0,M,-21.8,M,,*67
2021-08-18T00:07:09.2230576Z, 6cda8203-a249-e411-b0cc-f8bc1246af59, $GPGGA,000708.00,4437.5877,N,12402.8879,W,1,09,0.8,21.0,M,-21.8,M,,*67
2021-08-18T00:07:10.6229634Z, 6cda8203-a249-e411-b0cc-f8bc1246af59, $GPGGA,000709.00,4437.5876,N,12402.8879,W,1,09,0.8,21.0,M,-21.8,M,,*67
2021-08-18T00:07:12.2328916Z, 6cda8203-a249-e411-b0cc-f8bc1246af59, $GPGGA,000711.00,4437.5875,N,12402.8879,W,1,09,0.8,20.9,M,-21.8,M,,*65
2021-08-18T00:07:13.6228579Z, 6cda8203-a249-e411-b0cc-f8bc1246af59, $GPGGA,000712.00,4437.5875,N,12402.8880,W,1,09,0.8,20.9,M,-21.8,M,,*60
2021-08-18T00:07:15.2327914Z, 6cda8203-a249-e411-b0cc-f8bc1246af59, $GPGGA,000714.00,4437.5874,N,12402.8880,W,1,09,0.8,20.9,M,-21.8,M,,*67
2021-08-18T00:07:16.6227456Z, 6cda8203-a249-e411-b0cc-f8bc1246af59, $GPGGA,000715.00,4437.5873,N,12402.8880,W,1,09,0.8,20.9,M,-21.8,M,,*61
2021-08-18T00:07:18.1928871Z, 6cda8203-a249-e411-b0cc-f8bc1246af59, $GPGGA,000717.00,4437.5870,N,12402.8876,W,1,09,0.8,20.9,M,-21.8,M,,*69
2021-08-18T00:07:19.6236773Z, 6cda8203-a249-e411-b0cc-f8bc1246af59, $GPGGA,000718.00,4437.5866,N,12402.8874,W,1,09,0.8,20.8,M,-21.8,M,,*62
2021-08-18T00:07:21.1927830Z, 6cda8203-a249-e411-b0cc-f8bc1246af59, $GPGGA,000720.00,4437.5865,N,12402.8867,W,1,09,0.8,21.0,M,-21.8,M,,*61
2021-08-18T00:07:22.6235328Z, 6cda8203-a249-e411-b0cc-f8bc1246af59, $GPGGA,000721.00,4437.5863,N,12402.8868,W,1,09,0.8,20.8,M,-21.8,M,,*60
2021-08-18T00:07:24.2235437Z, 6cda8203-a249-e411-b0cc-f8bc1246af59, $GPGGA,000723.00,4437.5862,N,12402.8866,W,1,09,0.8,20.7,M,-21.8,M,,*62
2021-08-18T00:07:25.6234315Z, 6cda8203-a249-e411-b0cc-f8bc1246af59, $GPGGA,000724.00,4437.5860,N,12402.8865,W,1,09,0.8,20.7,M,-21.8,M,,*64
2021-08-18T00:07:27.2234645Z, 6cda8203-a249-e411-b0cc-f8bc1246af59, $GPGGA,000726.00,4437.5861,N,12402.8864,W,1,09,0.8,20.6,M,-21.8,M,,*67
2021-08-18T00:07:28.6233250Z, 6cda8203-a249-e411-b0cc-f8bc1246af59, $GPGGA,000727.00,4437.5861,N,12402.8865,W,1,09,0.8,20.7,M,-21.8,M,,*66
2021-08-18T00:07:30.2332750Z, 6cda8203-a249-e411-b0cc-f8bc1246af59, $GPGGA,000729.00,4437.5861,N,12402.8864,W,1,09,0.8,20.8,M,-21.8,M,,*66
2021-08-18T00:07:31.6233240Z, 6cda8203-a249-e411-b0cc-f8bc1246af59, $GPGGA,000730.00,4437.5860,N,12402.8864,W,1,09,0.8,20.9,M,-21.8,M,,*6E
2021-08-18T00:07:33.2332318Z, 6cda8203-a249-e411-b0cc-f8bc1246af59, $GPGGA,000732.00,4437.5864,N,12402.8867,W,1,09,0.8,21.1,M,-21.8,M,,*62
2021-08-18T00:07:34.6233173Z, 6cda8203-a249-e411-b0cc-f8bc1246af59, $GPGGA,000733.00,4437.5864,N,12402.8868,W,1,09,0.8,21.2,M,-21.8,M,,*6F
2021-08-18T00:07:36.2333986Z, 6cda8203-a249-e411-b0cc-f8bc1246af59, $GPGGA,000735.00,4437.5864,N,12402.8867,W,1,09,0.8,21.2,M,-21.8,M,,*66
2021-08-18T00:07:37.6237778Z, 6cda8203-a249-e411-b0cc-f8bc1246af59, $GPGGA,000736.00,4437.5866,N,12402.8866,W,1,09,0.8,21.3,M,-21.8,M,,*67
2021-08-18T00:07:39.2237920Z, 6cda8203-a249-e411-b0cc-f8bc1246af59, $GPGGA,000738.00,4437.5867,N,12402.8865,W,1,09,0.8,21.5,M,-21.8,M,,*6D
2021-08-18T00:07:40.6237478Z, 6cda8203-a249-e411-b0cc-f8bc1246af59, $GPGGA,000739.00,4437.5868,N,12402.8863,W,1,09,0.8,21.8,M,-21.8,M,,*68
2021-08-18T00:07:42.2337250Z, 6cda8203-a249-e411-b0cc-f8bc1246af59, $GPGGA,000741.00,4437.5871,N,12402.8860,W,1,09,0.8,22.2,M,-21.8,M,,*65
2021-08-18T00:07:43.6236678Z, 6cda8203-a249-e411-b0cc-f8bc1246af59, $GPGGA,000742.00,4437.5871,N,12402.8859,W,1,09,0.8,22.4,M,-21.8,M,,*6A
2021-08-18T00:07:45.2337292Z, 6cda8203-a249-e411-b0cc-f8bc1246af59, $GPGGA,000744.00,4437.5873,N,12402.8863,W,1,09,0.8,23.2,M,-21.8,M,,*60
2021-08-18T00:07:46.6247175Z, 6cda8203-a249-e411-b0cc-f8bc1246af59, $GPGGA,000745.00,4437.5871,N,12402.8864,W,1,09,0.8,23.6,M,-21.8,M,,*60
2021-08-18T00:07:48.2338294Z, 6cda8203-a249-e411-b0cc-f8bc1246af59, $GPGGA,000747.00,4437.5868,N,12402.8863,W,1,09,0.8,23.9,M,-21.8,M,,*62
2021-08-18T00:07:49.6247863Z, 6cda8203-a249-e411-b0cc-f8bc1246af59, $GPGGA,000748.00,4437.5869,N,12402.8865,W,1,09,0.8,24.1,M,-21.8,M,,*65
2021-08-18T00:07:51.2339836Z, 6cda8203-a249-e411-b0cc-f8bc1246af59, $GPGGA,000750.00,4437.5872,N,12402.8869,W,1,09,0.8,24.3,M,-21.8,M,,*68
2021-08-18T00:07:52.6240912Z, 6cda8203-a249-e411-b0cc-f8bc1246af59, $GPGGA,000751.00,4437.5871,N,12402.8871,W,1,09,0.8,24.3,M,-21.8,M,,*63
2021-08-18T00:07:54.2241867Z, 6cda8203-a249-e411-b0cc-f8bc1246af59, $GPGGA,000753.00,4437.5872,N,12402.8871,W,1,09,0.8,24.5,M,-21.8,M,,*64
2021-08-18T00:07:55.6250560Z, 6cda8203-a249-e411-b0cc-f8bc1246af59, $GPGGA,000754.00,4437.5873,N,12402.8871,W,1,09,0.8,24.5,M,-21.8,M,,*62
2021-08-18T00:07:57.2351048Z, 6cda8203-a249-e411-b0cc-f8bc1246af59, $GPGGA,000756.00,4437.5874,N,12402.8871,W,1,09,0.8,24.8,M,-21.8,M,,*6A
2021-08-18T00:07:58.6250266Z, 6cda8203-a249-e411-b0cc-f8bc1246af59, $GPGGA,000757.00,4437.5873,N,12402.8874,W,1,09,0.8,24.9,M,-21.8,M,,*68
2021-08-18T00:08:00.2250524Z, 6cda8203-a249-e411-b0cc-f8bc1246af59, $GPGGA,000759.00,4437.5872,N,12402.8871,W,1,09,0.8,25.1,M,-21.8,M,,*6B
2021-08-18T00:08:01.6249257Z, 6cda8203-a249-e411-b0cc-f8bc1246af59, $GPGGA,000800.00,4437.5874,N,12402.8871,W,1,09,0.8,25.0,M,-21.8,M,,*6F
2021-08-18T00:08:03.2244624Z, 6cda8203-a249-e411-b0cc-f8bc1246af59, $GPGGA,000802.00,4437.5875,N,12402.8869,W,1,09,0.8,25.0,M,-21.8,M,,*65
2021-08-18T00:08:04.6252866Z, 6cda8203-a249-e411-b0cc-f8bc1246af59, $GPGGA,000803.00,4437.5874,N,12402.8873,W,1,09,0.8,25.0,M,-21.8,M,,*6E
2021-08-18T00:08:06.1048030Z, 6cda8203-a249-e411-b0cc-f8bc1246af59, $GPGGA,000805.00,4437.5873,N,12402.8874,W,1,09,0.8,24.9,M,-21.8,M,,*60
2021-08-18T00:08:07.6253140Z, 6cda8203-a249-e411-b0cc-f8bc1246af59, $GPGGA,000806.00,4437.5873,N,12402.8877,W,1,09,0.8,24.9,M,-21.8,M,,*60
2021-08-18T00:08:09.1049218Z, 6cda8203-a249-e411-b0cc-f8bc1246af59, $GPGGA,000808.00,4437.5876,N,12402.8876,W,1,09,0.8,25.0,M,-21.8,M,,*62
2021-08-18T00:08:10.6253163Z, 6cda8203-a249-e411-b0cc-f8bc1246af59, $GPGGA,000809.00,4437.5875,N,12402.8877,W,1,09,0.8,25.0,M,-21.8,M,,*61
2021-08-18T00:08:12.1048314Z, 6cda8203-a249-e411-b0cc-f8bc1246af59, $GPGGA,000811.00,4437.5878,N,12402.8878,W,1,09,0.8,24.9,M,-21.8,M,,*62
2021-08-18T00:08:13.6251969Z, 6cda8203-a249-e411-b0cc-f8bc1246af59, $GPGGA,000812.00,4437.5877,N,12402.8877,W,1,09,0.8,24.9,M,-21.8,M,,*61
2021-08-18T00:08:15.1052528Z, 6cda8203-a249-e411-b0cc-f8bc1246af59, $GPGGA,000814.00,4437.5880,N,12402.8876,W,1,09,0.8,25.0,M,-21.8,M,,*66
2021-08-18T00:08:16.6256391Z, 6cda8203-a249-e411-b0cc-f8bc1246af59, $GPGGA,000815.00,4437.5884,N,12402.8876,W,1,09,0.8,25.0,M,-21.8,M,,*63
2021-08-18T00:08:18.1051971Z, 6cda8203-a249-e411-b0cc-f8bc1246af59, $GPGGA,000817.00,4437.5885,N,12402.8877,W,1,09,0.8,25.1,M,-21.8,M,,*60
2021-08-18T00:08:19.6255628Z, 6cda8203-a249-e411-b0cc-f8bc1246af59, $GPGGA,000818.00,4437.5887,N,12402.8877,W,1,09,0.8,25.1,M,-21.8,M,,*6D
2021-08-18T00:08:21.1050919Z, 6cda8203-a249-e411-b0cc-f8bc1246af59, $GPGGA,000820.00,4437.5888,N,12402.8877,W,1,09,0.8,25.0,M,-21.8,M,,*68
2021-08-18T00:08:22.6254608Z, 6cda8203-a249-e411-b0cc-f8bc1246af59, $GPGGA,000821.00,4437.5889,N,12402.8878,W,1,09,0.8,25.0,M,-21.8,M,,*67
2021-08-18T00:08:24.1061489Z, 6cda8203-a249-e411-b0cc-f8bc1246af59, $GPGGA,000823.00,4437.5889,N,12402.8877,W,1,09,0.8,24.9,M,-21.8,M,,*62
2021-08-18T00:08:25.6260161Z, 6cda8203-a249-e411-b0cc-f8bc1246af59, $GPGGA,000824.00,4437.5889,N,12402.8877,W,1,09,0.8,24.9,M,-21.8,M,,*65
2021-08-18T00:08:27.1056078Z, 6cda8203-a249-e411-b0cc-f8bc1246af59, $GPGGA,000826.00,4437.5891,N,12402.8876,W,1,09,0.8,24.9,M,-21.8,M,,*6F
2021-08-18T00:08:28.6261403Z, 6cda8203-a249-e411-b0cc-f8bc1246af59, $GPGGA,000827.00,4437.5891,N,12402.8876,W,1,09,0.8,24.9,M,-21.8,M,,*6E
2021-08-18T00:08:30.1056694Z, 6cda8203-a249-e411-b0cc-f8bc1246af59, $GPGGA,000829.00,4437.5892,N,12402.8875,W,1,09,0.8,24.9,M,-21.8,M,,*60
2021-08-18T00:08:31.6260395Z, 6cda8203-a249-e411-b0cc-f8bc1246af59, $GPGGA,000830.00,4437.5891,N,12402.8873,W,1,09,0.8,24.9,M,-21.8,M,,*6D
2021-08-18T00:08:33.0968615Z, 6cda8203-a249-e411-b0cc-f8bc1246af59, $GPGGA,000832.00,4437.5890,N,12402.8873,W,1,09,0.8,24.8,M,-21.8,M,,*6F
2021-08-18T00:08:34.6259366Z, 6cda8203-a249-e411-b0cc-f8bc1246af59, $GPGGA,000833.00,4437.5890,N,12402.8872,W,1,09,0.8,24.8,M,-21.8,M,,*6F
2021-08-18T00:08:36.1065669Z, 6cda8203-a249-e411-b0cc-f8bc1246af59, $GPGGA,000835.00,4437.5889,N,12402.8870,W,1,09,0.8,24.9,M,-21.8,M,,*62
2021-08-18T00:08:37.6259314Z, 6cda8203-a249-e411-b0cc-f8bc1246af59, $GPGGA,000836.00,4437.5889,N,12402.8869,W,1,09,0.8,24.9,M,-21.8,M,,*69
2021-08-18T00:08:38.7759070Z, 6cda8203-a249-e411-b0cc-f8bc1246af59, $GPGGA,000837.00,4437.5888,N,12402.8869,W,1,09,0.8,24.9,M,-21.8,M,,*69
2021-08-18T00:08:39.5266277Z, 6cda8203-a249-e411-b0cc-f8bc1246af59, $GPGGA,000838.00,4437.5885,N,12402.8872,W,1,09,0.8,24.9,M,-21.8,M,,*61
2021-08-18T00:08:40.6459814Z, 6cda8203-a249-e411-b0cc-f8bc1246af59, $GPGGA,000839.00,4437.5882,N,12402.8875,W,1,09,0.8,24.8,M,-21.8,M,,*61
2021-08-18T00:08:41.8559216Z, 6cda8203-a249-e411-b0cc-f8bc1246af59, $GPGGA,000840.00,4437.5883,N,12402.8873,W,1,09,0.8,24.9,M,-21.8,M,,*69
2021-08-18T00:08:42.9959268Z, 6cda8203-a249-e411-b0cc-f8bc1246af59, $GPGGA,000841.00,4437.5884,N,12402.8869,W,1,09,0.8,24.8,M,-21.8,M,,*65
2021-08-18T00:08:44.5664390Z, 6cda8203-a249-e411-b0cc-f8bc1246af59, $GPGGA,000843.00,4437.5883,N,12402.8872,W,1,09,0.8,24.8,M,-21.8,M,,*6A
2021-08-18T00:08:45.7548795Z, 6cda8203-a249-e411-b0cc-f8bc1246af59, $GPGGA,000844.00,4437.5884,N,12402.8870,W,1,09,0.8,24.8,M,-21.8,M,,*68
2021-08-18T00:08:47.3729467Z, 6cda8203-a249-e411-b0cc-f8bc1246af59, $GPGGA,000846.00,4437.5883,N,12402.8867,W,1,09,0.8,24.8,M,-21.8,M,,*6B
2021-08-18T00:08:48.6121929Z, 6cda8203-a249-e411-b0cc-f8bc1246af59, $GPGGA,000847.00,4437.5884,N,12402.8866,W,1,09,0.8,24.9,M,-21.8,M,,*6D
2021-08-18T00:08:50.3317011Z, 6cda8203-a249-e411-b0cc-f8bc1246af59, $GPGGA,000849.00,4437.5880,N,12402.8867,W,1,09,0.8,24.8,M,-21.8,M,,*67
2021-08-18T00:08:51.6122083Z, 6cda8203-a249-e411-b0cc-f8bc1246af59, $GPGGA,000850.00,4437.5878,N,12402.8867,W,1,09,0.8,24.8,M,-21.8,M,,*68
2021-08-18T00:08:53.3725353Z, 6cda8203-a249-e411-b0cc-f8bc1246af59, $GPGGA,000852.00,4437.5875,N,12402.8866,W,1,09,0.8,24.9,M,-21.8,M,,*67
2021-08-18T00:08:54.6123858Z, 6cda8203-a249-e411-b0cc-f8bc1246af59, $GPGGA,000853.00,4437.5874,N,12402.8866,W,1,09,0.8,24.9,M,-21.8,M,,*67
2021-08-18T00:08:56.3329394Z, 6cda8203-a249-e411-b0cc-f8bc1246af59, $GPGGA,000855.00,4437.5874,N,12402.8865,W,1,09,0.8,24.7,M,-21.8,M,,*6C
2021-08-18T00:08:57.6122861Z, 6cda8203-a249-e411-b0cc-f8bc1246af59, $GPGGA,000856.00,4437.5874,N,12402.8865,W,1,09,0.8,24.5,M,-21.8,M,,*6D
2021-08-18T00:08:59.3726154Z, 6cda8203-a249-e411-b0cc-f8bc1246af59, $GPGGA,000858.00,4437.5876,N,12402.8865,W,1,09,0.8,24.5,M,-21.8,M,,*61
2021-08-18T00:09:00.6121907Z, 6cda8203-a249-e411-b0cc-f8bc1246af59, $GPGGA,000859.00,4437.5875,N,12402.8866,W,1,09,0.8,24.6,M,-21.8,M,,*63
2021-08-18T00:09:02.3724945Z, 6cda8203-a249-e411-b0cc-f8bc1246af59, $GPGGA,000901.00,4437.5876,N,12402.8868,W,1,09,0.8,24.7,M,-21.8,M,,*63
2021-08-18T00:09:03.6130709Z, 6cda8203-a249-e411-b0cc-f8bc1246af59, $GPGGA,000902.00,4437.5875,N,12402.8870,W,1,09,0.8,24.7,M,-21.8,M,,*6A
2021-08-18T00:09:05.3724184Z, 6cda8203-a249-e411-b0cc-f8bc1246af59, $GPGGA,000904.00,4437.5875,N,12402.8873,W,1,09,0.8,24.6,M,-21.8,M,,*6E
2021-08-18T00:09:06.6130482Z, 6cda8203-a249-e411-b0cc-f8bc1246af59, $GPGGA,000905.00,4437.5875,N,12402.8874,W,1,09,0.8,24.8,M,-21.8,M,,*66
2021-08-18T00:09:08.3728030Z, 6cda8203-a249-e411-b0cc-f8bc1246af59, $GPGGA,000907.00,4437.5876,N,12402.8872,W,1,09,0.8,24.8,M,-21.8,M,,*61
2021-08-18T00:09:09.6124863Z, 6cda8203-a249-e411-b0cc-f8bc1246af59, $GPGGA,000908.00,4437.5875,N,12402.8875,W,1,09,0.8,24.7,M,-21.8,M,,*65
2021-08-18T00:09:11.3728074Z, 6cda8203-a249-e411-b0cc-f8bc1246af59, $GPGGA,000910.00,4437.5871,N,12402.8877,W,1,09,0.8,24.8,M,-21.8,M,,*65
2021-08-18T00:09:12.6133795Z, 6cda8203-a249-e411-b0cc-f8bc1246af59, $GPGGA,000911.00,4437.5870,N,12402.8879,W,1,09,0.8,24.8,M,-21.8,M,,*6B
2021-08-18T00:09:14.3727685Z, 6cda8203-a249-e411-b0cc-f8bc1246af59, $GPGGA,000913.00,4437.5872,N,12402.8882,W,1,09,0.8,24.9,M,-21.8,M,,*6E
2021-08-18T00:09:15.6128020Z, 6cda8203-a249-e411-b0cc-f8bc1246af59, $GPGGA,000914.00,4437.5871,N,12402.8881,W,1,09,0.8,24.9,M,-21.8,M,,*69
2021-08-18T00:09:17.3733215Z, 6cda8203-a249-e411-b0cc-f8bc1246af59, $GPGGA,000916.00,4437.5869,N,12402.8880,W,1,09,0.8,24.9,M,-21.8,M,,*63
2021-08-18T00:09:18.6130936Z, 6cda8203-a249-e411-b0cc-f8bc1246af59, $GPGGA,000917.00,4437.5867,N,12402.8880,W,1,09,0.8,25.1,M,-21.8,M,,*65
2021-08-18T00:09:20.3734112Z, 6cda8203-a249-e411-b0cc-f8bc1246af59, $GPGGA,000919.00,4437.5865,N,12402.8878,W,1,09,0.8,25.2,M,-21.8,M,,*6D
2021-08-18T00:09:21.6131676Z, 6cda8203-a249-e411-b0cc-f8bc1246af59, $GPGGA,000920.00,4437.5865,N,12402.8876,W,1,09,0.8,25.2,M,-21.8,M,,*69
2021-08-18T00:09:23.3736824Z, 6cda8203-a249-e411-b0cc-f8bc1246af59, $GPGGA,000922.00,4437.5862,N,12402.8876,W,1,09,0.8,25.1,M,-21.8,M,,*6F
2021-08-18T00:09:24.6133290Z, 6cda8203-a249-e411-b0cc-f8bc1246af59, $GPGGA,000923.00,4437.5856,N,12402.8872,W,1,09,0.8,25.1,M,-21.8,M,,*6D
2021-08-18T00:09:26.3735815Z, 6cda8203-a249-e411-b0cc-f8bc1246af59, $GPGGA,000925.00,4437.5849,N,12402.8867,W,1,09,0.8,25.0,M,-21.8,M,,*60
2021-08-18T00:09:27.6132726Z, 6cda8203-a249-e411-b0cc-f8bc1246af59, $GPGGA,000926.00,4437.5848,N,12402.8867,W,1,09,0.8,24.9,M,-21.8,M,,*6A
2021-08-18T00:09:29.3735889Z, 6cda8203-a249-e411-b0cc-f8bc1246af59, $GPGGA,000928.00,4437.5846,N,12402.8867,W,1,09,0.8,24.9,M,-21.8,M,,*6A
2021-08-18T00:09:30.6142106Z, 6cda8203-a249-e411-b0cc-f8bc1246af59, $GPGGA,000929.00,4437.5845,N,12402.8866,W,1,09,0.8,25.0,M,-21.8,M,,*61
2021-08-18T00:09:32.3739349Z, 6cda8203-a249-e411-b0cc-f8bc1246af59, $GPGGA,000931.00,4437.5847,N,12402.8861,W,1,09,0.8,25.1,M,-21.8,M,,*6C
2021-08-18T00:09:33.6138673Z, 6cda8203-a249-e411-b0cc-f8bc1246af59, $GPGGA,000932.00,4437.5848,N,12402.8859,W,1,09,0.8,25.2,M,-21.8,M,,*68
2021-08-18T00:09:35.3337756Z, 6cda8203-a249-e411-b0cc-f8bc1246af59, $GPGGA,000934.00,4437.5849,N,12402.8856,W,1,09,0.8,25.0,M,-21.8,M,,*62
2021-08-18T00:09:36.6142122Z, 6cda8203-a249-e411-b0cc-f8bc1246af59, $GPGGA,000935.00,4437.5850,N,12402.8855,W,1,09,0.8,24.9,M,-21.8,M,,*60
2021-08-18T00:09:38.3745127Z, 6cda8203-a249-e411-b0cc-f8bc1246af59, $GPGGA,000937.00,4437.5852,N,12402.8851,W,1,09,0.8,25.0,M,-21.8,M,,*6C
2021-08-18T00:09:39.6140711Z, 6cda8203-a249-e411-b0cc-f8bc1246af59, $GPGGA,000938.00,4437.5853,N,12402.8853,W,1,09,0.8,24.9,M,-21.8,M,,*68
2021-08-18T00:09:41.3743914Z, 6cda8203-a249-e411-b0cc-f8bc1246af59, $GPGGA,000940.00,4437.5851,N,12402.8856,W,1,09,0.8,24.7,M,-21.8,M,,*6E
2021-08-18T00:09:42.6140223Z, 6cda8203-a249-e411-b0cc-f8bc1246af59, $GPGGA,000941.00,4437.5851,N,12402.8856,W,1,09,0.8,24.6,M,-21.8,M,,*6E
2021-08-18T00:09:44.3742866Z, 6cda8203-a249-e411-b0cc-f8bc1246af59, $GPGGA,000943.00,4437.5854,N,12402.8858,W,1,09,0.8,24.3,M,-21.8,M,,*62
2021-08-18T00:09:45.6142240Z, 6cda8203-a249-e411-b0cc-f8bc1246af59, $GPGGA,000944.00,4437.5853,N,12402.8861,W,1,09,0.8,24.1,M,-21.8,M,,*6A
2021-08-18T00:09:47.3347740Z, 6cda8203-a249-e411-b0cc-f8bc1246af59, $GPGGA,000946.00,4437.5856,N,12402.8854,W,1,09,0.8,23.6,M,-21.8,M,,*6B
2021-08-18T00:09:48.6142056Z, 6cda8203-a249-e411-b0cc-f8bc1246af59, $GPGGA,000947.00,4437.5857,N,12402.8852,W,1,09,0.8,23.6,M,-21.8,M,,*6D
2021-08-18T00:09:50.3774273Z, 6cda8203-a249-e411-b0cc-f8bc1246af59, $GPGGA,000949.00,4437.5860,N,12402.8847,W,1,09,0.8,22.8,M,-21.8,M,,*6C
2021-08-18T00:09:51.6142795Z, 6cda8203-a249-e411-b0cc-f8bc1246af59, $GPGGA,000950.00,4437.5861,N,12402.8848,W,1,09,0.8,22.7,M,-21.8,M,,*65
2021-08-18T00:09:53.3745876Z, 6cda8203-a249-e411-b0cc-f8bc1246af59, $GPGGA,000952.00,4437.5863,N,12402.8844,W,1,09,0.8,22.4,M,-21.8,M,,*6A
2021-08-18T00:09:54.6141838Z, 6cda8203-a249-e411-b0cc-f8bc1246af59, $GPGGA,000953.00,4437.5863,N,12402.8843,W,1,09,0.8,22.3,M,-21.8,M,,*6B
2021-08-18T00:09:56.3745072Z, 6cda8203-a249-e411-b0cc-f8bc1246af59, $GPGGA,000955.00,4437.5864,N,12402.8844,W,1,09,0.8,22.2,M,-21.8,M,,*6C
2021-08-18T00:09:57.6150679Z, 6cda8203-a249-e411-b0cc-f8bc1246af59, $GPGGA,000956.00,4437.5865,N,12402.8845,W,1,09,0.8,22.2,M,-21.8,M,,*6F
2021-08-18T00:09:59.3744383Z, 6cda8203-a249-e411-b0cc-f8bc1246af59, $GPGGA,000958.00,4437.5867,N,12402.8847,W,1,09,0.8,22.1,M,-21.8,M,,*62
2021-08-18T00:10:00.6150168Z, 6cda8203-a249-e411-b0cc-f8bc1246af59, $GPGGA,000959.00,4437.5867,N,12402.8848,W,1,09,0.8,22.1,M,-21.8,M,,*6C
2021-08-18T00:10:02.3745190Z, 6cda8203-a249-e411-b0cc-f8bc1246af59, $GPGGA,001001.00,4437.5870,N,12402.8852,W,1,09,0.8,22.1,M,-21.8,M,,*64
2021-08-18T00:10:03.6152432Z, 6cda8203-a249-e411-b0cc-f8bc1246af59, $GPGGA,001002.00,4437.5871,N,12402.8852,W,1,09,0.8,22.2,M,-21.8,M,,*65
2021-08-18T00:10:05.3748172Z, 6cda8203-a249-e411-b0cc-f8bc1246af59, $GPGGA,001004.00,4437.5871,N,12402.8855,W,1,09,0.8,22.2,M,-21.8,M,,*64
2021-08-18T00:10:06.6154906Z, 6cda8203-a249-e411-b0cc-f8bc1246af59, $GPGGA,001005.00,4437.5871,N,12402.8856,W,1,09,0.8,22.3,M,-21.8,M,,*67
2021-08-18T00:10:08.3748127Z, 6cda8203-a249-e411-b0cc-f8bc1246af59, $GPGGA,001007.00,4437.5872,N,12402.8858,W,1,09,0.8,22.4,M,-21.8,M,,*6F
2021-08-18T00:10:09.6155627Z, 6cda8203-a249-e411-b0cc-f8bc1246af59, $GPGGA,001008.00,4437.5872,N,12402.8858,W,1,09,0.8,22.4,M,-21.8,M,,*60
2021-08-18T00:10:11.3754485Z, 6cda8203-a249-e411-b0cc-f8bc1246af59, $GPGGA,001010.00,4437.5870,N,12402.8856,W,1,09,0.8,22.4,M,-21.8,M,,*65
2021-08-18T00:10:12.6150340Z, 6cda8203-a249-e411-b0cc-f8bc1246af59, $GPGGA,001011.00,4437.5870,N,12402.8857,W,1,09,0.8,22.4,M,-21.8,M,,*65
2021-08-18T00:10:14.3753688Z, 6cda8203-a249-e411-b0cc-f8bc1246af59, $GPGGA,001013.00,4437.5871,N,12402.8859,W,1,09,0.8,22.5,M,-21.8,M,,*69
2021-08-18T00:10:15.6159481Z, 6cda8203-a249-e411-b0cc-f8bc1246af59, $GPGGA,001014.00,4437.5872,N,12402.8860,W,1,09,0.8,22.5,M,-21.8,M,,*67
2021-08-18T00:10:17.3754015Z, 6cda8203-a249-e411-b0cc-f8bc1246af59, $GPGGA,001016.00,4437.5871,N,12402.8861,W,1,09,0.8,22.5,M,-21.8,M,,*67
2021-08-18T00:10:18.6160071Z, 6cda8203-a249-e411-b0cc-f8bc1246af59, $GPGGA,001017.00,4437.5871,N,12402.8865,W,1,09,0.8,22.4,M,-21.8,M,,*63
2021-08-18T00:10:20.3354873Z, 6cda8203-a249-e411-b0cc-f8bc1246af59, $GPGGA,001019.00,4437.5873,N,12402.8868,W,1,09,0.8,22.4,M,-21.8,M,,*62
2021-08-18T00:10:21.6158802Z, 6cda8203-a249-e411-b0cc-f8bc1246af59, $GPGGA,001020.00,4437.5874,N,12402.8868,W,1,09,0.8,22.5,M,-21.8,M,,*6E
2021-08-18T00:10:23.3762144Z, 6cda8203-a249-e411-b0cc-f8bc1246af59, $GPGGA,001022.00,4437.5874,N,12402.8869,W,1,09,0.8,22.6,M,-21.8,M,,*6E
2021-08-18T00:10:24.6157713Z, 6cda8203-a249-e411-b0cc-f8bc1246af59, $GPGGA,001023.00,4437.5874,N,12402.8872,W,1,09,0.8,22.7,M,-21.8,M,,*64
2021-08-18T00:10:26.3756929Z, 6cda8203-a249-e411-b0cc-f8bc1246af59, $GPGGA,001025.00,4437.5874,N,12402.8869,W,1,09,0.8,22.7,M,-21.8,M,,*68
2021-08-18T00:10:27.6162754Z, 6cda8203-a249-e411-b0cc-f8bc1246af59, $GPGGA,001026.00,4437.5874,N,12402.8869,W,1,09,0.8,22.8,M,-21.8,M,,*64
2021-08-18T00:10:29.3755787Z, 6cda8203-a249-e411-b0cc-f8bc1246af59, $GPGGA,001028.00,4437.5874,N,12402.8871,W,1,09,0.8,22.7,M,-21.8,M,,*6C
2021-08-18T00:10:30.6161711Z, 6cda8203-a249-e411-b0cc-f8bc1246af59, $GPGGA,001029.00,4437.5872,N,12402.8873,W,1,09,0.8,22.6,M,-21.8,M,,*68
2021-08-18T00:10:32.3758579Z, 6cda8203-a249-e411-b0cc-f8bc1246af59, $GPGGA,001031.00,4437.5872,N,12402.8875,W,1,09,0.8,22.6,M,-21.8,M,,*67
2021-08-18T00:10:33.6164427Z, 6cda8203-a249-e411-b0cc-f8bc1246af59, $GPGGA,001032.00,4437.5871,N,12402.8878,W,1,09,0.8,22.6,M,-21.8,M,,*6A
