ACQ Timestamp (Server Time in UTC), MessageID, Data Value For: GNSS-6452-$GPGGA
2021-06-12 21:46:41Z, 6cda8203-a249-e411-b0cc-f8bc1246af59, $GPGGA,214640.00,4437.5847,N,12402.8835,W,1,10,0.8,22.6,M,-21.8,M,,*6B
2021-06-12 21:46:42Z, 6cda8203-a249-e411-b0cc-f8bc1246af59, $GPGGA,214641.00,4437.5844,N,12402.8837,W,1,09,1.0,22.5,M,-21.8,M,,*69
2021-06-12 21:46:44Z, 6cda8203-a249-e411-b0cc-f8bc1246af59, $GPGGA,214643.00,4437.5844,N,12402.8838,W,1,10,0.8,22.5,M,-21.8,M,,*65
2021-06-12 21:46:45Z, 6cda8203-a249-e411-b0cc-f8bc1246af59, $GPGGA,214644.00,4437.5845,N,12402.8839,W,1,10,0.8,22.5,M,-21.8,M,,*62
2021-06-12 21:46:45Z, 6cda8203-a249-e411-b0cc-f8bc1246af59, $GPGGA,214645.00,4437.5846,N,12402.8838,W,1,10,0.8,22.6,M,-21.8,M,,*62
2021-06-12 21:46:47Z, 6cda8203-a249-e411-b0cc-f8bc1246af59, $GPGGA,214646.00,4437.5845,N,12402.8838,W,1,10,0.8,22.7,M,-21.8,M,,*63
2021-06-12 21:46:48Z, 6cda8203-a249-e411-b0cc-f8bc1246af59, $GPGGA,214647.00,4437.5844,N,12402.8836,W,1,10,0.8,22.8,M,-21.8,M,,*62
2021-06-12 21:46:49Z, 6cda8203-a249-e411-b0cc-f8bc1246af59, $GPGGA,214648.00,4437.5844,N,12402.8835,W,1,10,0.8,22.8,M,-21.8,M,,*6E
2021-06-12 21:46:51Z, 6cda8203-a249-e411-b0cc-f8bc1246af59, $GPGGA,214650.00,4437.5845,N,12402.8833,W,1,10,0.8,23.0,M,-21.8,M,,*69
2021-06-12 21:46:52Z, 6cda8203-a249-e411-b0cc-f8bc1246af59, $GPGGA,214651.00,4437.5845,N,12402.8833,W,1,10,0.8,23.0,M,-21.8,M,,*68
2021-06-12 21:46:54Z, 6cda8203-a249-e411-b0cc-f8bc1246af59, $GPGGA,214653.00,4437.5845,N,12402.8834,W,1,10,0.8,23.0,M,-21.8,M,,*6D
2021-06-12 21:46:55Z, 6cda8203-a249-e411-b0cc-f8bc1246af59, $GPGGA,214654.00,4437.5845,N,12402.8834,W,1,10,0.8,23.0,M,-21.8,M,,*6A
2021-06-12 21:46:57Z, 6cda8203-a249-e411-b0cc-f8bc1246af59, $GPGGA,214656.00,4437.5845,N,12402.8836,W,1,10,0.8,23.1,M,-21.8,M,,*6B
2021-06-12 21:46:58Z, 6cda8203-a249-e411-b0cc-f8bc1246af59, $GPGGA,214657.00,4437.5845,N,12402.8837,W,1,10,0.8,23.1,M,-21.8,M,,*6B
2021-06-12 21:47:00Z, 6cda8203-a249-e411-b0cc-f8bc1246af59, $GPGGA,214659.00,4437.5844,N,12402.8840,W,1,10,0.8,23.0,M,-21.8,M,,*65
2021-06-12 21:47:01Z, 6cda8203-a249-e411-b0cc-f8bc1246af59, $GPGGA,214700.00,4437.5844,N,12402.8843,W,1,10,0.8,23.0,M,-21.8,M,,*6B
2021-06-12 21:47:03Z, 6cda8203-a249-e411-b0cc-f8bc1246af59, $GPGGA,214702.00,4437.5845,N,12402.8845,W,1,10,0.8,23.1,M,-21.8,M,,*6F
2021-06-12 21:47:04Z, 6cda8203-a249-e411-b0cc-f8bc1246af59, $GPGGA,214703.00,4437.5846,N,12402.8844,W,1,10,0.8,23.1,M,-21.8,M,,*6C
2021-06-12 21:47:06Z, 6cda8203-a249-e411-b0cc-f8bc1246af59, $GPGGA,214705.00,4437.5849,N,12402.8851,W,1,10,0.8,23.4,M,-21.8,M,,*64
2021-06-12 21:47:07Z, 6cda8203-a249-e411-b0cc-f8bc1246af59, $GPGGA,214706.00,4437.5849,N,12402.8850,W,1,10,0.8,23.5,M,-21.8,M,,*67
2021-06-12 21:47:09Z, 6cda8203-a249-e411-b0cc-f8bc1246af59, $GPGGA,214708.00,4437.5850,N,12402.8847,W,1,10,0.8,23.6,M,-21.8,M,,*64
2021-06-12 21:47:10Z, 6cda8203-a249-e411-b0cc-f8bc1246af59, $GPGGA,214709.00,4437.5851,N,12402.8846,W,1,10,0.8,23.7,M,-21.8,M,,*64
2021-06-12 21:47:12Z, 6cda8203-a249-e411-b0cc-f8bc1246af59, $GPGGA,214711.00,4437.5851,N,12402.8848,W,1,10,0.8,23.9,M,-21.8,M,,*6D
2021-06-12 21:47:13Z, 6cda8203-a249-e411-b0cc-f8bc1246af59, $GPGGA,214712.00,4437.5851,N,12402.8847,W,1,10,0.8,24.0,M,-21.8,M,,*6F
2021-06-12 21:47:15Z, 6cda8203-a249-e411-b0cc-f8bc1246af59, $GPGGA,214714.00,4437.5848,N,12402.8851,W,1,10,0.8,24.1,M,-21.8,M,,*67
2021-06-12 21:47:16Z, 6cda8203-a249-e411-b0cc-f8bc1246af59, $GPGGA,214715.00,4437.5848,N,12402.8851,W,1,10,0.8,24.2,M,-21.8,M,,*65
2021-06-12 21:47:18Z, 6cda8203-a249-e411-b0cc-f8bc1246af59, $GPGGA,214717.00,4437.5848,N,12402.8848,W,1,10,0.8,24.1,M,-21.8,M,,*6C
2021-06-12 21:47:19Z, 6cda8203-a249-e411-b0cc-f8bc1246af59, $GPGGA,214718.00,4437.5847,N,12402.8848,W,1,10,0.8,24.3,M,-21.8,M,,*6E
2021-06-12 21:47:21Z, 6cda8203-a249-e411-b0cc-f8bc1246af59, $GPGGA,214720.00,4437.5848,N,12402.8849,W,1,10,0.8,24.5,M,-21.8,M,,*6D
2021-06-12 21:47:22Z, 6cda8203-a249-e411-b0cc-f8bc1246af59, $GPGGA,214721.00,4437.5847,N,12402.8848,W,1,10,0.8,24.5,M,-21.8,M,,*62
2021-06-12 21:47:24Z, 6cda8203-a249-e411-b0cc-f8bc1246af59, $GPGGA,214723.00,4437.5847,N,12402.8848,W,1,10,0.8,24.6,M,-21.8,M,,*63
2021-06-12 21:47:25Z, 6cda8203-a249-e411-b0cc-f8bc1246af59, $GPGGA,214724.00,4437.5847,N,12402.8848,W,1,10,0.8,24.6,M,-21.8,M,,*64
2021-06-12 21:47:27Z, 6cda8203-a249-e411-b0cc-f8bc1246af59, $GPGGA,214726.00,4437.5841,N,12402.8853,W,1,10,0.8,24.7,M,-21.8,M,,*6B
2021-06-12 21:47:28Z, 6cda8203-a249-e411-b0cc-f8bc1246af59, $GPGGA,214727.00,4437.5840,N,12402.8855,W,1,10,0.8,24.7,M,-21.8,M,,*6D
2021-06-12 21:47:30Z, 6cda8203-a249-e411-b0cc-f8bc1246af59, $GPGGA,214729.00,4437.5838,N,12402.8857,W,1,10,0.8,24.8,M,-21.8,M,,*61
2021-06-12 21:47:31Z, 6cda8203-a249-e411-b0cc-f8bc1246af59, $GPGGA,214730.00,4437.5837,N,12402.8858,W,1,10,0.8,24.8,M,-21.8,M,,*69
2021-06-12 21:47:33Z, 6cda8203-a249-e411-b0cc-f8bc1246af59, $GPGGA,214732.00,4437.5837,N,12402.8861,W,1,10,0.8,24.8,M,-21.8,M,,*61
2021-06-12 21:47:34Z, 6cda8203-a249-e411-b0cc-f8bc1246af59, $GPGGA,214733.00,4437.5839,N,12402.8860,W,1,10,0.8,24.6,M,-21.8,M,,*61
2021-06-12 21:47:36Z, 6cda8203-a249-e411-b0cc-f8bc1246af59, $GPGGA,214735.00,4437.5840,N,12402.8860,W,1,10,0.8,24.6,M,-21.8,M,,*69
2021-06-12 21:47:37Z, 6cda8203-a249-e411-b0cc-f8bc1246af59, $GPGGA,214736.00,4437.5843,N,12402.8862,W,1,10,0.8,24.6,M,-21.8,M,,*6B
2021-06-12 21:47:39Z, 6cda8203-a249-e411-b0cc-f8bc1246af59, $GPGGA,214738.00,4437.5843,N,12402.8863,W,1,10,0.8,24.7,M,-21.8,M,,*65
2021-06-12 21:47:40Z, 6cda8203-a249-e411-b0cc-f8bc1246af59, $GPGGA,214739.00,4437.5843,N,12402.8862,W,1,10,0.8,24.8,M,-21.8,M,,*6A
2021-06-12 21:47:42Z, 6cda8203-a249-e411-b0cc-f8bc1246af59, $GPGGA,214741.00,4437.5842,N,12402.8864,W,1,10,0.8,24.9,M,-21.8,M,,*63
2021-06-12 21:47:43Z, 6cda8203-a249-e411-b0cc-f8bc1246af59, $GPGGA,214742.00,4437.5841,N,12402.8863,W,1,10,0.8,24.9,M,-21.8,M,,*64
2021-06-12 21:47:45Z, 6cda8203-a249-e411-b0cc-f8bc1246af59, $GPGGA,214744.00,4437.5843,N,12402.8862,W,1,10,0.8,24.9,M,-21.8,M,,*61
2021-06-12 21:47:46Z, 6cda8203-a249-e411-b0cc-f8bc1246af59, $GPGGA,214745.00,4437.5841,N,12402.8861,W,1,10,0.8,24.9,M,-21.8,M,,*61
2021-06-12 21:47:48Z, 6cda8203-a249-e411-b0cc-f8bc1246af59, $GPGGA,214747.00,4437.5842,N,12402.8859,W,1,10,0.8,24.9,M,-21.8,M,,*6B
2021-06-12 21:47:49Z, 6cda8203-a249-e411-b0cc-f8bc1246af59, $GPGGA,214748.00,4437.5842,N,12402.8858,W,1,10,0.8,24.9,M,-21.8,M,,*65
2021-06-12 21:47:51Z, 6cda8203-a249-e411-b0cc-f8bc1246af59, $GPGGA,214750.00,4437.5842,N,12402.8858,W,1,10,0.8,24.9,M,-21.8,M,,*6C
2021-06-12 21:47:52Z, 6cda8203-a249-e411-b0cc-f8bc1246af59, $GPGGA,214751.00,4437.5843,N,12402.8856,W,1,10,0.8,24.9,M,-21.8,M,,*62
2021-06-12 21:47:54Z, 6cda8203-a249-e411-b0cc-f8bc1246af59, $GPGGA,214753.00,4437.5843,N,12402.8855,W,1,10,0.8,24.8,M,-21.8,M,,*62
2021-06-12 21:47:55Z, 6cda8203-a249-e411-b0cc-f8bc1246af59, $GPGGA,214754.00,4437.5842,N,12402.8854,W,1,10,0.8,24.7,M,-21.8,M,,*6A
2021-06-12 21:47:57Z, 6cda8203-a249-e411-b0cc-f8bc1246af59, $GPGGA,214756.00,4437.5842,N,12402.8856,W,1,10,0.8,24.6,M,-21.8,M,,*6B
2021-06-12 21:47:58Z, 6cda8203-a249-e411-b0cc-f8bc1246af59, $GPGGA,214757.00,4437.5840,N,12402.8854,W,1,10,0.8,24.6,M,-21.8,M,,*6A
2021-06-12 21:48:00Z, 6cda8203-a249-e411-b0cc-f8bc1246af59, $GPGGA,214759.00,4437.5839,N,12402.8851,W,1,10,0.8,24.5,M,-21.8,M,,*6C
2021-06-12 21:48:01Z, 6cda8203-a249-e411-b0cc-f8bc1246af59, $GPGGA,214800.00,4437.5839,N,12402.8850,W,1,10,0.8,24.3,M,-21.8,M,,*68
2021-06-12 21:48:03Z, 6cda8203-a249-e411-b0cc-f8bc1246af59, $GPGGA,214802.00,4437.5841,N,12402.8849,W,1,10,0.8,24.2,M,-21.8,M,,*6C
2021-06-12 21:48:04Z, 6cda8203-a249-e411-b0cc-f8bc1246af59, $GPGGA,214803.00,4437.5843,N,12402.8851,W,1,10,0.8,24.3,M,-21.8,M,,*67
2021-06-12 21:48:06Z, 6cda8203-a249-e411-b0cc-f8bc1246af59, $GPGGA,214805.00,4437.5843,N,12402.8852,W,1,10,0.8,24.4,M,-21.8,M,,*65
2021-06-12 21:48:07Z, 6cda8203-a249-e411-b0cc-f8bc1246af59, $GPGGA,214806.00,4437.5842,N,12402.8852,W,1,10,0.8,24.5,M,-21.8,M,,*66
2021-06-12 21:48:09Z, 6cda8203-a249-e411-b0cc-f8bc1246af59, $GPGGA,214808.00,4437.5842,N,12402.8849,W,1,10,0.8,24.5,M,-21.8,M,,*62
2021-06-12 21:48:10Z, 6cda8203-a249-e411-b0cc-f8bc1246af59, $GPGGA,214809.00,4437.5842,N,12402.8848,W,1,10,0.8,24.5,M,-21.8,M,,*62
2021-06-12 21:48:12Z, 6cda8203-a249-e411-b0cc-f8bc1246af59, $GPGGA,214811.00,4437.5839,N,12402.8847,W,1,10,0.8,24.4,M,-21.8,M,,*69
2021-06-12 21:48:13Z, 6cda8203-a249-e411-b0cc-f8bc1246af59, $GPGGA,214812.00,4437.5836,N,12402.8847,W,1,10,0.8,24.5,M,-21.8,M,,*64
2021-06-12 21:48:15Z, 6cda8203-a249-e411-b0cc-f8bc1246af59, $GPGGA,214814.00,4437.5837,N,12402.8849,W,1,10,0.8,24.5,M,-21.8,M,,*6D
2021-06-12 21:48:16Z, 6cda8203-a249-e411-b0cc-f8bc1246af59, $GPGGA,214815.00,4437.5837,N,12402.8849,W,1,10,0.8,24.6,M,-21.8,M,,*6F
2021-06-12 21:48:18Z, 6cda8203-a249-e411-b0cc-f8bc1246af59, $GPGGA,214817.00,4437.5836,N,12402.8848,W,1,10,0.8,24.7,M,-21.8,M,,*6C
2021-06-12 21:48:19Z, 6cda8203-a249-e411-b0cc-f8bc1246af59, $GPGGA,214818.00,4437.5837,N,12402.8847,W,1,10,0.8,24.6,M,-21.8,M,,*6C
2021-06-12 21:48:21Z, 6cda8203-a249-e411-b0cc-f8bc1246af59, $GPGGA,214820.00,4437.5836,N,12402.8850,W,1,10,0.8,24.5,M,-21.8,M,,*63
2021-06-12 21:48:22Z, 6cda8203-a249-e411-b0cc-f8bc1246af59, $GPGGA,214821.00,4437.5834,N,12402.8852,W,1,10,0.8,24.5,M,-21.8,M,,*62
2021-06-12 21:48:24Z, 6cda8203-a249-e411-b0cc-f8bc1246af59, $GPGGA,214823.00,4437.5832,N,12402.8853,W,1,10,0.8,24.5,M,-21.8,M,,*67
2021-06-12 21:48:25Z, 6cda8203-a249-e411-b0cc-f8bc1246af59, $GPGGA,214824.00,4437.5830,N,12402.8854,W,1,10,0.8,24.5,M,-21.8,M,,*65
2021-06-12 21:48:27Z, 6cda8203-a249-e411-b0cc-f8bc1246af59, $GPGGA,214826.00,4437.5828,N,12402.8856,W,1,10,0.8,24.3,M,-21.8,M,,*6A
2021-06-12 21:48:28Z, 6cda8203-a249-e411-b0cc-f8bc1246af59, $GPGGA,214827.00,4437.5828,N,12402.8856,W,1,10,0.8,24.3,M,-21.8,M,,*6B
2021-06-12 21:48:30Z, 6cda8203-a249-e411-b0cc-f8bc1246af59, $GPGGA,214829.00,4437.5829,N,12402.8860,W,1,10,0.8,24.3,M,-21.8,M,,*61
2021-06-12 21:48:31Z, 6cda8203-a249-e411-b0cc-f8bc1246af59, $GPGGA,214830.00,4437.5828,N,12402.8861,W,1,10,0.8,24.3,M,-21.8,M,,*69
2021-06-12 21:48:33Z, 6cda8203-a249-e411-b0cc-f8bc1246af59, $GPGGA,214832.00,4437.5828,N,12402.8859,W,1,10,0.8,24.3,M,-21.8,M,,*60
2021-06-12 21:48:34Z, 6cda8203-a249-e411-b0cc-f8bc1246af59, $GPGGA,214833.00,4437.5829,N,12402.8859,W,1,10,0.8,24.3,M,-21.8,M,,*60
2021-06-12 21:48:36Z, 6cda8203-a249-e411-b0cc-f8bc1246af59, $GPGGA,214835.00,4437.5830,N,12402.8860,W,1,10,0.8,24.4,M,-21.8,M,,*63
2021-06-12 21:48:37Z, 6cda8203-a249-e411-b0cc-f8bc1246af59, $GPGGA,214836.00,4437.5832,N,12402.8858,W,1,10,0.8,24.4,M,-21.8,M,,*69
2021-06-12 21:48:39Z, 6cda8203-a249-e411-b0cc-f8bc1246af59, $GPGGA,214838.00,4437.5833,N,12402.8855,W,1,10,0.8,24.4,M,-21.8,M,,*6B
2021-06-12 21:48:40Z, 6cda8203-a249-e411-b0cc-f8bc1246af59, $GPGGA,214839.00,4437.5834,N,12402.8852,W,1,10,0.8,24.4,M,-21.8,M,,*6A
2021-06-12 21:48:42Z, 6cda8203-a249-e411-b0cc-f8bc1246af59, $GPGGA,214841.00,4437.5835,N,12402.8855,W,1,10,0.8,24.4,M,-21.8,M,,*63
2021-06-12 21:48:43Z, 6cda8203-a249-e411-b0cc-f8bc1246af59, $GPGGA,214842.00,4437.5836,N,12402.8855,W,1,10,0.8,24.3,M,-21.8,M,,*64
2021-06-12 21:48:45Z, 6cda8203-a249-e411-b0cc-f8bc1246af59, $GPGGA,214844.00,4437.5839,N,12402.8853,W,1,10,0.8,24.2,M,-21.8,M,,*6A
2021-06-12 21:48:46Z, 6cda8203-a249-e411-b0cc-f8bc1246af59, $GPGGA,214845.00,4437.5836,N,12402.8855,W,1,10,0.8,24.4,M,-21.8,M,,*64
2021-06-12 21:48:48Z, 6cda8203-a249-e411-b0cc-f8bc1246af59, $GPGGA,214847.00,4437.5836,N,12402.8859,W,1,10,0.8,24.2,M,-21.8,M,,*6C
2021-06-12 21:48:49Z, 6cda8203-a249-e411-b0cc-f8bc1246af59, $GPGGA,214848.00,4437.5836,N,12402.8860,W,1,10,0.8,24.2,M,-21.8,M,,*69
2021-06-12 21:48:51Z, 6cda8203-a249-e411-b0cc-f8bc1246af59, $GPGGA,214850.00,4437.5835,N,12402.8860,W,1,10,0.8,24.2,M,-21.8,M,,*63
2021-06-12 21:48:52Z, 6cda8203-a249-e411-b0cc-f8bc1246af59, $GPGGA,214851.00,4437.5835,N,12402.8859,W,1,10,0.8,24.3,M,-21.8,M,,*69
2021-06-12 21:48:54Z, 6cda8203-a249-e411-b0cc-f8bc1246af59, $GPGGA,214852.00,4437.5835,N,12402.8856,W,1,10,0.8,24.3,M,-21.8,M,,*65
2021-06-12 21:48:54Z, 6cda8203-a249-e411-b0cc-f8bc1246af59, $GPGGA,214853.00,4437.5836,N,12402.8855,W,1,10,0.8,24.3,M,-21.8,M,,*64
2021-06-12 21:48:56Z, 6cda8203-a249-e411-b0cc-f8bc1246af59, $GPGGA,214855.00,4437.5835,N,12402.8853,W,1,10,0.8,24.4,M,-21.8,M,,*60
2021-06-12 21:48:57Z, 6cda8203-a249-e411-b0cc-f8bc1246af59, $GPGGA,214856.00,4437.5836,N,12402.8853,W,1,11,0.8,24.5,M,-21.8,M,,*60
2021-06-12 21:48:59Z, 6cda8203-a249-e411-b0cc-f8bc1246af59, $GPGGA,214858.00,4437.5835,N,12402.8853,W,1,11,0.8,24.7,M,-21.8,M,,*6F
2021-06-12 21:49:00Z, 6cda8203-a249-e411-b0cc-f8bc1246af59, $GPGGA,214859.00,4437.5834,N,12402.8852,W,1,11,0.8,24.6,M,-21.8,M,,*6F
2021-06-12 21:49:02Z, 6cda8203-a249-e411-b0cc-f8bc1246af59, $GPGGA,214901.00,4437.5834,N,12402.8849,W,1,11,0.8,24.3,M,-21.8,M,,*6C
2021-06-12 21:49:03Z, 6cda8203-a249-e411-b0cc-f8bc1246af59, $GPGGA,214902.00,4437.5834,N,12402.8847,W,1,11,0.8,24.2,M,-21.8,M,,*60
2021-06-12 21:49:05Z, 6cda8203-a249-e411-b0cc-f8bc1246af59, $GPGGA,214904.00,4437.5836,N,12402.8845,W,1,11,0.8,24.0,M,-21.8,M,,*64
2021-06-12 21:49:06Z, 6cda8203-a249-e411-b0cc-f8bc1246af59, $GPGGA,214905.00,4437.5840,N,12402.8849,W,1,11,0.8,23.8,M,-21.8,M,,*67
2021-06-12 21:49:08Z, 6cda8203-a249-e411-b0cc-f8bc1246af59, $GPGGA,214907.00,4437.5844,N,12402.8842,W,1,11,0.8,23.8,M,-21.8,M,,*6A
2021-06-12 21:49:09Z, 6cda8203-a249-e411-b0cc-f8bc1246af59, $GPGGA,214908.00,4437.5845,N,12402.8841,W,1,11,0.8,23.8,M,-21.8,M,,*67
2021-06-12 21:49:11Z, 6cda8203-a249-e411-b0cc-f8bc1246af59, $GPGGA,214910.00,4437.5846,N,12402.8840,W,1,11,0.8,24.0,M,-21.8,M,,*63
2021-06-12 21:49:12Z, 6cda8203-a249-e411-b0cc-f8bc1246af59, $GPGGA,214911.00,4437.5846,N,12402.8839,W,1,11,0.8,24.1,M,-21.8,M,,*6D
2021-06-12 21:49:14Z, 6cda8203-a249-e411-b0cc-f8bc1246af59, $GPGGA,214913.00,4437.5846,N,12402.8838,W,1,11,0.8,24.2,M,-21.8,M,,*6D
2021-06-12 21:49:15Z, 6cda8203-a249-e411-b0cc-f8bc1246af59, $GPGGA,214914.00,4437.5847,N,12402.8838,W,1,11,0.8,24.2,M,-21.8,M,,*6B
2021-06-12 21:49:17Z, 6cda8203-a249-e411-b0cc-f8bc1246af59, $GPGGA,214916.00,4437.5847,N,12402.8838,W,1,11,0.8,24.4,M,-21.8,M,,*6F
2021-06-12 21:49:18Z, 6cda8203-a249-e411-b0cc-f8bc1246af59, $GPGGA,214917.00,4437.5848,N,12402.8840,W,1,11,0.8,24.4,M,-21.8,M,,*6E
2021-06-12 21:49:20Z, 6cda8203-a249-e411-b0cc-f8bc1246af59, $GPGGA,214919.00,4437.5847,N,12402.8838,W,1,11,0.8,24.5,M,-21.8,M,,*61
2021-06-12 21:49:21Z, 6cda8203-a249-e411-b0cc-f8bc1246af59, $GPGGA,214920.00,4437.5847,N,12402.8837,W,1,11,0.8,24.5,M,-21.8,M,,*64
2021-06-12 21:49:23Z, 6cda8203-a249-e411-b0cc-f8bc1246af59, $GPGGA,214922.00,4437.5845,N,12402.8839,W,1,11,0.8,24.5,M,-21.8,M,,*6A
2021-06-12 21:49:24Z, 6cda8203-a249-e411-b0cc-f8bc1246af59, $GPGGA,214923.00,4437.5844,N,12402.8840,W,1,11,0.8,24.5,M,-21.8,M,,*64
2021-06-12 21:49:26Z, 6cda8203-a249-e411-b0cc-f8bc1246af59, $GPGGA,214925.00,4437.5842,N,12402.8844,W,1,11,0.8,24.4,M,-21.8,M,,*61
2021-06-12 21:49:27Z, 6cda8203-a249-e411-b0cc-f8bc1246af59, $GPGGA,214926.00,4437.5841,N,12402.8843,W,1,11,0.8,24.4,M,-21.8,M,,*66
2021-06-12 21:49:29Z, 6cda8203-a249-e411-b0cc-f8bc1246af59, $GPGGA,214928.00,4437.5840,N,12402.8845,W,1,11,0.8,24.3,M,-21.8,M,,*68
2021-06-12 21:49:30Z, 6cda8203-a249-e411-b0cc-f8bc1246af59, $GPGGA,214929.00,4437.5838,N,12402.8848,W,1,11,0.8,24.4,M,-21.8,M,,*6C
2021-06-12 21:49:32Z, 6cda8203-a249-e411-b0cc-f8bc1246af59, $GPGGA,214931.00,4437.5836,N,12402.8848,W,1,11,0.8,24.4,M,-21.8,M,,*6B
2021-06-12 21:49:33Z, 6cda8203-a249-e411-b0cc-f8bc1246af59, $GPGGA,214932.00,4437.5837,N,12402.8847,W,1,11,0.8,24.4,M,-21.8,M,,*66
2021-06-12 21:49:35Z, 6cda8203-a249-e411-b0cc-f8bc1246af59, $GPGGA,214934.00,4437.5834,N,12402.8848,W,1,11,0.8,24.4,M,-21.8,M,,*6C
2021-06-12 21:49:36Z, 6cda8203-a249-e411-b0cc-f8bc1246af59, $GPGGA,214935.00,4437.5833,N,12402.8847,W,1,11,0.8,24.4,M,-21.8,M,,*65
2021-06-12 21:49:38Z, 6cda8203-a249-e411-b0cc-f8bc1246af59, $GPGGA,214937.00,4437.5836,N,12402.8846,W,1,11,0.8,24.4,M,-21.8,M,,*63
2021-06-12 21:49:39Z, 6cda8203-a249-e411-b0cc-f8bc1246af59, $GPGGA,214938.00,4437.5837,N,12402.8844,W,1,11,0.8,24.4,M,-21.8,M,,*6F
2021-06-12 21:49:41Z, 6cda8203-a249-e411-b0cc-f8bc1246af59, $GPGGA,214940.00,4437.5840,N,12402.8844,W,1,11,0.8,24.4,M,-21.8,M,,*60
2021-06-12 21:49:42Z, 6cda8203-a249-e411-b0cc-f8bc1246af59, $GPGGA,214941.00,4437.5842,N,12402.8839,W,1,11,0.8,24.5,M,-21.8,M,,*68
2021-06-12 21:49:44Z, 6cda8203-a249-e411-b0cc-f8bc1246af59, $GPGGA,214943.00,4437.5843,N,12402.8839,W,1,11,0.8,24.4,M,-21.8,M,,*6A
2021-06-12 21:49:45Z, 6cda8203-a249-e411-b0cc-f8bc1246af59, $GPGGA,214944.00,4437.5842,N,12402.8838,W,1,11,0.8,24.4,M,-21.8,M,,*6D
2021-06-12 21:49:47Z, 6cda8203-a249-e411-b0cc-f8bc1246af59, $GPGGA,214946.00,4437.5844,N,12402.8840,W,1,11,0.8,24.1,M,-21.8,M,,*63
2021-06-12 21:49:48Z, 6cda8203-a249-e411-b0cc-f8bc1246af59, $GPGGA,214947.00,4437.5844,N,12402.8840,W,1,11,0.8,24.0,M,-21.8,M,,*63
2021-06-12 21:49:50Z, 6cda8203-a249-e411-b0cc-f8bc1246af59, $GPGGA,214949.00,4437.5843,N,12402.8841,W,1,11,0.8,23.9,M,-21.8,M,,*65
2021-06-12 21:49:51Z, 6cda8203-a249-e411-b0cc-f8bc1246af59, $GPGGA,214950.00,4437.5841,N,12402.8843,W,1,11,0.8,23.8,M,-21.8,M,,*6C
2021-06-12 21:49:53Z, 6cda8203-a249-e411-b0cc-f8bc1246af59, $GPGGA,214952.00,4437.5841,N,12402.8843,W,1,11,0.8,23.9,M,-21.8,M,,*6F
2021-06-12 21:49:54Z, 6cda8203-a249-e411-b0cc-f8bc1246af59, $GPGGA,214953.00,4437.5842,N,12402.8842,W,1,11,0.8,24.0,M,-21.8,M,,*62
2021-06-12 21:49:56Z, 6cda8203-a249-e411-b0cc-f8bc1246af59, $GPGGA,214955.00,4437.5841,N,12402.8845,W,1,11,0.8,24.0,M,-21.8,M,,*60
2021-06-12 21:49:57Z, 6cda8203-a249-e411-b0cc-f8bc1246af59, $GPGGA,214956.00,4437.5841,N,12402.8845,W,1,11,0.8,24.0,M,-21.8,M,,*63
2021-06-12 21:49:59Z, 6cda8203-a249-e411-b0cc-f8bc1246af59, $GPGGA,214958.00,4437.5840,N,12402.8848,W,1,11,0.8,23.9,M,-21.8,M,,*6F
2021-06-12 21:50:00Z, 6cda8203-a249-e411-b0cc-f8bc1246af59, $GPGGA,214959.00,4437.5840,N,12402.8848,W,1,11,0.8,23.8,M,-21.8,M,,*6F
2021-06-12 21:50:02Z, 6cda8203-a249-e411-b0cc-f8bc1246af59, $GPGGA,215001.00,4437.5836,N,12402.8848,W,1,11,0.8,23.4,M,-21.8,M,,*67
2021-06-12 21:50:03Z, 6cda8203-a249-e411-b0cc-f8bc1246af59, $GPGGA,215002.00,4437.5835,N,12402.8848,W,1,11,0.8,23.3,M,-21.8,M,,*60
2021-06-12 21:50:05Z, 6cda8203-a249-e411-b0cc-f8bc1246af59, $GPGGA,215004.00,4437.5833,N,12402.8850,W,1,11,0.8,23.2,M,-21.8,M,,*68
2021-06-12 21:50:06Z, 6cda8203-a249-e411-b0cc-f8bc1246af59, $GPGGA,215005.00,4437.5830,N,12402.8851,W,1,11,0.8,23.2,M,-21.8,M,,*6B
2021-06-12 21:50:08Z, 6cda8203-a249-e411-b0cc-f8bc1246af59, $GPGGA,215007.00,4437.5827,N,12402.8851,W,1,11,0.8,23.2,M,-21.8,M,,*6F
2021-06-12 21:50:09Z, 6cda8203-a249-e411-b0cc-f8bc1246af59, $GPGGA,215008.00,4437.5827,N,12402.8852,W,1,10,0.8,23.2,M,-21.8,M,,*62
2021-06-12 21:50:11Z, 6cda8203-a249-e411-b0cc-f8bc1246af59, $GPGGA,215010.00,4437.5825,N,12402.8857,W,1,11,0.8,23.0,M,-21.8,M,,*6F
2021-06-12 21:50:12Z, 6cda8203-a249-e411-b0cc-f8bc1246af59, $GPGGA,215011.00,4437.5826,N,12402.8860,W,1,11,0.8,22.9,M,-21.8,M,,*61
2021-06-12 21:50:14Z, 6cda8203-a249-e411-b0cc-f8bc1246af59, $GPGGA,215013.00,4437.5825,N,12402.8860,W,1,10,0.8,22.9,M,-21.8,M,,*61
2021-06-12 21:50:15Z, 6cda8203-a249-e411-b0cc-f8bc1246af59, $GPGGA,215014.00,4437.5824,N,12402.8859,W,1,10,0.8,22.9,M,-21.8,M,,*6D
2021-06-12 21:50:17Z, 6cda8203-a249-e411-b0cc-f8bc1246af59, $GPGGA,215016.00,4437.5824,N,12402.8860,W,1,11,0.8,22.9,M,-21.8,M,,*64
2021-06-12 21:50:18Z, 6cda8203-a249-e411-b0cc-f8bc1246af59, $GPGGA,215017.00,4437.5824,N,12402.8859,W,1,11,0.8,22.9,M,-21.8,M,,*6F
2021-06-12 21:50:20Z, 6cda8203-a249-e411-b0cc-f8bc1246af59, $GPGGA,215019.00,4437.5824,N,12402.8860,W,1,11,0.8,22.9,M,-21.8,M,,*6B
2021-06-12 21:50:21Z, 6cda8203-a249-e411-b0cc-f8bc1246af59, $GPGGA,215020.00,4437.5824,N,12402.8860,W,1,11,0.8,22.9,M,-21.8,M,,*61
2021-06-12 21:50:23Z, 6cda8203-a249-e411-b0cc-f8bc1246af59, $GPGGA,215022.00,4437.5824,N,12402.8861,W,1,11,0.8,22.9,M,-21.8,M,,*62
2021-06-12 21:50:24Z, 6cda8203-a249-e411-b0cc-f8bc1246af59, $GPGGA,215023.00,4437.5824,N,12402.8861,W,1,11,0.8,22.9,M,-21.8,M,,*63
2021-06-12 21:50:26Z, 6cda8203-a249-e411-b0cc-f8bc1246af59, $GPGGA,215025.00,4437.5825,N,12402.8861,W,1,11,0.8,22.9,M,-21.8,M,,*64
2021-06-12 21:50:27Z, 6cda8203-a249-e411-b0cc-f8bc1246af59, $GPGGA,215026.00,4437.5826,N,12402.8858,W,1,11,0.8,22.8,M,-21.8,M,,*6F
2021-06-12 21:50:29Z, 6cda8203-a249-e411-b0cc-f8bc1246af59, $GPGGA,215028.00,4437.5825,N,12402.8857,W,1,11,0.8,22.5,M,-21.8,M,,*60
2021-06-12 21:50:30Z, 6cda8203-a249-e411-b0cc-f8bc1246af59, $GPGGA,215029.00,4437.5826,N,12402.8860,W,1,11,0.8,22.3,M,-21.8,M,,*60
2021-06-12 21:50:32Z, 6cda8203-a249-e411-b0cc-f8bc1246af59, $GPGGA,215031.00,4437.5828,N,12402.8858,W,1,11,0.8,22.4,M,-21.8,M,,*6B
2021-06-12 21:50:33Z, 6cda8203-a249-e411-b0cc-f8bc1246af59, $GPGGA,215032.00,4437.5827,N,12402.8855,W,1,11,0.8,22.4,M,-21.8,M,,*6A
2021-06-12 21:50:35Z, 6cda8203-a249-e411-b0cc-f8bc1246af59, $GPGGA,215034.00,4437.5827,N,12402.8853,W,1,11,0.8,22.5,M,-21.8,M,,*6B
2021-06-12 21:50:36Z, 6cda8203-a249-e411-b0cc-f8bc1246af59, $GPGGA,215035.00,4437.5826,N,12402.8853,W,1,11,0.8,22.6,M,-21.8,M,,*68
2021-06-12 21:50:38Z, 6cda8203-a249-e411-b0cc-f8bc1246af59, $GPGGA,215037.00,4437.5823,N,12402.8855,W,1,11,0.8,22.4,M,-21.8,M,,*6B
2021-06-12 21:50:39Z, 6cda8203-a249-e411-b0cc-f8bc1246af59, $GPGGA,215038.00,4437.5823,N,12402.8857,W,1,11,0.8,22.5,M,-21.8,M,,*67
2021-06-12 21:50:41Z, 6cda8203-a249-e411-b0cc-f8bc1246af59, $GPGGA,215040.00,4437.5822,N,12402.8863,W,1,11,0.8,22.7,M,-21.8,M,,*6C
2021-06-12 21:50:42Z, 6cda8203-a249-e411-b0cc-f8bc1246af59, $GPGGA,215041.00,4437.5821,N,12402.8864,W,1,11,0.8,22.8,M,-21.8,M,,*66
2021-06-12 21:50:44Z, 6cda8203-a249-e411-b0cc-f8bc1246af59, $GPGGA,215043.00,4437.5820,N,12402.8869,W,1,11,0.8,22.6,M,-21.8,M,,*66
2021-06-12 21:50:45Z, 6cda8203-a249-e411-b0cc-f8bc1246af59, $GPGGA,215044.00,4437.5821,N,12402.8870,W,1,11,0.8,22.5,M,-21.8,M,,*6B
2021-06-12 21:50:47Z, 6cda8203-a249-e411-b0cc-f8bc1246af59, $GPGGA,215046.00,4437.5823,N,12402.8869,W,1,11,0.8,22.4,M,-21.8,M,,*62
2021-06-12 21:50:48Z, 6cda8203-a249-e411-b0cc-f8bc1246af59, $GPGGA,215047.00,4437.5823,N,12402.8868,W,1,11,0.8,22.3,M,-21.8,M,,*65
2021-06-12 21:50:50Z, 6cda8203-a249-e411-b0cc-f8bc1246af59, $GPGGA,215049.00,4437.5828,N,12402.8867,W,1,11,0.8,22.4,M,-21.8,M,,*68
2021-06-12 21:50:51Z, 6cda8203-a249-e411-b0cc-f8bc1246af59, $GPGGA,215050.00,4437.5826,N,12402.8866,W,1,11,0.8,22.4,M,-21.8,M,,*6F
2021-06-12 21:50:53Z, 6cda8203-a249-e411-b0cc-f8bc1246af59, $GPGGA,215052.00,4437.5826,N,12402.8868,W,1,11,0.8,22.3,M,-21.8,M,,*64
2021-06-12 21:50:54Z, 6cda8203-a249-e411-b0cc-f8bc1246af59, $GPGGA,215053.00,4437.5827,N,12402.8868,W,1,11,0.8,22.4,M,-21.8,M,,*63
2021-06-12 21:50:54Z, 6cda8203-a249-e411-b0cc-f8bc1246af59, $GPGGA,215054.00,4437.5828,N,12402.8867,W,1,11,0.8,22.5,M,-21.8,M,,*65
2021-06-12 21:50:56Z, 6cda8203-a249-e411-b0cc-f8bc1246af59, $GPGGA,215055.00,4437.5829,N,12402.8866,W,1,11,0.8,22.7,M,-21.8,M,,*66
2021-06-12 21:50:57Z, 6cda8203-a249-e411-b0cc-f8bc1246af59, $GPGGA,215056.00,4437.5829,N,12402.8866,W,1,11,0.8,22.8,M,-21.8,M,,*6A
2021-06-12 21:50:58Z, 6cda8203-a249-e411-b0cc-f8bc1246af59, $GPGGA,215057.00,4437.5828,N,12402.8865,W,1,11,0.8,22.9,M,-21.8,M,,*68
2021-06-12 21:51:00Z, 6cda8203-a249-e411-b0cc-f8bc1246af59, $GPGGA,215058.00,4437.5829,N,12402.8864,W,1,11,0.8,22.9,M,-21.8,M,,*67
2021-06-12 21:51:01Z, 6cda8203-a249-e411-b0cc-f8bc1246af59, $GPGGA,215100.00,4437.5833,N,12402.8866,W,1,11,0.8,22.8,M,-21.8,M,,*63
2021-06-12 21:51:02Z, 6cda8203-a249-e411-b0cc-f8bc1246af59, $GPGGA,215101.00,4437.5834,N,12402.8866,W,1,11,0.8,22.7,M,-21.8,M,,*6A
2021-06-12 21:51:04Z, 6cda8203-a249-e411-b0cc-f8bc1246af59, $GPGGA,215103.00,4437.5834,N,12402.8865,W,1,11,0.8,22.6,M,-21.8,M,,*6A
2021-06-12 21:51:05Z, 6cda8203-a249-e411-b0cc-f8bc1246af59, $GPGGA,215104.00,4437.5833,N,12402.8865,W,1,11,0.8,22.5,M,-21.8,M,,*69
2021-06-12 21:51:07Z, 6cda8203-a249-e411-b0cc-f8bc1246af59, $GPGGA,215106.00,4437.5831,N,12402.8868,W,1,11,0.8,22.2,M,-21.8,M,,*63
2021-06-12 21:51:08Z, 6cda8203-a249-e411-b0cc-f8bc1246af59, $GPGGA,215107.00,4437.5828,N,12402.8873,W,1,11,0.8,22.0,M,-21.8,M,,*62
2021-06-12 21:51:10Z, 6cda8203-a249-e411-b0cc-f8bc1246af59, $GPGGA,215109.00,4437.5826,N,12402.8877,W,1,11,0.8,21.7,M,-21.8,M,,*62
2021-06-12 21:51:11Z, 6cda8203-a249-e411-b0cc-f8bc1246af59, $GPGGA,215110.00,4437.5826,N,12402.8878,W,1,11,0.8,21.6,M,-21.8,M,,*64
2021-06-12 21:51:13Z, 6cda8203-a249-e411-b0cc-f8bc1246af59, $GPGGA,215112.00,4437.5826,N,12402.8878,W,1,11,0.8,21.5,M,-21.8,M,,*65
2021-06-12 21:51:14Z, 6cda8203-a249-e411-b0cc-f8bc1246af59, $GPGGA,215113.00,4437.5824,N,12402.8878,W,1,11,0.8,21.5,M,-21.8,M,,*66
2021-06-12 21:51:16Z, 6cda8203-a249-e411-b0cc-f8bc1246af59, $GPGGA,215115.00,4437.5823,N,12402.8878,W,1,11,0.8,21.4,M,-21.8,M,,*66
2021-06-12 21:51:17Z, 6cda8203-a249-e411-b0cc-f8bc1246af59, $GPGGA,215116.00,4437.5823,N,12402.8877,W,1,11,0.8,21.4,M,-21.8,M,,*6A
2021-06-12 21:51:19Z, 6cda8203-a249-e411-b0cc-f8bc1246af59, $GPGGA,215118.00,4437.5825,N,12402.8879,W,1,11,0.8,21.4,M,-21.8,M,,*6C
2021-06-12 21:51:20Z, 6cda8203-a249-e411-b0cc-f8bc1246af59, $GPGGA,215119.00,4437.5826,N,12402.8880,W,1,11,0.8,21.4,M,-21.8,M,,*68
2021-06-12 21:51:22Z, 6cda8203-a249-e411-b0cc-f8bc1246af59, $GPGGA,215121.00,4437.5829,N,12402.8879,W,1,11,0.8,21.1,M,-21.8,M,,*6F
2021-06-12 21:51:23Z, 6cda8203-a249-e411-b0cc-f8bc1246af59, $GPGGA,215122.00,4437.5831,N,12402.8880,W,1,11,0.8,21.0,M,-21.8,M,,*62
2021-06-12 21:51:25Z, 6cda8203-a249-e411-b0cc-f8bc1246af59, $GPGGA,215124.00,4437.5833,N,12402.8882,W,1,11,0.8,20.6,M,-21.8,M,,*63
2021-06-12 21:51:26Z, 6cda8203-a249-e411-b0cc-f8bc1246af59, $GPGGA,215125.00,4437.5833,N,12402.8882,W,1,11,0.8,20.5,M,-21.8,M,,*61
2021-06-12 21:51:28Z, 6cda8203-a249-e411-b0cc-f8bc1246af59, $GPGGA,215127.00,4437.5835,N,12402.8883,W,1,11,0.8,20.5,M,-21.8,M,,*64
2021-06-12 21:51:29Z, 6cda8203-a249-e411-b0cc-f8bc1246af59, $GPGGA,215128.00,4437.5834,N,12402.8880,W,1,11,0.8,20.5,M,-21.8,M,,*69
2021-06-12 21:51:31Z, 6cda8203-a249-e411-b0cc-f8bc1246af59, $GPGGA,215130.00,4437.5833,N,12402.8877,W,1,11,0.8,20.5,M,-21.8,M,,*6F
2021-06-12 21:51:32Z, 6cda8203-a249-e411-b0cc-f8bc1246af59, $GPGGA,215131.00,4437.5834,N,12402.8877,W,1,11,0.8,20.4,M,-21.8,M,,*68
2021-06-12 21:51:34Z, 6cda8203-a249-e411-b0cc-f8bc1246af59, $GPGGA,215133.00,4437.5835,N,12402.8876,W,1,11,0.8,20.3,M,-21.8,M,,*6D
2021-06-12 21:51:35Z, 6cda8203-a249-e411-b0cc-f8bc1246af59, $GPGGA,215134.00,4437.5835,N,12402.8875,W,1,11,0.8,20.2,M,-21.8,M,,*68
2021-06-12 21:51:37Z, 6cda8203-a249-e411-b0cc-f8bc1246af59, $GPGGA,215136.00,4437.5836,N,12402.8871,W,1,11,0.8,20.1,M,-21.8,M,,*6E
2021-06-12 21:51:38Z, 6cda8203-a249-e411-b0cc-f8bc1246af59, $GPGGA,215137.00,4437.5836,N,12402.8868,W,1,11,0.8,20.0,M,-21.8,M,,*66
2021-06-12 21:51:40Z, 6cda8203-a249-e411-b0cc-f8bc1246af59, $GPGGA,215139.00,4437.5838,N,12402.8865,W,1,11,0.8,19.7,M,-21.8,M,,*66
2021-06-12 21:51:41Z, 6cda8203-a249-e411-b0cc-f8bc1246af59, $GPGGA,215140.00,4437.5839,N,12402.8864,W,1,11,0.8,19.6,M,-21.8,M,,*69
2021-06-12 21:51:43Z, 6cda8203-a249-e411-b0cc-f8bc1246af59, $GPGGA,215142.00,4437.5842,N,12402.8858,W,1,11,0.8,19.3,M,-21.8,M,,*6D
2021-06-12 21:51:44Z, 6cda8203-a249-e411-b0cc-f8bc1246af59, $GPGGA,215143.00,4437.5842,N,12402.8855,W,1,11,0.8,19.3,M,-21.8,M,,*61
2021-06-12 21:51:46Z, 6cda8203-a249-e411-b0cc-f8bc1246af59, $GPGGA,215145.00,4437.5843,N,12402.8850,W,1,11,0.8,19.1,M,-21.8,M,,*61
2021-06-12 21:51:47Z, 6cda8203-a249-e411-b0cc-f8bc1246af59, $GPGGA,215146.00,4437.5842,N,12402.8849,W,1,11,0.8,19.2,M,-21.8,M,,*68
2021-06-12 21:51:49Z, 6cda8203-a249-e411-b0cc-f8bc1246af59, $GPGGA,215148.00,4437.5842,N,12402.8845,W,1,11,0.8,19.2,M,-21.8,M,,*6A
2021-06-12 21:51:50Z, 6cda8203-a249-e411-b0cc-f8bc1246af59, $GPGGA,215149.00,4437.5841,N,12402.8840,W,1,11,0.8,19.2,M,-21.8,M,,*6D
2021-06-12 21:51:52Z, 6cda8203-a249-e411-b0cc-f8bc1246af59, $GPGGA,215151.00,4437.5841,N,12402.8837,W,1,11,0.8,19.1,M,-21.8,M,,*67
2021-06-12 21:51:53Z, 6cda8203-a249-e411-b0cc-f8bc1246af59, $GPGGA,215152.00,4437.5840,N,12402.8837,W,1,11,0.8,19.0,M,-21.8,M,,*64
2021-06-12 21:51:55Z, 6cda8203-a249-e411-b0cc-f8bc1246af59, $GPGGA,215154.00,4437.5838,N,12402.8836,W,1,11,0.8,19.2,M,-21.8,M,,*6E
2021-06-12 21:51:56Z, 6cda8203-a249-e411-b0cc-f8bc1246af59, $GPGGA,215155.00,4437.5839,N,12402.8833,W,1,11,0.8,19.3,M,-21.8,M,,*6A
2021-06-12 21:51:58Z, 6cda8203-a249-e411-b0cc-f8bc1246af59, $GPGGA,215157.00,4437.5846,N,12402.8833,W,1,11,0.8,18.9,M,-21.8,M,,*6B
2021-06-12 21:51:59Z, 6cda8203-a249-e411-b0cc-f8bc1246af59, $GPGGA,215158.00,4437.5844,N,12402.8832,W,1,11,0.8,18.9,M,-21.8,M,,*67
2021-06-12 21:52:01Z, 6cda8203-a249-e411-b0cc-f8bc1246af59, $GPGGA,215200.00,4437.5844,N,12402.8830,W,1,11,0.8,18.7,M,-21.8,M,,*65
2021-06-12 21:52:02Z, 6cda8203-a249-e411-b0cc-f8bc1246af59, $GPGGA,215201.00,4437.5845,N,12402.8831,W,1,11,0.8,18.7,M,-21.8,M,,*64
2021-06-12 21:52:04Z, 6cda8203-a249-e411-b0cc-f8bc1246af59, $GPGGA,215203.00,4437.5845,N,12402.8831,W,1,11,0.8,18.9,M,-21.8,M,,*68
2021-06-12 21:52:05Z, 6cda8203-a249-e411-b0cc-f8bc1246af59, $GPGGA,215204.00,4437.5846,N,12402.8829,W,1,11,0.8,18.9,M,-21.8,M,,*65
2021-06-12 21:52:07Z, 6cda8203-a249-e411-b0cc-f8bc1246af59, $GPGGA,215206.00,4437.5847,N,12402.8828,W,1,11,0.8,18.8,M,-21.8,M,,*66
2021-06-12 21:52:08Z, 6cda8203-a249-e411-b0cc-f8bc1246af59, $GPGGA,215207.00,4437.5847,N,12402.8828,W,1,11,0.8,18.7,M,-21.8,M,,*68
2021-06-12 21:52:10Z, 6cda8203-a249-e411-b0cc-f8bc1246af59, $GPGGA,215209.00,4437.5848,N,12402.8825,W,1,11,0.8,18.6,M,-21.8,M,,*65
2021-06-12 21:52:11Z, 6cda8203-a249-e411-b0cc-f8bc1246af59, $GPGGA,215210.00,4437.5847,N,12402.8826,W,1,11,0.8,18.7,M,-21.8,M,,*60
2021-06-12 21:52:13Z, 6cda8203-a249-e411-b0cc-f8bc1246af59, $GPGGA,215212.00,4437.5846,N,12402.8825,W,1,11,0.8,18.8,M,-21.8,M,,*6F
2021-06-12 21:52:14Z, 6cda8203-a249-e411-b0cc-f8bc1246af59, $GPGGA,215213.00,4437.5846,N,12402.8827,W,1,11,0.8,18.8,M,-21.8,M,,*6C
2021-06-12 21:52:16Z, 6cda8203-a249-e411-b0cc-f8bc1246af59, $GPGGA,215215.00,4437.5847,N,12402.8832,W,1,11,0.8,18.9,M,-21.8,M,,*6E
2021-06-12 21:52:17Z, 6cda8203-a249-e411-b0cc-f8bc1246af59, $GPGGA,215216.00,4437.5849,N,12402.8834,W,1,11,0.8,18.9,M,-21.8,M,,*65
2021-06-12 21:52:19Z, 6cda8203-a249-e411-b0cc-f8bc1246af59, $GPGGA,215218.00,4437.5853,N,12402.8838,W,1,11,0.8,19.0,M,-21.8,M,,*64
2021-06-12 21:52:20Z, 6cda8203-a249-e411-b0cc-f8bc1246af59, $GPGGA,215219.00,4437.5854,N,12402.8838,W,1,11,0.8,19.1,M,-21.8,M,,*63
2021-06-12 21:52:22Z, 6cda8203-a249-e411-b0cc-f8bc1246af59, $GPGGA,215221.00,4437.5856,N,12402.8840,W,1,11,0.8,19.3,M,-21.8,M,,*67
2021-06-12 21:52:23Z, 6cda8203-a249-e411-b0cc-f8bc1246af59, $GPGGA,215222.00,4437.5856,N,12402.8841,W,1,11,0.8,19.3,M,-21.8,M,,*65
2021-06-12 21:52:25Z, 6cda8203-a249-e411-b0cc-f8bc1246af59, $GPGGA,215224.00,4437.5855,N,12402.8843,W,1,11,0.8,19.7,M,-21.8,M,,*66
2021-06-12 21:52:26Z, 6cda8203-a249-e411-b0cc-f8bc1246af59, $GPGGA,215225.00,4437.5856,N,12402.8843,W,1,11,0.8,19.8,M,-21.8,M,,*6B
2021-06-12 21:52:28Z, 6cda8203-a249-e411-b0cc-f8bc1246af59, $GPGGA,215227.00,4437.5856,N,12402.8840,W,1,11,0.8,19.8,M,-21.8,M,,*6A
2021-06-12 21:52:29Z, 6cda8203-a249-e411-b0cc-f8bc1246af59, $GPGGA,215228.00,4437.5857,N,12402.8840,W,1,11,0.8,19.8,M,-21.8,M,,*64
2021-06-12 21:52:31Z, 6cda8203-a249-e411-b0cc-f8bc1246af59, $GPGGA,215230.00,4437.5855,N,12402.8840,W,1,11,0.8,19.7,M,-21.8,M,,*60
2021-06-12 21:52:32Z, 6cda8203-a249-e411-b0cc-f8bc1246af59, $GPGGA,215231.00,4437.5854,N,12402.8842,W,1,11,0.8,19.6,M,-21.8,M,,*63
2021-06-12 21:52:34Z, 6cda8203-a249-e411-b0cc-f8bc1246af59, $GPGGA,215233.00,4437.5854,N,12402.8841,W,1,11,0.8,19.4,M,-21.8,M,,*60
2021-06-12 21:52:35Z, 6cda8203-a249-e411-b0cc-f8bc1246af59, $GPGGA,215234.00,4437.5856,N,12402.8841,W,1,11,0.8,19.3,M,-21.8,M,,*62
2021-06-12 21:52:37Z, 6cda8203-a249-e411-b0cc-f8bc1246af59, $GPGGA,215236.00,4437.5855,N,12402.8839,W,1,11,0.8,19.3,M,-21.8,M,,*6C
2021-06-12 21:52:38Z, 6cda8203-a249-e411-b0cc-f8bc1246af59, $GPGGA,215237.00,4437.5856,N,12402.8840,W,1,11,0.8,19.4,M,-21.8,M,,*67
2021-06-12 21:52:40Z, 6cda8203-a249-e411-b0cc-f8bc1246af59, $GPGGA,215239.00,4437.5860,N,12402.8835,W,1,11,0.8,19.3,M,-21.8,M,,*69
2021-06-12 21:52:41Z, 6cda8203-a249-e411-b0cc-f8bc1246af59, $GPGGA,215240.00,4437.5860,N,12402.8833,W,1,11,0.8,19.3,M,-21.8,M,,*61
2021-06-12 21:52:43Z, 6cda8203-a249-e411-b0cc-f8bc1246af59, $GPGGA,215242.00,4437.5860,N,12402.8827,W,1,11,0.8,19.4,M,-21.8,M,,*61
2021-06-12 21:52:44Z, 6cda8203-a249-e411-b0cc-f8bc1246af59, $GPGGA,215243.00,4437.5860,N,12402.8825,W,1,11,0.8,19.3,M,-21.8,M,,*65
2021-06-12 21:52:46Z, 6cda8203-a249-e411-b0cc-f8bc1246af59, $GPGGA,215245.00,4437.5863,N,12402.8821,W,1,11,0.8,19.3,M,-21.8,M,,*64
2021-06-12 21:52:47Z, 6cda8203-a249-e411-b0cc-f8bc1246af59, $GPGGA,215246.00,4437.5862,N,12402.8818,W,1,11,0.8,19.2,M,-21.8,M,,*6D
2021-06-12 21:52:49Z, 6cda8203-a249-e411-b0cc-f8bc1246af59, $GPGGA,215248.00,4437.5862,N,12402.8817,W,1,11,0.8,19.4,M,-21.8,M,,*6A
2021-06-12 21:52:50Z, 6cda8203-a249-e411-b0cc-f8bc1246af59, $GPGGA,215249.00,4437.5862,N,12402.8816,W,1,11,0.8,19.4,M,-21.8,M,,*6A
2021-06-12 21:52:52Z, 6cda8203-a249-e411-b0cc-f8bc1246af59, $GPGGA,215251.00,4437.5862,N,12402.8811,W,1,11,0.8,19.4,M,-21.8,M,,*64
2021-06-12 21:52:53Z, 6cda8203-a249-e411-b0cc-f8bc1246af59, $GPGGA,215252.00,4437.5864,N,12402.8812,W,1,11,0.8,19.5,M,-21.8,M,,*63
2021-06-12 21:52:55Z, 6cda8203-a249-e411-b0cc-f8bc1246af59, $GPGGA,215254.00,4437.5861,N,12402.8814,W,1,11,0.8,19.5,M,-21.8,M,,*66
2021-06-12 21:52:56Z, 6cda8203-a249-e411-b0cc-f8bc1246af59, $GPGGA,215255.00,4437.5859,N,12402.8815,W,1,11,0.8,19.5,M,-21.8,M,,*6D
2021-06-12 21:52:58Z, 6cda8203-a249-e411-b0cc-f8bc1246af59, $GPGGA,215257.00,4437.5856,N,12402.8816,W,1,11,0.8,19.5,M,-21.8,M,,*63
2021-06-12 21:52:59Z, 6cda8203-a249-e411-b0cc-f8bc1246af59, $GPGGA,215258.00,4437.5857,N,12402.8817,W,1,11,0.8,19.6,M,-21.8,M,,*6F
2021-06-12 21:52:59Z, 6cda8203-a249-e411-b0cc-f8bc1246af59, $GPGGA,215259.00,4437.5858,N,12402.8815,W,1,11,0.8,19.6,M,-21.8,M,,*63
2021-06-12 21:53:02Z, 6cda8203-a249-e411-b0cc-f8bc1246af59, $GPGGA,215300.00,4437.5858,N,12402.8816,W,1,11,0.8,19.7,M,-21.8,M,,*6C
2021-06-12 21:53:02Z, 6cda8203-a249-e411-b0cc-f8bc1246af59, $GPGGA,215301.00,4437.5858,N,12402.8818,W,1,11,0.8,19.8,M,-21.8,M,,*6C
2021-06-12 21:53:03Z, 6cda8203-a249-e411-b0cc-f8bc1246af59, $GPGGA,215302.00,4437.5858,N,12402.8821,W,1,11,0.8,19.8,M,-21.8,M,,*65
2021-06-12 21:53:04Z, 6cda8203-a249-e411-b0cc-f8bc1246af59, $GPGGA,215303.00,4437.5858,N,12402.8823,W,1,11,0.8,19.9,M,-21.8,M,,*67
2021-06-12 21:53:06Z, 6cda8203-a249-e411-b0cc-f8bc1246af59, $GPGGA,215305.00,4437.5857,N,12402.8826,W,1,11,0.8,19.8,M,-21.8,M,,*6A
2021-06-12 21:53:08Z, 6cda8203-a249-e411-b0cc-f8bc1246af59, $GPGGA,215306.00,4437.5858,N,12402.8827,W,1,11,0.8,19.8,M,-21.8,M,,*67
2021-06-12 21:53:09Z, 6cda8203-a249-e411-b0cc-f8bc1246af59, $GPGGA,215308.00,4437.5859,N,12402.8827,W,1,11,0.8,19.8,M,-21.8,M,,*68
2021-06-12 21:53:11Z, 6cda8203-a249-e411-b0cc-f8bc1246af59, $GPGGA,215309.00,4437.5858,N,12402.8826,W,1,11,0.8,19.7,M,-21.8,M,,*66
2021-06-12 21:53:12Z, 6cda8203-a249-e411-b0cc-f8bc1246af59, $GPGGA,215311.00,4437.5857,N,12402.8826,W,1,11,0.8,19.6,M,-21.8,M,,*61
2021-06-12 21:53:14Z, 6cda8203-a249-e411-b0cc-f8bc1246af59, $GPGGA,215312.00,4437.5857,N,12402.8824,W,1,11,0.8,19.5,M,-21.8,M,,*63
2021-06-12 21:53:15Z, 6cda8203-a249-e411-b0cc-f8bc1246af59, $GPGGA,215314.00,4437.5857,N,12402.8821,W,1,11,0.8,19.4,M,-21.8,M,,*61
2021-06-12 21:53:16Z, 6cda8203-a249-e411-b0cc-f8bc1246af59, $GPGGA,215315.00,4437.5858,N,12402.8820,W,1,11,0.8,19.4,M,-21.8,M,,*6E
2021-06-12 21:53:18Z, 6cda8203-a249-e411-b0cc-f8bc1246af59, $GPGGA,215317.00,4437.5855,N,12402.8817,W,1,11,0.8,19.5,M,-21.8,M,,*64
2021-06-12 21:53:19Z, 6cda8203-a249-e411-b0cc-f8bc1246af59, $GPGGA,215318.00,4437.5856,N,12402.8817,W,1,11,0.8,19.6,M,-21.8,M,,*6B
2021-06-12 21:53:21Z, 6cda8203-a249-e411-b0cc-f8bc1246af59, $GPGGA,215320.00,4437.5854,N,12402.8815,W,1,11,0.8,19.7,M,-21.8,M,,*61
2021-06-12 21:53:22Z, 6cda8203-a249-e411-b0cc-f8bc1246af59, $GPGGA,215321.00,4437.5853,N,12402.8817,W,1,11,0.8,19.7,M,-21.8,M,,*65
2021-06-12 21:53:24Z, 6cda8203-a249-e411-b0cc-f8bc1246af59, $GPGGA,215323.00,4437.5852,N,12402.8816,W,1,11,0.8,19.9,M,-21.8,M,,*69
2021-06-12 21:53:25Z, 6cda8203-a249-e411-b0cc-f8bc1246af59, $GPGGA,215324.00,4437.5851,N,12402.8815,W,1,11,0.8,19.9,M,-21.8,M,,*6E
2021-06-12 21:53:27Z, 6cda8203-a249-e411-b0cc-f8bc1246af59, $GPGGA,215326.00,4437.5850,N,12402.8820,W,1,11,0.8,20.0,M,-21.8,M,,*68
2021-06-12 21:53:28Z, 6cda8203-a249-e411-b0cc-f8bc1246af59, $GPGGA,215327.00,4437.5849,N,12402.8821,W,1,11,0.8,20.1,M,-21.8,M,,*61
2021-06-12 21:53:30Z, 6cda8203-a249-e411-b0cc-f8bc1246af59, $GPGGA,215329.00,4437.5847,N,12402.8823,W,1,11,0.8,20.2,M,-21.8,M,,*60
2021-06-12 21:53:31Z, 6cda8203-a249-e411-b0cc-f8bc1246af59, $GPGGA,215330.00,4437.5846,N,12402.8826,W,1,11,0.8,20.4,M,-21.8,M,,*6A
2021-06-12 21:53:33Z, 6cda8203-a249-e411-b0cc-f8bc1246af59, $GPGGA,215332.00,4437.5844,N,12402.8831,W,1,11,0.8,20.4,M,-21.8,M,,*6C
2021-06-12 21:53:34Z, 6cda8203-a249-e411-b0cc-f8bc1246af59, $GPGGA,215333.00,4437.5845,N,12402.8832,W,1,11,0.8,20.6,M,-21.8,M,,*6D
2021-06-12 21:53:36Z, 6cda8203-a249-e411-b0cc-f8bc1246af59, $GPGGA,215335.00,4437.5843,N,12402.8833,W,1,11,0.8,20.8,M,-21.8,M,,*62
2021-06-12 21:53:37Z, 6cda8203-a249-e411-b0cc-f8bc1246af59, $GPGGA,215336.00,4437.5842,N,12402.8834,W,1,11,0.8,20.9,M,-21.8,M,,*66
2021-06-12 21:53:39Z, 6cda8203-a249-e411-b0cc-f8bc1246af59, $GPGGA,215338.00,4437.5842,N,12402.8835,W,1,11,0.8,20.9,M,-21.8,M,,*69
2021-06-12 21:53:40Z, 6cda8203-a249-e411-b0cc-f8bc1246af59, $GPGGA,215339.00,4437.5841,N,12402.8840,W,1,11,0.8,21.1,M,-21.8,M,,*60
2021-06-12 21:53:42Z, 6cda8203-a249-e411-b0cc-f8bc1246af59, $GPGGA,215341.00,4437.5841,N,12402.8845,W,1,11,0.8,21.3,M,-21.8,M,,*68
2021-06-12 21:53:43Z, 6cda8203-a249-e411-b0cc-f8bc1246af59, $GPGGA,215342.00,4437.5843,N,12402.8845,W,1,11,0.8,21.4,M,-21.8,M,,*6E
2021-06-12 21:53:45Z, 6cda8203-a249-e411-b0cc-f8bc1246af59, $GPGGA,215344.00,4437.5843,N,12402.8848,W,1,11,0.8,21.5,M,-21.8,M,,*64
2021-06-12 21:53:46Z, 6cda8203-a249-e411-b0cc-f8bc1246af59, $GPGGA,215345.00,4437.5843,N,12402.8848,W,1,11,0.8,21.5,M,-21.8,M,,*65
2021-06-12 21:53:48Z, 6cda8203-a249-e411-b0cc-f8bc1246af59, $GPGGA,215347.00,4437.5843,N,12402.8849,W,1,11,0.8,21.5,M,-21.8,M,,*66
2021-06-12 21:53:49Z, 6cda8203-a249-e411-b0cc-f8bc1246af59, $GPGGA,215348.00,4437.5844,N,12402.8848,W,1,11,0.8,21.5,M,-21.8,M,,*6F
2021-06-12 21:53:51Z, 6cda8203-a249-e411-b0cc-f8bc1246af59, $GPGGA,215350.00,4437.5844,N,12402.8848,W,1,11,0.8,21.4,M,-21.8,M,,*67
2021-06-12 21:53:52Z, 6cda8203-a249-e411-b0cc-f8bc1246af59, $GPGGA,215351.00,4437.5842,N,12402.8848,W,1,11,0.8,21.3,M,-21.8,M,,*67
2021-06-12 21:53:54Z, 6cda8203-a249-e411-b0cc-f8bc1246af59, $GPGGA,215353.00,4437.5839,N,12402.8845,W,1,11,0.8,21.3,M,-21.8,M,,*64
2021-06-12 21:53:55Z, 6cda8203-a249-e411-b0cc-f8bc1246af59, $GPGGA,215354.00,4437.5843,N,12402.8848,W,1,11,0.8,20.8,M,-21.8,M,,*69
2021-06-12 21:53:57Z, 6cda8203-a249-e411-b0cc-f8bc1246af59, $GPGGA,215356.00,4437.5843,N,12402.8853,W,1,11,0.8,21.1,M,-21.8,M,,*69
2021-06-12 21:53:58Z, 6cda8203-a249-e411-b0cc-f8bc1246af59, $GPGGA,215357.00,4437.5845,N,12402.8851,W,1,11,0.8,21.3,M,-21.8,M,,*6E
2021-06-12 21:54:00Z, 6cda8203-a249-e411-b0cc-f8bc1246af59, $GPGGA,215359.00,4437.5843,N,12402.8845,W,1,11,0.8,21.7,M,-21.8,M,,*67
2021-06-12 21:54:01Z, 6cda8203-a249-e411-b0cc-f8bc1246af59, $GPGGA,215400.00,4437.5845,N,12402.8841,W,1,11,0.8,21.6,M,-21.8,M,,*6F
2021-06-12 21:54:03Z, 6cda8203-a249-e411-b0cc-f8bc1246af59, $GPGGA,215402.00,4437.5846,N,12402.8837,W,1,11,0.8,22.0,M,-21.8,M,,*6A
2021-06-12 21:54:04Z, 6cda8203-a249-e411-b0cc-f8bc1246af59, $GPGGA,215403.00,4437.5845,N,12402.8833,W,1,11,0.8,22.1,M,-21.8,M,,*6D
2021-06-12 21:54:06Z, 6cda8203-a249-e411-b0cc-f8bc1246af59, $GPGGA,215405.00,4437.5847,N,12402.8818,W,1,11,0.8,22.9,M,-21.8,M,,*68
2021-06-12 21:54:07Z, 6cda8203-a249-e411-b0cc-f8bc1246af59, $GPGGA,215406.00,4437.5850,N,12402.8812,W,1,11,0.8,23.3,M,-21.8,M,,*6C
2021-06-12 21:54:09Z, 6cda8203-a249-e411-b0cc-f8bc1246af59, $GPGGA,215408.00,4437.5849,N,12402.8814,W,1,11,0.8,23.4,M,-21.8,M,,*6B
2021-06-12 21:54:10Z, 6cda8203-a249-e411-b0cc-f8bc1246af59, $GPGGA,215409.00,4437.5848,N,12402.8816,W,1,11,0.8,23.4,M,-21.8,M,,*69
2021-06-12 21:54:12Z, 6cda8203-a249-e411-b0cc-f8bc1246af59, $GPGGA,215411.00,4437.5849,N,12402.8820,W,1,11,0.8,23.6,M,-21.8,M,,*66
2021-06-12 21:54:13Z, 6cda8203-a249-e411-b0cc-f8bc1246af59, $GPGGA,215412.00,4437.5850,N,12402.8823,W,1,11,0.8,23.8,M,-21.8,M,,*60
2021-06-12 21:54:15Z, 6cda8203-a249-e411-b0cc-f8bc1246af59, $GPGGA,215414.00,4437.5849,N,12402.8827,W,1,11,0.8,23.8,M,-21.8,M,,*6A
2021-06-12 21:54:16Z, 6cda8203-a249-e411-b0cc-f8bc1246af59, $GPGGA,215415.00,4437.5850,N,12402.8826,W,1,11,0.8,23.6,M,-21.8,M,,*6C
2021-06-12 21:54:18Z, 6cda8203-a249-e411-b0cc-f8bc1246af59, $GPGGA,215417.00,4437.5850,N,12402.8833,W,1,11,0.8,23.6,M,-21.8,M,,*6A
2021-06-12 21:54:19Z, 6cda8203-a249-e411-b0cc-f8bc1246af59, $GPGGA,215418.00,4437.5851,N,12402.8835,W,1,11,0.8,23.6,M,-21.8,M,,*62
2021-06-12 21:54:21Z, 6cda8203-a249-e411-b0cc-f8bc1246af59, $GPGGA,215420.00,4437.5847,N,12402.8844,W,1,11,0.8,24.3,M,-21.8,M,,*6A
2021-06-12 21:54:22Z, 6cda8203-a249-e411-b0cc-f8bc1246af59, $GPGGA,215421.00,4437.5847,N,12402.8843,W,1,11,0.8,24.3,M,-21.8,M,,*6C
2021-06-12 21:54:24Z, 6cda8203-a249-e411-b0cc-f8bc1246af59, $GPGGA,215423.00,4437.5846,N,12402.8844,W,1,11,0.8,24.6,M,-21.8,M,,*6D
2021-06-12 21:54:25Z, 6cda8203-a249-e411-b0cc-f8bc1246af59, $GPGGA,215424.00,4437.5845,N,12402.8845,W,1,11,0.8,24.8,M,-21.8,M,,*66
2021-06-12 21:54:27Z, 6cda8203-a249-e411-b0cc-f8bc1246af59, $GPGGA,215426.00,4437.5845,N,12402.8848,W,1,11,0.8,25.0,M,-21.8,M,,*60
2021-06-12 21:54:28Z, 6cda8203-a249-e411-b0cc-f8bc1246af59, $GPGGA,215427.00,4437.5845,N,12402.8847,W,1,11,0.8,25.1,M,-21.8,M,,*6F
2021-06-12 21:54:30Z, 6cda8203-a249-e411-b0cc-f8bc1246af59, $GPGGA,215429.00,4437.5846,N,12402.8849,W,1,11,0.8,25.4,M,-21.8,M,,*69
2021-06-12 21:54:31Z, 6cda8203-a249-e411-b0cc-f8bc1246af59, $GPGGA,215430.00,4437.5847,N,12402.8850,W,1,11,0.8,25.5,M,-21.8,M,,*69
2021-06-12 21:54:33Z, 6cda8203-a249-e411-b0cc-f8bc1246af59, $GPGGA,215432.00,4437.5849,N,12402.8855,W,1,11,0.8,25.8,M,-21.8,M,,*6D
2021-06-12 21:54:34Z, 6cda8203-a249-e411-b0cc-f8bc1246af59, $GPGGA,215433.00,4437.5850,N,12402.8857,W,1,11,0.8,25.9,M,-21.8,M,,*67
2021-06-12 21:54:36Z, 6cda8203-a249-e411-b0cc-f8bc1246af59, $GPGGA,215435.00,4437.5849,N,12402.8855,W,1,11,0.8,26.1,M,-21.8,M,,*60
2021-06-12 21:54:37Z, 6cda8203-a249-e411-b0cc-f8bc1246af59, $GPGGA,215436.00,4437.5850,N,12402.8852,W,1,11,0.8,26.1,M,-21.8,M,,*6C
2021-06-12 21:54:39Z, 6cda8203-a249-e411-b0cc-f8bc1246af59, $GPGGA,215438.00,4437.5852,N,12402.8850,W,1,11,0.8,26.3,M,-21.8,M,,*60
2021-06-12 21:54:40Z, 6cda8203-a249-e411-b0cc-f8bc1246af59, $GPGGA,215439.00,4437.5853,N,12402.8851,W,1,11,0.8,26.3,M,-21.8,M,,*61
2021-06-12 21:54:42Z, 6cda8203-a249-e411-b0cc-f8bc1246af59, $GPGGA,215441.00,4437.5855,N,12402.8847,W,1,11,0.8,26.5,M,-21.8,M,,*69
2021-06-12 21:54:43Z, 6cda8203-a249-e411-b0cc-f8bc1246af59, $GPGGA,215442.00,4437.5856,N,12402.8845,W,1,11,0.8,26.5,M,-21.8,M,,*6B
2021-06-12 21:54:45Z, 6cda8203-a249-e411-b0cc-f8bc1246af59, $GPGGA,215444.00,4437.5856,N,12402.8843,W,1,11,0.8,26.6,M,-21.8,M,,*68
2021-06-12 21:54:46Z, 6cda8203-a249-e411-b0cc-f8bc1246af59, $GPGGA,215445.00,4437.5856,N,12402.8841,W,1,11,0.8,26.6,M,-21.8,M,,*6B
2021-06-12 21:54:48Z, 6cda8203-a249-e411-b0cc-f8bc1246af59, $GPGGA,215447.00,4437.5858,N,12402.8838,W,1,11,0.8,26.7,M,-21.8,M,,*68
2021-06-12 21:54:49Z, 6cda8203-a249-e411-b0cc-f8bc1246af59, $GPGGA,215448.00,4437.5859,N,12402.8837,W,1,11,0.8,26.8,M,-21.8,M,,*66
2021-06-12 21:54:51Z, 6cda8203-a249-e411-b0cc-f8bc1246af59, $GPGGA,215450.00,4437.5860,N,12402.8834,W,1,11,0.8,26.7,M,-21.8,M,,*69
2021-06-12 21:54:52Z, 6cda8203-a249-e411-b0cc-f8bc1246af59, $GPGGA,215451.00,4437.5860,N,12402.8833,W,1,11,0.8,26.7,M,-21.8,M,,*6F
2021-06-12 21:54:54Z, 6cda8203-a249-e411-b0cc-f8bc1246af59, $GPGGA,215453.00,4437.5857,N,12402.8836,W,1,11,0.8,26.8,M,-21.8,M,,*63
2021-06-12 21:54:55Z, 6cda8203-a249-e411-b0cc-f8bc1246af59, $GPGGA,215454.00,4437.5854,N,12402.8838,W,1,11,0.8,26.9,M,-21.8,M,,*68
2021-06-12 21:54:57Z, 6cda8203-a249-e411-b0cc-f8bc1246af59, $GPGGA,215456.00,4437.5851,N,12402.8842,W,1,11,0.8,27.0,M,-21.8,M,,*6A
2021-06-12 21:54:58Z, 6cda8203-a249-e411-b0cc-f8bc1246af59, $GPGGA,215457.00,4437.5849,N,12402.8843,W,1,11,0.8,27.0,M,-21.8,M,,*63
2021-06-12 21:55:00Z, 6cda8203-a249-e411-b0cc-f8bc1246af59, $GPGGA,215459.00,4437.5847,N,12402.8843,W,1,11,0.8,26.9,M,-21.8,M,,*6B
2021-06-12 21:55:01Z, 6cda8203-a249-e411-b0cc-f8bc1246af59, $GPGGA,215500.00,4437.5848,N,12402.8843,W,1,11,0.8,26.9,M,-21.8,M,,*69
2021-06-12 21:55:03Z, 6cda8203-a249-e411-b0cc-f8bc1246af59, $GPGGA,215502.00,4437.5846,N,12402.8844,W,1,11,0.8,26.9,M,-21.8,M,,*62
2021-06-12 21:55:04Z, 6cda8203-a249-e411-b0cc-f8bc1246af59, $GPGGA,215503.00,4437.5844,N,12402.8841,W,1,11,0.8,26.9,M,-21.8,M,,*64
2021-06-12 21:55:04Z, 6cda8203-a249-e411-b0cc-f8bc1246af59, $GPGGA,215504.00,4437.5844,N,12402.8841,W,1,11,0.8,27.0,M,-21.8,M,,*6B
2021-06-12 21:55:06Z, 6cda8203-a249-e411-b0cc-f8bc1246af59, $GPGGA,215505.00,4437.5843,N,12402.8841,W,1,11,0.8,26.9,M,-21.8,M,,*65
2021-06-12 21:55:07Z, 6cda8203-a249-e411-b0cc-f8bc1246af59, $GPGGA,215506.00,4437.5843,N,12402.8843,W,1,11,0.8,27.1,M,-21.8,M,,*6D
2021-06-12 21:55:08Z, 6cda8203-a249-e411-b0cc-f8bc1246af59, $GPGGA,215507.00,4437.5844,N,12402.8841,W,1,11,0.8,27.0,M,-21.8,M,,*68
2021-06-12 21:55:09Z, 6cda8203-a249-e411-b0cc-f8bc1246af59, $GPGGA,215508.00,4437.5843,N,12402.8842,W,1,11,0.8,27.1,M,-21.8,M,,*62
2021-06-12 21:55:11Z, 6cda8203-a249-e411-b0cc-f8bc1246af59, $GPGGA,215510.00,4437.5844,N,12402.8841,W,1,11,0.8,26.9,M,-21.8,M,,*66
2021-06-12 21:55:12Z, 6cda8203-a249-e411-b0cc-f8bc1246af59, $GPGGA,215511.00,4437.5843,N,12402.8842,W,1,11,0.8,26.9,M,-21.8,M,,*63
2021-06-12 21:55:14Z, 6cda8203-a249-e411-b0cc-f8bc1246af59, $GPGGA,215513.00,4437.5843,N,12402.8842,W,1,11,0.8,26.8,M,-21.8,M,,*60
2021-06-12 21:55:15Z, 6cda8203-a249-e411-b0cc-f8bc1246af59, $GPGGA,215514.00,4437.5843,N,12402.8841,W,1,11,0.8,26.7,M,-21.8,M,,*6B
2021-06-12 21:55:17Z, 6cda8203-a249-e411-b0cc-f8bc1246af59, $GPGGA,215516.00,4437.5842,N,12402.8846,W,1,11,0.8,26.5,M,-21.8,M,,*6D
2021-06-12 21:55:18Z, 6cda8203-a249-e411-b0cc-f8bc1246af59, $GPGGA,215517.00,4437.5842,N,12402.8848,W,1,11,0.8,26.4,M,-21.8,M,,*63
2021-06-12 21:55:20Z, 6cda8203-a249-e411-b0cc-f8bc1246af59, $GPGGA,215519.00,4437.5843,N,12402.8851,W,1,11,0.8,26.4,M,-21.8,M,,*64
2021-06-12 21:55:21Z, 6cda8203-a249-e411-b0cc-f8bc1246af59, $GPGGA,215520.00,4437.5844,N,12402.8851,W,1,11,0.8,26.4,M,-21.8,M,,*69
2021-06-12 21:55:23Z, 6cda8203-a249-e411-b0cc-f8bc1246af59, $GPGGA,215522.00,4437.5847,N,12402.8853,W,1,11,0.8,26.4,M,-21.8,M,,*6A
2021-06-12 21:55:24Z, 6cda8203-a249-e411-b0cc-f8bc1246af59, $GPGGA,215523.00,4437.5848,N,12402.8852,W,1,11,0.8,26.3,M,-21.8,M,,*62
2021-06-12 21:55:26Z, 6cda8203-a249-e411-b0cc-f8bc1246af59, $GPGGA,215525.00,4437.5845,N,12402.8849,W,1,11,0.8,26.3,M,-21.8,M,,*63
2021-06-12 21:55:27Z, 6cda8203-a249-e411-b0cc-f8bc1246af59, $GPGGA,215526.00,4437.5846,N,12402.8850,W,1,11,0.8,26.4,M,-21.8,M,,*6C
2021-06-12 21:55:29Z, 6cda8203-a249-e411-b0cc-f8bc1246af59, $GPGGA,215528.00,4437.5846,N,12402.8850,W,1,11,0.8,26.4,M,-21.8,M,,*62
2021-06-12 21:55:30Z, 6cda8203-a249-e411-b0cc-f8bc1246af59, $GPGGA,215529.00,4437.5847,N,12402.8850,W,1,11,0.8,26.5,M,-21.8,M,,*63
2021-06-12 21:55:32Z, 6cda8203-a249-e411-b0cc-f8bc1246af59, $GPGGA,215531.00,4437.5848,N,12402.8852,W,1,11,0.8,26.5,M,-21.8,M,,*67
2021-06-12 21:55:33Z, 6cda8203-a249-e411-b0cc-f8bc1246af59, $GPGGA,215532.00,4437.5849,N,12402.8851,W,1,11,0.8,26.5,M,-21.8,M,,*66
2021-06-12 21:55:35Z, 6cda8203-a249-e411-b0cc-f8bc1246af59, $GPGGA,215534.00,4437.5848,N,12402.8856,W,1,11,0.8,26.3,M,-21.8,M,,*60
2021-06-12 21:55:36Z, 6cda8203-a249-e411-b0cc-f8bc1246af59, $GPGGA,215535.00,4437.5847,N,12402.8855,W,1,11,0.8,26.4,M,-21.8,M,,*6A
2021-06-12 21:55:38Z, 6cda8203-a249-e411-b0cc-f8bc1246af59, $GPGGA,215537.00,4437.5849,N,12402.8857,W,1,11,0.8,26.6,M,-21.8,M,,*66
2021-06-12 21:55:39Z, 6cda8203-a249-e411-b0cc-f8bc1246af59, $GPGGA,215538.00,4437.5850,N,12402.8859,W,1,11,0.8,26.7,M,-21.8,M,,*6E
2021-06-12 21:55:41Z, 6cda8203-a249-e411-b0cc-f8bc1246af59, $GPGGA,215540.00,4437.5849,N,12402.8859,W,1,11,0.8,26.7,M,-21.8,M,,*69
2021-06-12 21:55:42Z, 6cda8203-a249-e411-b0cc-f8bc1246af59, $GPGGA,215541.00,4437.5849,N,12402.8860,W,1,11,0.8,26.6,M,-21.8,M,,*63
2021-06-12 21:55:44Z, 6cda8203-a249-e411-b0cc-f8bc1246af59, $GPGGA,215543.00,4437.5849,N,12402.8861,W,1,11,0.8,26.4,M,-21.8,M,,*62
2021-06-12 21:55:45Z, 6cda8203-a249-e411-b0cc-f8bc1246af59, $GPGGA,215544.00,4437.5848,N,12402.8861,W,1,11,0.8,26.3,M,-21.8,M,,*63
2021-06-12 21:55:47Z, 6cda8203-a249-e411-b0cc-f8bc1246af59, $GPGGA,215546.00,4437.5850,N,12402.8862,W,1,11,0.8,26.0,M,-21.8,M,,*68
2021-06-12 21:55:48Z, 6cda8203-a249-e411-b0cc-f8bc1246af59, $GPGGA,215547.00,4437.5849,N,12402.8862,W,1,11,0.8,25.9,M,-21.8,M,,*6B
2021-06-12 21:55:50Z, 6cda8203-a249-e411-b0cc-f8bc1246af59, $GPGGA,215549.00,4437.5849,N,12402.8860,W,1,11,0.8,25.8,M,-21.8,M,,*66
2021-06-12 21:55:51Z, 6cda8203-a249-e411-b0cc-f8bc1246af59, $GPGGA,215550.00,4437.5848,N,12402.8861,W,1,11,0.8,25.7,M,-21.8,M,,*61
2021-06-12 21:55:53Z, 6cda8203-a249-e411-b0cc-f8bc1246af59, $GPGGA,215552.00,4437.5847,N,12402.8858,W,1,11,0.8,25.7,M,-21.8,M,,*66
2021-06-12 21:55:54Z, 6cda8203-a249-e411-b0cc-f8bc1246af59, $GPGGA,215553.00,4437.5846,N,12402.8857,W,1,11,0.8,25.6,M,-21.8,M,,*68
2021-06-12 21:55:56Z, 6cda8203-a249-e411-b0cc-f8bc1246af59, $GPGGA,215555.00,4437.5838,N,12402.8848,W,1,11,0.8,25.4,M,-21.8,M,,*6B
2021-06-12 21:55:57Z, 6cda8203-a249-e411-b0cc-f8bc1246af59, $GPGGA,215556.00,4437.5837,N,12402.8845,W,1,11,0.8,25.3,M,-21.8,M,,*6D
2021-06-12 21:55:59Z, 6cda8203-a249-e411-b0cc-f8bc1246af59, $GPGGA,215558.00,4437.5835,N,12402.8846,W,1,11,0.8,25.3,M,-21.8,M,,*62
2021-06-12 21:56:00Z, 6cda8203-a249-e411-b0cc-f8bc1246af59, $GPGGA,215559.00,4437.5835,N,12402.8845,W,1,11,0.8,25.1,M,-21.8,M,,*62
2021-06-12 21:56:02Z, 6cda8203-a249-e411-b0cc-f8bc1246af59, $GPGGA,215601.00,4437.5834,N,12402.8844,W,1,11,0.8,24.8,M,-21.8,M,,*64
2021-06-12 21:56:03Z, 6cda8203-a249-e411-b0cc-f8bc1246af59, $GPGGA,215602.00,4437.5833,N,12402.8844,W,1,11,0.8,24.7,M,-21.8,M,,*6F
2021-06-12 21:56:05Z, 6cda8203-a249-e411-b0cc-f8bc1246af59, $GPGGA,215604.00,4437.5833,N,12402.8843,W,1,11,0.8,24.6,M,-21.8,M,,*6F
2021-06-12 21:56:06Z, 6cda8203-a249-e411-b0cc-f8bc1246af59, $GPGGA,215605.00,4437.5835,N,12402.8841,W,1,11,0.8,24.6,M,-21.8,M,,*6A
2021-06-12 21:56:08Z, 6cda8203-a249-e411-b0cc-f8bc1246af59, $GPGGA,215607.00,4437.5833,N,12402.8833,W,1,11,0.8,24.4,M,-21.8,M,,*69
2021-06-12 21:56:09Z, 6cda8203-a249-e411-b0cc-f8bc1246af59, $GPGGA,215608.00,4437.5834,N,12402.8832,W,1,11,0.8,24.4,M,-21.8,M,,*60
2021-06-12 21:56:11Z, 6cda8203-a249-e411-b0cc-f8bc1246af59, $GPGGA,215610.00,4437.5836,N,12402.8828,W,1,11,0.8,24.3,M,-21.8,M,,*67
2021-06-12 21:56:12Z, 6cda8203-a249-e411-b0cc-f8bc1246af59, $GPGGA,215611.00,4437.5837,N,12402.8826,W,1,11,0.8,24.3,M,-21.8,M,,*69
2021-06-12 21:56:14Z, 6cda8203-a249-e411-b0cc-f8bc1246af59, $GPGGA,215613.00,4437.5838,N,12402.8826,W,1,11,0.8,24.3,M,-21.8,M,,*64
2021-06-12 21:56:15Z, 6cda8203-a249-e411-b0cc-f8bc1246af59, $GPGGA,215614.00,4437.5839,N,12402.8827,W,1,11,0.8,24.4,M,-21.8,M,,*64
2021-06-12 21:56:17Z, 6cda8203-a249-e411-b0cc-f8bc1246af59, $GPGGA,215616.00,4437.5842,N,12402.8828,W,1,11,0.8,24.3,M,-21.8,M,,*62
2021-06-12 21:56:18Z, 6cda8203-a249-e411-b0cc-f8bc1246af59, $GPGGA,215617.00,4437.5843,N,12402.8827,W,1,11,0.8,24.3,M,-21.8,M,,*6D
2021-06-12 21:56:20Z, 6cda8203-a249-e411-b0cc-f8bc1246af59, $GPGGA,215619.00,4437.5846,N,12402.8826,W,1,11,0.8,24.4,M,-21.8,M,,*60
2021-06-12 21:56:21Z, 6cda8203-a249-e411-b0cc-f8bc1246af59, $GPGGA,215620.00,4437.5848,N,12402.8826,W,1,11,0.8,24.4,M,-21.8,M,,*64
2021-06-12 21:56:23Z, 6cda8203-a249-e411-b0cc-f8bc1246af59, $GPGGA,215622.00,4437.5850,N,12402.8825,W,1,11,0.8,24.5,M,-21.8,M,,*6D
2021-06-12 21:56:24Z, 6cda8203-a249-e411-b0cc-f8bc1246af59, $GPGGA,215623.00,4437.5851,N,12402.8826,W,1,11,0.8,24.5,M,-21.8,M,,*6E
2021-06-12 21:56:26Z, 6cda8203-a249-e411-b0cc-f8bc1246af59, $GPGGA,215625.00,4437.5850,N,12402.8827,W,1,11,0.8,24.6,M,-21.8,M,,*6B
2021-06-12 21:56:27Z, 6cda8203-a249-e411-b0cc-f8bc1246af59, $GPGGA,215626.00,4437.5850,N,12402.8826,W,1,11,0.8,24.6,M,-21.8,M,,*69
2021-06-12 21:56:29Z, 6cda8203-a249-e411-b0cc-f8bc1246af59, $GPGGA,215628.00,4437.5851,N,12402.8828,W,1,11,0.8,24.7,M,-21.8,M,,*69
2021-06-12 21:56:30Z, 6cda8203-a249-e411-b0cc-f8bc1246af59, $GPGGA,215629.00,4437.5849,N,12402.8829,W,1,11,0.8,24.8,M,-21.8,M,,*6F
2021-06-12 21:56:32Z, 6cda8203-a249-e411-b0cc-f8bc1246af59, $GPGGA,215631.00,4437.5847,N,12402.8830,W,1,11,0.8,24.8,M,-21.8,M,,*60
2021-06-12 21:56:33Z, 6cda8203-a249-e411-b0cc-f8bc1246af59, $GPGGA,215632.00,4437.5847,N,12402.8829,W,1,10,0.8,24.8,M,-21.8,M,,*6A
2021-06-12 21:56:35Z, 6cda8203-a249-e411-b0cc-f8bc1246af59, $GPGGA,215634.00,4437.5849,N,12402.8832,W,1,11,0.8,24.6,M,-21.8,M,,*67
2021-06-12 21:56:36Z, 6cda8203-a249-e411-b0cc-f8bc1246af59, $GPGGA,215635.00,4437.5848,N,12402.8834,W,1,11,0.8,24.7,M,-21.8,M,,*60
2021-06-12 21:56:38Z, 6cda8203-a249-e411-b0cc-f8bc1246af59, $GPGGA,215637.00,4437.5844,N,12402.8835,W,1,11,0.8,24.4,M,-21.8,M,,*6C
2021-06-12 21:56:39Z, 6cda8203-a249-e411-b0cc-f8bc1246af59, $GPGGA,215638.00,4437.5844,N,12402.8837,W,1,11,0.8,24.4,M,-21.8,M,,*61
2021-06-12 21:56:41Z, 6cda8203-a249-e411-b0cc-f8bc1246af59, $GPGGA,215640.00,4437.5845,N,12402.8839,W,1,11,0.8,24.4,M,-21.8,M,,*61
2021-06-12 21:56:42Z, 6cda8203-a249-e411-b0cc-f8bc1246af59, $GPGGA,215641.00,4437.5845,N,12402.8839,W,1,11,0.8,24.4,M,-21.8,M,,*60
2021-06-12 21:56:44Z, 6cda8203-a249-e411-b0cc-f8bc1246af59, $GPGGA,215643.00,4437.5843,N,12402.8839,W,1,11,0.8,24.5,M,-21.8,M,,*65
2021-06-12 21:56:45Z, 6cda8203-a249-e411-b0cc-f8bc1246af59, $GPGGA,215644.00,4437.5844,N,12402.8839,W,1,11,0.8,24.5,M,-21.8,M,,*65
2021-06-12 21:56:47Z, 6cda8203-a249-e411-b0cc-f8bc1246af59, $GPGGA,215646.00,4437.5847,N,12402.8843,W,1,11,0.8,24.7,M,-21.8,M,,*6B
2021-06-12 21:56:48Z, 6cda8203-a249-e411-b0cc-f8bc1246af59, $GPGGA,215647.00,4437.5847,N,12402.8844,W,1,11,0.8,24.7,M,-21.8,M,,*6D
2021-06-12 21:56:50Z, 6cda8203-a249-e411-b0cc-f8bc1246af59, $GPGGA,215649.00,4437.5846,N,12402.8847,W,1,11,0.8,24.6,M,-21.8,M,,*60
2021-06-12 21:56:51Z, 6cda8203-a249-e411-b0cc-f8bc1246af59, $GPGGA,215650.00,4437.5845,N,12402.8846,W,1,11,0.8,24.6,M,-21.8,M,,*6A
2021-06-12 21:56:53Z, 6cda8203-a249-e411-b0cc-f8bc1246af59, $GPGGA,215652.00,4437.5843,N,12402.8847,W,1,11,0.8,24.6,M,-21.8,M,,*6F
2021-06-12 21:56:54Z, 6cda8203-a249-e411-b0cc-f8bc1246af59, $GPGGA,215653.00,4437.5843,N,12402.8848,W,1,11,0.8,24.6,M,-21.8,M,,*61
2021-06-12 21:56:56Z, 6cda8203-a249-e411-b0cc-f8bc1246af59, $GPGGA,215655.00,4437.5844,N,12402.8851,W,1,11,0.8,24.5,M,-21.8,M,,*6B
2021-06-12 21:56:57Z, 6cda8203-a249-e411-b0cc-f8bc1246af59, $GPGGA,215656.00,4437.5846,N,12402.8849,W,1,11,0.8,24.6,M,-21.8,M,,*60
2021-06-12 21:56:59Z, 6cda8203-a249-e411-b0cc-f8bc1246af59, $GPGGA,215658.00,4437.5847,N,12402.8850,W,1,11,0.8,24.7,M,-21.8,M,,*66
2021-06-12 21:57:00Z, 6cda8203-a249-e411-b0cc-f8bc1246af59, $GPGGA,215659.00,4437.5847,N,12402.8852,W,1,11,0.8,24.6,M,-21.8,M,,*64
2021-06-12 21:57:02Z, 6cda8203-a249-e411-b0cc-f8bc1246af59, $GPGGA,215701.00,4437.5845,N,12402.8851,W,1,11,0.8,24.6,M,-21.8,M,,*69
2021-06-12 21:57:03Z, 6cda8203-a249-e411-b0cc-f8bc1246af59, $GPGGA,215702.00,4437.5844,N,12402.8851,W,1,11,0.8,24.6,M,-21.8,M,,*6B
2021-06-12 21:57:05Z, 6cda8203-a249-e411-b0cc-f8bc1246af59, $GPGGA,215704.00,4437.5843,N,12402.8850,W,1,11,0.8,24.5,M,-21.8,M,,*68
2021-06-12 21:57:06Z, 6cda8203-a249-e411-b0cc-f8bc1246af59, $GPGGA,215705.00,4437.5844,N,12402.8848,W,1,11,0.8,24.4,M,-21.8,M,,*66
2021-06-12 21:57:08Z, 6cda8203-a249-e411-b0cc-f8bc1246af59, $GPGGA,215707.00,4437.5844,N,12402.8845,W,1,11,0.8,24.3,M,-21.8,M,,*6E
2021-06-12 21:57:09Z, 6cda8203-a249-e411-b0cc-f8bc1246af59, $GPGGA,215708.00,4437.5843,N,12402.8842,W,1,11,0.8,24.3,M,-21.8,M,,*61
2021-06-12 21:57:10Z, 6cda8203-a249-e411-b0cc-f8bc1246af59, $GPGGA,215709.00,4437.5844,N,12402.8840,W,1,11,0.8,24.2,M,-21.8,M,,*64
2021-06-12 21:57:11Z, 6cda8203-a249-e411-b0cc-f8bc1246af59, $GPGGA,215710.00,4437.5844,N,12402.8838,W,1,11,0.8,24.1,M,-21.8,M,,*60
2021-06-12 21:57:12Z, 6cda8203-a249-e411-b0cc-f8bc1246af59, $GPGGA,215711.00,4437.5844,N,12402.8836,W,1,11,0.8,24.1,M,-21.8,M,,*6F
2021-06-12 21:57:13Z, 6cda8203-a249-e411-b0cc-f8bc1246af59, $GPGGA,215712.00,4437.5843,N,12402.8833,W,1,11,0.8,24.0,M,-21.8,M,,*6F
2021-06-12 21:57:14Z, 6cda8203-a249-e411-b0cc-f8bc1246af59, $GPGGA,215713.00,4437.5844,N,12402.8832,W,1,11,0.8,24.0,M,-21.8,M,,*68
2021-06-12 21:57:15Z, 6cda8203-a249-e411-b0cc-f8bc1246af59, $GPGGA,215714.00,4437.5844,N,12402.8832,W,1,11,0.8,23.9,M,-21.8,M,,*61
2021-06-12 21:57:16Z, 6cda8203-a249-e411-b0cc-f8bc1246af59, $GPGGA,215715.00,4437.5842,N,12402.8834,W,1,11,0.8,23.4,M,-21.8,M,,*6D
2021-06-12 21:57:17Z, 6cda8203-a249-e411-b0cc-f8bc1246af59, $GPGGA,215716.00,4437.5841,N,12402.8833,W,1,11,0.8,23.3,M,-21.8,M,,*6D
2021-06-12 21:57:19Z, 6cda8203-a249-e411-b0cc-f8bc1246af59, $GPGGA,215718.00,4437.5840,N,12402.8832,W,1,11,0.8,23.0,M,-21.8,M,,*60
2021-06-12 21:57:20Z, 6cda8203-a249-e411-b0cc-f8bc1246af59, $GPGGA,215719.00,4437.5839,N,12402.8832,W,1,11,0.8,22.9,M,-21.8,M,,*67
2021-06-12 21:57:22Z, 6cda8203-a249-e411-b0cc-f8bc1246af59, $GPGGA,215721.00,4437.5838,N,12402.8832,W,1,11,0.8,22.8,M,-21.8,M,,*6C
2021-06-12 21:57:23Z, 6cda8203-a249-e411-b0cc-f8bc1246af59, $GPGGA,215722.00,4437.5837,N,12402.8834,W,1,12,0.8,22.8,M,-21.8,M,,*65
2021-06-12 21:57:25Z, 6cda8203-a249-e411-b0cc-f8bc1246af59, $GPGGA,215724.00,4437.5834,N,12402.8836,W,1,12,0.8,22.6,M,-21.8,M,,*6C
2021-06-12 21:57:26Z, 6cda8203-a249-e411-b0cc-f8bc1246af59, $GPGGA,215725.00,4437.5833,N,12402.8837,W,1,12,0.8,22.5,M,-21.8,M,,*68
2021-06-12 21:57:27Z, 6cda8203-a249-e411-b0cc-f8bc1246af59, $GPGGA,215726.00,4437.5832,N,12402.8835,W,1,12,0.8,22.5,M,-21.8,M,,*68
2021-06-12 21:57:28Z, 6cda8203-a249-e411-b0cc-f8bc1246af59, $GPGGA,215727.00,4437.5831,N,12402.8836,W,1,12,0.8,22.4,M,-21.8,M,,*68
2021-06-12 21:57:29Z, 6cda8203-a249-e411-b0cc-f8bc1246af59, $GPGGA,215728.00,4437.5831,N,12402.8837,W,1,12,0.8,22.3,M,-21.8,M,,*61
2021-06-12 21:57:30Z, 6cda8203-a249-e411-b0cc-f8bc1246af59, $GPGGA,215729.00,4437.5831,N,12402.8836,W,1,12,0.8,22.3,M,-21.8,M,,*61
2021-06-12 21:57:31Z, 6cda8203-a249-e411-b0cc-f8bc1246af59, $GPGGA,215730.00,4437.5829,N,12402.8840,W,1,12,0.8,22.3,M,-21.8,M,,*61
2021-06-12 21:57:32Z, 6cda8203-a249-e411-b0cc-f8bc1246af59, $GPGGA,215731.00,4437.5824,N,12402.8841,W,1,12,0.8,22.2,M,-21.8,M,,*6D
2021-06-12 21:57:33Z, 6cda8203-a249-e411-b0cc-f8bc1246af59, $GPGGA,215732.00,4437.5824,N,12402.8843,W,1,12,0.8,22.2,M,-21.8,M,,*6C
2021-06-12 21:57:35Z, 6cda8203-a249-e411-b0cc-f8bc1246af59, $GPGGA,215734.00,4437.5823,N,12402.8842,W,1,12,0.8,22.1,M,-21.8,M,,*6F
2021-06-12 21:57:36Z, 6cda8203-a249-e411-b0cc-f8bc1246af59, $GPGGA,215735.00,4437.5824,N,12402.8844,W,1,12,0.8,22.1,M,-21.8,M,,*6F
2021-06-12 21:57:38Z, 6cda8203-a249-e411-b0cc-f8bc1246af59, $GPGGA,215737.00,4437.5825,N,12402.8848,W,1,12,0.8,22.0,M,-21.8,M,,*61
2021-06-12 21:57:39Z, 6cda8203-a249-e411-b0cc-f8bc1246af59, $GPGGA,215738.00,4437.5824,N,12402.8850,W,1,12,0.8,21.9,M,-21.8,M,,*6C
2021-06-12 21:57:40Z, 6cda8203-a249-e411-b0cc-f8bc1246af59, $GPGGA,215739.00,4437.5825,N,12402.8852,W,1,12,0.8,22.0,M,-21.8,M,,*64
2021-06-12 21:57:42Z, 6cda8203-a249-e411-b0cc-f8bc1246af59, $GPGGA,215741.00,4437.5826,N,12402.8853,W,1,12,0.8,21.9,M,-21.8,M,,*63
2021-06-12 21:57:43Z, 6cda8203-a249-e411-b0cc-f8bc1246af59, $GPGGA,215742.00,4437.5826,N,12402.8855,W,1,12,0.8,21.9,M,-21.8,M,,*66
2021-06-12 21:57:45Z, 6cda8203-a249-e411-b0cc-f8bc1246af59, $GPGGA,215744.00,4437.5828,N,12402.8854,W,1,12,0.8,21.9,M,-21.8,M,,*6F
2021-06-12 21:57:46Z, 6cda8203-a249-e411-b0cc-f8bc1246af59, $GPGGA,215745.00,4437.5828,N,12402.8852,W,1,12,0.8,21.9,M,-21.8,M,,*68
