ACQ Timestamp (Server Time in UTC), MessageID, Data Value For: GNSS-6452-$GPGGA
2021-07-16 20:25:14Z, 6cda8203-a249-e411-b0cc-f8bc1246af59, $GPGGA,202513.00,4437.5833,N,12402.8865,W,1,09,0.8,22.2,M,-21.8,M,,*63
2021-07-16 20:25:16Z, 6cda8203-a249-e411-b0cc-f8bc1246af59, $GPGGA,202514.00,4437.5832,N,12402.8866,W,1,10,0.8,21.9,M,-21.8,M,,*66
2021-07-16 20:25:17Z, 6cda8203-a249-e411-b0cc-f8bc1246af59, $GPGGA,202516.00,4437.5831,N,12402.8867,W,1,10,0.8,21.8,M,-21.8,M,,*67
2021-07-16 20:25:18Z, 6cda8203-a249-e411-b0cc-f8bc1246af59, $GPGGA,202517.00,4437.5831,N,12402.8867,W,1,10,0.8,21.9,M,-21.8,M,,*67
2021-07-16 20:25:20Z, 6cda8203-a249-e411-b0cc-f8bc1246af59, $GPGGA,202519.00,4437.5834,N,12402.8867,W,1,10,0.8,21.8,M,-21.8,M,,*6D
2021-07-16 20:25:21Z, 6cda8203-a249-e411-b0cc-f8bc1246af59, $GPGGA,202520.00,4437.5835,N,12402.8868,W,1,10,0.8,21.8,M,-21.8,M,,*69
2021-07-16 20:25:23Z, 6cda8203-a249-e411-b0cc-f8bc1246af59, $GPGGA,202522.00,4437.5836,N,12402.8866,W,1,10,0.8,21.6,M,-21.8,M,,*68
2021-07-16 20:25:24Z, 6cda8203-a249-e411-b0cc-f8bc1246af59, $GPGGA,202523.00,4437.5834,N,12402.8869,W,1,10,0.8,21.4,M,-21.8,M,,*66
2021-07-16 20:25:26Z, 6cda8203-a249-e411-b0cc-f8bc1246af59, $GPGGA,202525.00,4437.5836,N,12402.8872,W,1,10,0.8,21.4,M,-21.8,M,,*68
2021-07-16 20:25:27Z, 6cda8203-a249-e411-b0cc-f8bc1246af59, $GPGGA,202526.00,4437.5836,N,12402.8873,W,1,10,0.8,21.4,M,-21.8,M,,*6A
2021-07-16 20:25:29Z, 6cda8203-a249-e411-b0cc-f8bc1246af59, $GPGGA,202528.00,4437.5839,N,12402.8875,W,1,10,0.8,21.4,M,-21.8,M,,*6D
2021-07-16 20:25:30Z, 6cda8203-a249-e411-b0cc-f8bc1246af59, $GPGGA,202529.00,4437.5840,N,12402.8876,W,1,10,0.8,21.4,M,-21.8,M,,*61
2021-07-16 20:25:32Z, 6cda8203-a249-e411-b0cc-f8bc1246af59, $GPGGA,202531.00,4437.5840,N,12402.8876,W,1,10,0.8,21.2,M,-21.8,M,,*6E
2021-07-16 20:25:33Z, 6cda8203-a249-e411-b0cc-f8bc1246af59, $GPGGA,202532.00,4437.5840,N,12402.8879,W,1,10,0.8,21.1,M,-21.8,M,,*61
2021-07-16 20:25:35Z, 6cda8203-a249-e411-b0cc-f8bc1246af59, $GPGGA,202534.00,4437.5839,N,12402.8877,W,1,10,0.8,21.0,M,-21.8,M,,*66
2021-07-16 20:25:36Z, 6cda8203-a249-e411-b0cc-f8bc1246af59, $GPGGA,202535.00,4437.5840,N,12402.8878,W,1,10,0.8,20.9,M,-21.8,M,,*6E
2021-07-16 20:25:38Z, 6cda8203-a249-e411-b0cc-f8bc1246af59, $GPGGA,202537.00,4437.5839,N,12402.8873,W,1,10,0.8,20.9,M,-21.8,M,,*69
2021-07-16 20:25:39Z, 6cda8203-a249-e411-b0cc-f8bc1246af59, $GPGGA,202538.00,4437.5837,N,12402.8873,W,1,10,0.8,20.8,M,-21.8,M,,*69
2021-07-16 20:25:41Z, 6cda8203-a249-e411-b0cc-f8bc1246af59, $GPGGA,202540.00,4437.5836,N,12402.8869,W,1,09,0.8,20.8,M,-21.8,M,,*64
2021-07-16 20:25:42Z, 6cda8203-a249-e411-b0cc-f8bc1246af59, $GPGGA,202541.00,4437.5833,N,12402.8864,W,1,09,0.8,21.1,M,-21.8,M,,*65
2021-07-16 20:25:44Z, 6cda8203-a249-e411-b0cc-f8bc1246af59, $GPGGA,202543.00,4437.5831,N,12402.8864,W,1,09,0.8,21.0,M,-21.8,M,,*64
2021-07-16 20:25:45Z, 6cda8203-a249-e411-b0cc-f8bc1246af59, $GPGGA,202544.00,4437.5830,N,12402.8862,W,1,10,0.8,21.0,M,-21.8,M,,*6C
2021-07-16 20:25:47Z, 6cda8203-a249-e411-b0cc-f8bc1246af59, $GPGGA,202546.00,4437.5829,N,12402.8860,W,1,09,0.8,21.1,M,-21.8,M,,*6D
2021-07-16 20:25:48Z, 6cda8203-a249-e411-b0cc-f8bc1246af59, $GPGGA,202547.00,4437.5830,N,12402.8859,W,1,10,0.8,21.2,M,-21.8,M,,*65
2021-07-16 20:25:50Z, 6cda8203-a249-e411-b0cc-f8bc1246af59, $GPGGA,202549.00,4437.5827,N,12402.8857,W,1,10,0.8,21.3,M,-21.8,M,,*62
2021-07-16 20:25:51Z, 6cda8203-a249-e411-b0cc-f8bc1246af59, $GPGGA,202550.00,4437.5826,N,12402.8855,W,1,10,0.8,21.3,M,-21.8,M,,*69
2021-07-16 20:25:53Z, 6cda8203-a249-e411-b0cc-f8bc1246af59, $GPGGA,202552.00,4437.5822,N,12402.8849,W,1,10,0.8,21.2,M,-21.8,M,,*63
2021-07-16 20:25:54Z, 6cda8203-a249-e411-b0cc-f8bc1246af59, $GPGGA,202553.00,4437.5818,N,12402.8847,W,1,10,0.8,21.4,M,-21.8,M,,*63
2021-07-16 20:25:56Z, 6cda8203-a249-e411-b0cc-f8bc1246af59, $GPGGA,202555.00,4437.5816,N,12402.8847,W,1,10,0.8,21.5,M,-21.8,M,,*6A
2021-07-16 20:25:57Z, 6cda8203-a249-e411-b0cc-f8bc1246af59, $GPGGA,202556.00,4437.5816,N,12402.8846,W,1,10,0.8,21.5,M,-21.8,M,,*68
2021-07-16 20:25:59Z, 6cda8203-a249-e411-b0cc-f8bc1246af59, $GPGGA,202558.00,4437.5813,N,12402.8845,W,1,10,0.8,21.3,M,-21.8,M,,*66
2021-07-16 20:26:00Z, 6cda8203-a249-e411-b0cc-f8bc1246af59, $GPGGA,202559.00,4437.5811,N,12402.8847,W,1,10,0.8,21.9,M,-21.8,M,,*6D
2021-07-16 20:26:02Z, 6cda8203-a249-e411-b0cc-f8bc1246af59, $GPGGA,202601.00,4437.5812,N,12402.8843,W,1,09,0.8,21.9,M,-21.8,M,,*6C
2021-07-16 20:26:03Z, 6cda8203-a249-e411-b0cc-f8bc1246af59, $GPGGA,202602.00,4437.5812,N,12402.8843,W,1,10,0.8,22.0,M,-21.8,M,,*6D
2021-07-16 20:26:05Z, 6cda8203-a249-e411-b0cc-f8bc1246af59, $GPGGA,202604.00,4437.5813,N,12402.8842,W,1,10,0.8,22.2,M,-21.8,M,,*69
2021-07-16 20:26:06Z, 6cda8203-a249-e411-b0cc-f8bc1246af59, $GPGGA,202605.00,4437.5814,N,12402.8842,W,1,10,0.8,22.3,M,-21.8,M,,*6E
2021-07-16 20:26:08Z, 6cda8203-a249-e411-b0cc-f8bc1246af59, $GPGGA,202607.00,4437.5815,N,12402.8842,W,1,10,0.8,22.4,M,-21.8,M,,*6A
2021-07-16 20:26:09Z, 6cda8203-a249-e411-b0cc-f8bc1246af59, $GPGGA,202608.00,4437.5821,N,12402.8833,W,1,10,0.8,22.5,M,-21.8,M,,*65
2021-07-16 20:26:11Z, 6cda8203-a249-e411-b0cc-f8bc1246af59, $GPGGA,202610.00,4437.5823,N,12402.8834,W,1,10,0.8,22.5,M,-21.8,M,,*69
2021-07-16 20:26:12Z, 6cda8203-a249-e411-b0cc-f8bc1246af59, $GPGGA,202611.00,4437.5825,N,12402.8837,W,1,10,0.8,22.5,M,-21.8,M,,*6D
2021-07-16 20:26:14Z, 6cda8203-a249-e411-b0cc-f8bc1246af59, $GPGGA,202613.00,4437.5834,N,12402.8836,W,1,10,0.8,22.4,M,-21.8,M,,*6F
2021-07-16 20:26:15Z, 6cda8203-a249-e411-b0cc-f8bc1246af59, $GPGGA,202614.00,4437.5835,N,12402.8836,W,1,10,0.8,22.3,M,-21.8,M,,*6E
2021-07-16 20:26:17Z, 6cda8203-a249-e411-b0cc-f8bc1246af59, $GPGGA,202616.00,4437.5843,N,12402.8835,W,1,10,0.8,22.4,M,-21.8,M,,*69
2021-07-16 20:26:18Z, 6cda8203-a249-e411-b0cc-f8bc1246af59, $GPGGA,202617.00,4437.5844,N,12402.8836,W,1,10,0.8,22.5,M,-21.8,M,,*6D
2021-07-16 20:26:20Z, 6cda8203-a249-e411-b0cc-f8bc1246af59, $GPGGA,202619.00,4437.5847,N,12402.8838,W,1,10,0.8,22.5,M,-21.8,M,,*6E
2021-07-16 20:26:21Z, 6cda8203-a249-e411-b0cc-f8bc1246af59, $GPGGA,202620.00,4437.5847,N,12402.8838,W,1,10,0.8,22.5,M,-21.8,M,,*64
2021-07-16 20:26:23Z, 6cda8203-a249-e411-b0cc-f8bc1246af59, $GPGGA,202622.00,4437.5848,N,12402.8839,W,1,10,0.8,22.6,M,-21.8,M,,*6B
2021-07-16 20:26:24Z, 6cda8203-a249-e411-b0cc-f8bc1246af59, $GPGGA,202623.00,4437.5847,N,12402.8841,W,1,10,0.8,23.0,M,-21.8,M,,*6D
2021-07-16 20:26:26Z, 6cda8203-a249-e411-b0cc-f8bc1246af59, $GPGGA,202625.00,4437.5848,N,12402.8843,W,1,10,0.8,23.1,M,-21.8,M,,*67
2021-07-16 20:26:27Z, 6cda8203-a249-e411-b0cc-f8bc1246af59, $GPGGA,202626.00,4437.5847,N,12402.8842,W,1,10,0.8,23.1,M,-21.8,M,,*6A
2021-07-16 20:26:29Z, 6cda8203-a249-e411-b0cc-f8bc1246af59, $GPGGA,202628.00,4437.5846,N,12402.8844,W,1,10,0.8,23.0,M,-21.8,M,,*62
2021-07-16 20:26:30Z, 6cda8203-a249-e411-b0cc-f8bc1246af59, $GPGGA,202629.00,4437.5845,N,12402.8844,W,1,10,0.8,23.0,M,-21.8,M,,*60
2021-07-16 20:26:32Z, 6cda8203-a249-e411-b0cc-f8bc1246af59, $GPGGA,202631.00,4437.5846,N,12402.8844,W,1,10,0.8,22.9,M,-21.8,M,,*62
2021-07-16 20:26:33Z, 6cda8203-a249-e411-b0cc-f8bc1246af59, $GPGGA,202632.00,4437.5847,N,12402.8843,W,1,10,0.8,22.9,M,-21.8,M,,*67
2021-07-16 20:26:35Z, 6cda8203-a249-e411-b0cc-f8bc1246af59, $GPGGA,202634.00,4437.5846,N,12402.8841,W,1,10,0.8,23.0,M,-21.8,M,,*6A
2021-07-16 20:26:36Z, 6cda8203-a249-e411-b0cc-f8bc1246af59, $GPGGA,202635.00,4437.5846,N,12402.8839,W,1,10,0.8,23.1,M,-21.8,M,,*65
2021-07-16 20:26:38Z, 6cda8203-a249-e411-b0cc-f8bc1246af59, $GPGGA,202637.00,4437.5845,N,12402.8839,W,1,10,0.8,23.1,M,-21.8,M,,*64
2021-07-16 20:26:39Z, 6cda8203-a249-e411-b0cc-f8bc1246af59, $GPGGA,202638.00,4437.5845,N,12402.8838,W,1,10,0.8,23.1,M,-21.8,M,,*6A
2021-07-16 20:26:41Z, 6cda8203-a249-e411-b0cc-f8bc1246af59, $GPGGA,202640.00,4437.5845,N,12402.8837,W,1,10,0.8,23.2,M,-21.8,M,,*69
2021-07-16 20:26:42Z, 6cda8203-a249-e411-b0cc-f8bc1246af59, $GPGGA,202641.00,4437.5845,N,12402.8837,W,1,10,0.8,23.2,M,-21.8,M,,*68
2021-07-16 20:26:44Z, 6cda8203-a249-e411-b0cc-f8bc1246af59, $GPGGA,202643.00,4437.5844,N,12402.8837,W,1,10,0.8,23.3,M,-21.8,M,,*6A
2021-07-16 20:26:45Z, 6cda8203-a249-e411-b0cc-f8bc1246af59, $GPGGA,202644.00,4437.5845,N,12402.8837,W,1,10,0.8,23.3,M,-21.8,M,,*6C
2021-07-16 20:26:47Z, 6cda8203-a249-e411-b0cc-f8bc1246af59, $GPGGA,202646.00,4437.5844,N,12402.8838,W,1,10,0.8,23.4,M,-21.8,M,,*67
2021-07-16 20:26:48Z, 6cda8203-a249-e411-b0cc-f8bc1246af59, $GPGGA,202647.00,4437.5844,N,12402.8839,W,1,10,0.8,23.4,M,-21.8,M,,*67
2021-07-16 20:26:50Z, 6cda8203-a249-e411-b0cc-f8bc1246af59, $GPGGA,202649.00,4437.5844,N,12402.8840,W,1,10,0.8,23.4,M,-21.8,M,,*67
2021-07-16 20:26:51Z, 6cda8203-a249-e411-b0cc-f8bc1246af59, $GPGGA,202650.00,4437.5843,N,12402.8840,W,1,10,0.8,23.4,M,-21.8,M,,*68
2021-07-16 20:26:53Z, 6cda8203-a249-e411-b0cc-f8bc1246af59, $GPGGA,202652.00,4437.5843,N,12402.8841,W,1,10,0.8,23.4,M,-21.8,M,,*6B
2021-07-16 20:26:54Z, 6cda8203-a249-e411-b0cc-f8bc1246af59, $GPGGA,202653.00,4437.5842,N,12402.8841,W,1,10,0.8,23.4,M,-21.8,M,,*6B
2021-07-16 20:26:56Z, 6cda8203-a249-e411-b0cc-f8bc1246af59, $GPGGA,202655.00,4437.5841,N,12402.8842,W,1,10,0.8,23.4,M,-21.8,M,,*6D
2021-07-16 20:26:57Z, 6cda8203-a249-e411-b0cc-f8bc1246af59, $GPGGA,202656.00,4437.5841,N,12402.8843,W,1,10,0.8,23.4,M,-21.8,M,,*6F
2021-07-16 20:26:59Z, 6cda8203-a249-e411-b0cc-f8bc1246af59, $GPGGA,202658.00,4437.5840,N,12402.8844,W,1,10,0.8,23.4,M,-21.8,M,,*67
2021-07-16 20:27:00Z, 6cda8203-a249-e411-b0cc-f8bc1246af59, $GPGGA,202659.00,4437.5840,N,12402.8844,W,1,10,0.8,23.5,M,-21.8,M,,*67
2021-07-16 20:27:02Z, 6cda8203-a249-e411-b0cc-f8bc1246af59, $GPGGA,202701.00,4437.5840,N,12402.8844,W,1,10,0.8,23.5,M,-21.8,M,,*6B
2021-07-16 20:27:03Z, 6cda8203-a249-e411-b0cc-f8bc1246af59, $GPGGA,202702.00,4437.5839,N,12402.8844,W,1,10,0.8,23.5,M,-21.8,M,,*66
2021-07-16 20:27:05Z, 6cda8203-a249-e411-b0cc-f8bc1246af59, $GPGGA,202704.00,4437.5839,N,12402.8844,W,1,10,0.8,23.6,M,-21.8,M,,*63
2021-07-16 20:27:06Z, 6cda8203-a249-e411-b0cc-f8bc1246af59, $GPGGA,202705.00,4437.5844,N,12402.8844,W,1,10,0.8,23.3,M,-21.8,M,,*6D
2021-07-16 20:27:08Z, 6cda8203-a249-e411-b0cc-f8bc1246af59, $GPGGA,202707.00,4437.5850,N,12402.8852,W,1,10,0.8,23.1,M,-21.8,M,,*6F
2021-07-16 20:27:09Z, 6cda8203-a249-e411-b0cc-f8bc1246af59, $GPGGA,202708.00,4437.5854,N,12402.8858,W,1,10,0.8,23.2,M,-21.8,M,,*6D
2021-07-16 20:27:11Z, 6cda8203-a249-e411-b0cc-f8bc1246af59, $GPGGA,202710.00,4437.5857,N,12402.8865,W,1,10,0.8,23.7,M,-21.8,M,,*6C
2021-07-16 20:27:12Z, 6cda8203-a249-e411-b0cc-f8bc1246af59, $GPGGA,202711.00,4437.5858,N,12402.8867,W,1,10,0.8,23.5,M,-21.8,M,,*62
2021-07-16 20:27:14Z, 6cda8203-a249-e411-b0cc-f8bc1246af59, $GPGGA,202713.00,4437.5860,N,12402.8872,W,1,10,0.8,22.9,M,-21.8,M,,*62
2021-07-16 20:27:15Z, 6cda8203-a249-e411-b0cc-f8bc1246af59, $GPGGA,202714.00,4437.5859,N,12402.8874,W,1,10,0.8,22.7,M,-21.8,M,,*67
2021-07-16 20:27:16Z, 6cda8203-a249-e411-b0cc-f8bc1246af59, $GPGGA,202716.00,4437.5861,N,12402.8871,W,1,10,0.8,22.1,M,-21.8,M,,*6D
2021-07-16 20:27:18Z, 6cda8203-a249-e411-b0cc-f8bc1246af59, $GPGGA,202717.00,4437.5862,N,12402.8870,W,1,10,0.8,21.8,M,-21.8,M,,*64
2021-07-16 20:27:19Z, 6cda8203-a249-e411-b0cc-f8bc1246af59, $GPGGA,202718.00,4437.5862,N,12402.8870,W,1,10,0.8,21.7,M,-21.8,M,,*64
2021-07-16 20:27:20Z, 6cda8203-a249-e411-b0cc-f8bc1246af59, $GPGGA,202719.00,4437.5863,N,12402.8871,W,1,10,0.8,21.6,M,-21.8,M,,*64
2021-07-16 20:27:22Z, 6cda8203-a249-e411-b0cc-f8bc1246af59, $GPGGA,202721.00,4437.5861,N,12402.8872,W,1,10,0.8,21.4,M,-21.8,M,,*6C
2021-07-16 20:27:24Z, 6cda8203-a249-e411-b0cc-f8bc1246af59, $GPGGA,202722.00,4437.5860,N,12402.8871,W,1,09,0.8,21.4,M,-21.8,M,,*65
2021-07-16 20:27:26Z, 6cda8203-a249-e411-b0cc-f8bc1246af59, $GPGGA,202724.00,4437.5859,N,12402.8877,W,1,09,0.8,21.0,M,-21.8,M,,*6B
2021-07-16 20:27:27Z, 6cda8203-a249-e411-b0cc-f8bc1246af59, $GPGGA,202725.00,4437.5859,N,12402.8876,W,1,09,0.8,20.9,M,-21.8,M,,*63
2021-07-16 20:27:28Z, 6cda8203-a249-e411-b0cc-f8bc1246af59, $GPGGA,202727.00,4437.5857,N,12402.8875,W,1,09,0.8,20.5,M,-21.8,M,,*60
2021-07-16 20:27:30Z, 6cda8203-a249-e411-b0cc-f8bc1246af59, $GPGGA,202728.00,4437.5858,N,12402.8877,W,1,09,0.8,20.3,M,-21.8,M,,*64
2021-07-16 20:27:31Z, 6cda8203-a249-e411-b0cc-f8bc1246af59, $GPGGA,202730.00,4437.5861,N,12402.8880,W,1,10,0.8,20.0,M,-21.8,M,,*64
2021-07-16 20:27:32Z, 6cda8203-a249-e411-b0cc-f8bc1246af59, $GPGGA,202731.00,4437.5863,N,12402.8881,W,1,09,0.8,19.9,M,-21.8,M,,*6D
2021-07-16 20:27:34Z, 6cda8203-a249-e411-b0cc-f8bc1246af59, $GPGGA,202733.00,4437.5864,N,12402.8881,W,1,09,0.8,19.6,M,-21.8,M,,*67
2021-07-16 20:27:35Z, 6cda8203-a249-e411-b0cc-f8bc1246af59, $GPGGA,202734.00,4437.5865,N,12402.8883,W,1,09,0.8,19.5,M,-21.8,M,,*60
2021-07-16 20:27:37Z, 6cda8203-a249-e411-b0cc-f8bc1246af59, $GPGGA,202736.00,4437.5866,N,12402.8886,W,1,09,0.8,19.5,M,-21.8,M,,*64
2021-07-16 20:27:38Z, 6cda8203-a249-e411-b0cc-f8bc1246af59, $GPGGA,202737.00,4437.5866,N,12402.8886,W,1,09,0.8,19.5,M,-21.8,M,,*65
2021-07-16 20:27:40Z, 6cda8203-a249-e411-b0cc-f8bc1246af59, $GPGGA,202739.00,4437.5865,N,12402.8889,W,1,09,0.8,19.3,M,-21.8,M,,*61
2021-07-16 20:27:41Z, 6cda8203-a249-e411-b0cc-f8bc1246af59, $GPGGA,202740.00,4437.5864,N,12402.8889,W,1,09,0.8,19.1,M,-21.8,M,,*6C
2021-07-16 20:27:43Z, 6cda8203-a249-e411-b0cc-f8bc1246af59, $GPGGA,202742.00,4437.5865,N,12402.8891,W,1,09,0.8,19.0,M,-21.8,M,,*67
2021-07-16 20:27:44Z, 6cda8203-a249-e411-b0cc-f8bc1246af59, $GPGGA,202743.00,4437.5864,N,12402.8892,W,1,09,0.8,18.9,M,-21.8,M,,*6C
2021-07-16 20:27:46Z, 6cda8203-a249-e411-b0cc-f8bc1246af59, $GPGGA,202745.00,4437.5861,N,12402.8891,W,1,09,0.8,18.8,M,-21.8,M,,*6D
2021-07-16 20:27:47Z, 6cda8203-a249-e411-b0cc-f8bc1246af59, $GPGGA,202746.00,4437.5860,N,12402.8890,W,1,10,0.8,18.8,M,-21.8,M,,*66
2021-07-16 20:27:49Z, 6cda8203-a249-e411-b0cc-f8bc1246af59, $GPGGA,202748.00,4437.5858,N,12402.8890,W,1,10,0.8,18.9,M,-21.8,M,,*62
2021-07-16 20:27:50Z, 6cda8203-a249-e411-b0cc-f8bc1246af59, $GPGGA,202749.00,4437.5858,N,12402.8890,W,1,09,0.8,18.9,M,-21.8,M,,*6B
2021-07-16 20:27:52Z, 6cda8203-a249-e411-b0cc-f8bc1246af59, $GPGGA,202751.00,4437.5859,N,12402.8887,W,1,09,0.8,18.8,M,-21.8,M,,*64
2021-07-16 20:27:53Z, 6cda8203-a249-e411-b0cc-f8bc1246af59, $GPGGA,202752.00,4437.5859,N,12402.8885,W,1,09,0.8,18.7,M,-21.8,M,,*6A
2021-07-16 20:27:55Z, 6cda8203-a249-e411-b0cc-f8bc1246af59, $GPGGA,202754.00,4437.5857,N,12402.8886,W,1,10,0.8,18.7,M,-21.8,M,,*69
2021-07-16 20:27:56Z, 6cda8203-a249-e411-b0cc-f8bc1246af59, $GPGGA,202755.00,4437.5858,N,12402.8886,W,1,10,0.8,18.7,M,-21.8,M,,*67
2021-07-16 20:27:58Z, 6cda8203-a249-e411-b0cc-f8bc1246af59, $GPGGA,202757.00,4437.5857,N,12402.8886,W,1,10,0.8,18.6,M,-21.8,M,,*6B
2021-07-16 20:27:59Z, 6cda8203-a249-e411-b0cc-f8bc1246af59, $GPGGA,202758.00,4437.5856,N,12402.8885,W,1,10,0.8,18.7,M,-21.8,M,,*67
2021-07-16 20:28:01Z, 6cda8203-a249-e411-b0cc-f8bc1246af59, $GPGGA,202800.00,4437.5859,N,12402.8884,W,1,10,0.8,18.6,M,-21.8,M,,*6A
2021-07-16 20:28:02Z, 6cda8203-a249-e411-b0cc-f8bc1246af59, $GPGGA,202801.00,4437.5861,N,12402.8885,W,1,10,0.8,18.6,M,-21.8,M,,*61
2021-07-16 20:28:04Z, 6cda8203-a249-e411-b0cc-f8bc1246af59, $GPGGA,202803.00,4437.5865,N,12402.8890,W,1,10,0.8,18.8,M,-21.8,M,,*6D
2021-07-16 20:28:05Z, 6cda8203-a249-e411-b0cc-f8bc1246af59, $GPGGA,202804.00,4437.5865,N,12402.8890,W,1,10,0.8,18.8,M,-21.8,M,,*6A
2021-07-16 20:28:07Z, 6cda8203-a249-e411-b0cc-f8bc1246af59, $GPGGA,202806.00,4437.5869,N,12402.8893,W,1,10,0.8,19.0,M,-21.8,M,,*6E
2021-07-16 20:28:08Z, 6cda8203-a249-e411-b0cc-f8bc1246af59, $GPGGA,202807.00,4437.5876,N,12402.8899,W,1,10,0.8,19.2,M,-21.8,M,,*69
2021-07-16 20:28:10Z, 6cda8203-a249-e411-b0cc-f8bc1246af59, $GPGGA,202809.00,4437.5879,N,12402.8904,W,1,10,0.8,19.5,M,-21.8,M,,*6A
2021-07-16 20:28:11Z, 6cda8203-a249-e411-b0cc-f8bc1246af59, $GPGGA,202810.00,4437.5881,N,12402.8906,W,1,10,0.8,19.5,M,-21.8,M,,*67
2021-07-16 20:28:13Z, 6cda8203-a249-e411-b0cc-f8bc1246af59, $GPGGA,202812.00,4437.5884,N,12402.8907,W,1,10,0.8,19.9,M,-21.8,M,,*6D
2021-07-16 20:28:14Z, 6cda8203-a249-e411-b0cc-f8bc1246af59, $GPGGA,202813.00,4437.5885,N,12402.8908,W,1,10,0.8,20.0,M,-21.8,M,,*61
2021-07-16 20:28:16Z, 6cda8203-a249-e411-b0cc-f8bc1246af59, $GPGGA,202815.00,4437.5884,N,12402.8911,W,1,10,0.8,20.1,M,-21.8,M,,*6F
2021-07-16 20:28:17Z, 6cda8203-a249-e411-b0cc-f8bc1246af59, $GPGGA,202816.00,4437.5885,N,12402.8913,W,1,10,0.8,20.1,M,-21.8,M,,*6F
2021-07-16 20:28:19Z, 6cda8203-a249-e411-b0cc-f8bc1246af59, $GPGGA,202818.00,4437.5885,N,12402.8915,W,1,10,0.8,20.1,M,-21.8,M,,*67
2021-07-16 20:28:20Z, 6cda8203-a249-e411-b0cc-f8bc1246af59, $GPGGA,202819.00,4437.5886,N,12402.8917,W,1,10,0.8,20.1,M,-21.8,M,,*67
2021-07-16 20:28:22Z, 6cda8203-a249-e411-b0cc-f8bc1246af59, $GPGGA,202821.00,4437.5887,N,12402.8920,W,1,10,0.8,20.2,M,-21.8,M,,*6A
2021-07-16 20:28:23Z, 6cda8203-a249-e411-b0cc-f8bc1246af59, $GPGGA,202822.00,4437.5886,N,12402.8920,W,1,10,0.8,20.3,M,-21.8,M,,*69
2021-07-16 20:28:25Z, 6cda8203-a249-e411-b0cc-f8bc1246af59, $GPGGA,202824.00,4437.5887,N,12402.8916,W,1,10,0.8,20.3,M,-21.8,M,,*6B
2021-07-16 20:28:26Z, 6cda8203-a249-e411-b0cc-f8bc1246af59, $GPGGA,202825.00,4437.5887,N,12402.8915,W,1,10,0.8,20.2,M,-21.8,M,,*68
2021-07-16 20:28:28Z, 6cda8203-a249-e411-b0cc-f8bc1246af59, $GPGGA,202827.00,4437.5887,N,12402.8916,W,1,10,0.8,20.2,M,-21.8,M,,*69
2021-07-16 20:28:29Z, 6cda8203-a249-e411-b0cc-f8bc1246af59, $GPGGA,202828.00,4437.5887,N,12402.8920,W,1,10,0.8,20.1,M,-21.8,M,,*60
2021-07-16 20:28:31Z, 6cda8203-a249-e411-b0cc-f8bc1246af59, $GPGGA,202830.00,4437.5887,N,12402.8921,W,1,10,0.8,20.2,M,-21.8,M,,*6B
2021-07-16 20:28:32Z, 6cda8203-a249-e411-b0cc-f8bc1246af59, $GPGGA,202831.00,4437.5887,N,12402.8921,W,1,10,0.8,20.2,M,-21.8,M,,*6A
2021-07-16 20:28:34Z, 6cda8203-a249-e411-b0cc-f8bc1246af59, $GPGGA,202833.00,4437.5889,N,12402.8925,W,1,10,0.8,20.2,M,-21.8,M,,*62
2021-07-16 20:28:35Z, 6cda8203-a249-e411-b0cc-f8bc1246af59, $GPGGA,202834.00,4437.5891,N,12402.8927,W,1,10,0.8,20.2,M,-21.8,M,,*6E
2021-07-16 20:28:37Z, 6cda8203-a249-e411-b0cc-f8bc1246af59, $GPGGA,202836.00,4437.5891,N,12402.8924,W,1,10,0.8,20.2,M,-21.8,M,,*6F
2021-07-16 20:28:38Z, 6cda8203-a249-e411-b0cc-f8bc1246af59, $GPGGA,202837.00,4437.5891,N,12402.8924,W,1,10,0.8,20.2,M,-21.8,M,,*6E
2021-07-16 20:28:40Z, 6cda8203-a249-e411-b0cc-f8bc1246af59, $GPGGA,202839.00,4437.5890,N,12402.8922,W,1,10,0.8,20.1,M,-21.8,M,,*64
2021-07-16 20:28:41Z, 6cda8203-a249-e411-b0cc-f8bc1246af59, $GPGGA,202840.00,4437.5889,N,12402.8922,W,1,10,0.8,20.1,M,-21.8,M,,*62
2021-07-16 20:28:43Z, 6cda8203-a249-e411-b0cc-f8bc1246af59, $GPGGA,202842.00,4437.5886,N,12402.8920,W,1,10,0.8,20.1,M,-21.8,M,,*6D
2021-07-16 20:28:44Z, 6cda8203-a249-e411-b0cc-f8bc1246af59, $GPGGA,202843.00,4437.5885,N,12402.8919,W,1,10,0.8,20.2,M,-21.8,M,,*66
2021-07-16 20:28:46Z, 6cda8203-a249-e411-b0cc-f8bc1246af59, $GPGGA,202845.00,4437.5883,N,12402.8916,W,1,10,0.8,20.2,M,-21.8,M,,*69
2021-07-16 20:28:47Z, 6cda8203-a249-e411-b0cc-f8bc1246af59, $GPGGA,202846.00,4437.5884,N,12402.8914,W,1,10,0.8,20.0,M,-21.8,M,,*6D
2021-07-16 20:28:49Z, 6cda8203-a249-e411-b0cc-f8bc1246af59, $GPGGA,202848.00,4437.5884,N,12402.8908,W,1,10,0.8,20.1,M,-21.8,M,,*6F
2021-07-16 20:28:50Z, 6cda8203-a249-e411-b0cc-f8bc1246af59, $GPGGA,202849.00,4437.5884,N,12402.8907,W,1,10,0.8,20.2,M,-21.8,M,,*62
2021-07-16 20:28:52Z, 6cda8203-a249-e411-b0cc-f8bc1246af59, $GPGGA,202851.00,4437.5884,N,12402.8909,W,1,10,0.8,20.3,M,-21.8,M,,*64
2021-07-16 20:28:53Z, 6cda8203-a249-e411-b0cc-f8bc1246af59, $GPGGA,202852.00,4437.5884,N,12402.8911,W,1,10,0.8,20.3,M,-21.8,M,,*6E
2021-07-16 20:28:55Z, 6cda8203-a249-e411-b0cc-f8bc1246af59, $GPGGA,202854.00,4437.5882,N,12402.8909,W,1,10,0.8,20.5,M,-21.8,M,,*61
2021-07-16 20:28:56Z, 6cda8203-a249-e411-b0cc-f8bc1246af59, $GPGGA,202855.00,4437.5881,N,12402.8909,W,1,10,0.8,20.6,M,-21.8,M,,*60
2021-07-16 20:28:58Z, 6cda8203-a249-e411-b0cc-f8bc1246af59, $GPGGA,202857.00,4437.5886,N,12402.8910,W,1,10,0.8,21.1,M,-21.8,M,,*6B
2021-07-16 20:28:59Z, 6cda8203-a249-e411-b0cc-f8bc1246af59, $GPGGA,202858.00,4437.5885,N,12402.8912,W,1,10,0.8,21.3,M,-21.8,M,,*67
2021-07-16 20:29:01Z, 6cda8203-a249-e411-b0cc-f8bc1246af59, $GPGGA,202900.00,4437.5887,N,12402.8910,W,1,10,0.8,21.3,M,-21.8,M,,*6B
2021-07-16 20:29:02Z, 6cda8203-a249-e411-b0cc-f8bc1246af59, $GPGGA,202901.00,4437.5889,N,12402.8909,W,1,10,0.8,21.3,M,-21.8,M,,*6C
2021-07-16 20:29:04Z, 6cda8203-a249-e411-b0cc-f8bc1246af59, $GPGGA,202903.00,4437.5888,N,12402.8908,W,1,10,0.8,21.2,M,-21.8,M,,*6F
2021-07-16 20:29:05Z, 6cda8203-a249-e411-b0cc-f8bc1246af59, $GPGGA,202904.00,4437.5885,N,12402.8907,W,1,10,0.8,21.0,M,-21.8,M,,*68
2021-07-16 20:29:07Z, 6cda8203-a249-e411-b0cc-f8bc1246af59, $GPGGA,202906.00,4437.5882,N,12402.8911,W,1,10,0.8,20.9,M,-21.8,M,,*62
2021-07-16 20:29:08Z, 6cda8203-a249-e411-b0cc-f8bc1246af59, $GPGGA,202907.00,4437.5881,N,12402.8913,W,1,10,0.8,20.8,M,-21.8,M,,*63
2021-07-16 20:29:10Z, 6cda8203-a249-e411-b0cc-f8bc1246af59, $GPGGA,202909.00,4437.5881,N,12402.8909,W,1,10,0.8,20.5,M,-21.8,M,,*6B
2021-07-16 20:29:11Z, 6cda8203-a249-e411-b0cc-f8bc1246af59, $GPGGA,202910.00,4437.5881,N,12402.8907,W,1,10,0.8,20.4,M,-21.8,M,,*6C
2021-07-16 20:29:13Z, 6cda8203-a249-e411-b0cc-f8bc1246af59, $GPGGA,202912.00,4437.5881,N,12402.8908,W,1,10,0.8,20.1,M,-21.8,M,,*64
2021-07-16 20:29:14Z, 6cda8203-a249-e411-b0cc-f8bc1246af59, $GPGGA,202913.00,4437.5882,N,12402.8908,W,1,10,0.8,20.0,M,-21.8,M,,*67
2021-07-16 20:29:16Z, 6cda8203-a249-e411-b0cc-f8bc1246af59, $GPGGA,202915.00,4437.5880,N,12402.8908,W,1,10,0.8,20.1,M,-21.8,M,,*62
2021-07-16 20:29:17Z, 6cda8203-a249-e411-b0cc-f8bc1246af59, $GPGGA,202916.00,4437.5879,N,12402.8900,W,1,10,0.8,20.1,M,-21.8,M,,*6F
2021-07-16 20:29:19Z, 6cda8203-a249-e411-b0cc-f8bc1246af59, $GPGGA,202918.00,4437.5876,N,12402.8896,W,1,10,0.8,20.1,M,-21.8,M,,*60
2021-07-16 20:29:20Z, 6cda8203-a249-e411-b0cc-f8bc1246af59, $GPGGA,202919.00,4437.5876,N,12402.8893,W,1,10,0.8,20.1,M,-21.8,M,,*64
2021-07-16 20:29:22Z, 6cda8203-a249-e411-b0cc-f8bc1246af59, $GPGGA,202921.00,4437.5877,N,12402.8890,W,1,10,0.8,20.4,M,-21.8,M,,*68
2021-07-16 20:29:23Z, 6cda8203-a249-e411-b0cc-f8bc1246af59, $GPGGA,202922.00,4437.5879,N,12402.8891,W,1,10,0.8,20.4,M,-21.8,M,,*64
2021-07-16 20:29:24Z, 6cda8203-a249-e411-b0cc-f8bc1246af59, $GPGGA,202923.00,4437.5878,N,12402.8892,W,1,10,0.8,20.3,M,-21.8,M,,*60
2021-07-16 20:29:25Z, 6cda8203-a249-e411-b0cc-f8bc1246af59, $GPGGA,202924.00,4437.5878,N,12402.8892,W,1,10,0.8,20.2,M,-21.8,M,,*66
2021-07-16 20:29:27Z, 6cda8203-a249-e411-b0cc-f8bc1246af59, $GPGGA,202926.00,4437.5878,N,12402.8893,W,1,10,0.8,20.1,M,-21.8,M,,*66
2021-07-16 20:29:28Z, 6cda8203-a249-e411-b0cc-f8bc1246af59, $GPGGA,202927.00,4437.5877,N,12402.8894,W,1,10,0.8,20.2,M,-21.8,M,,*6C
2021-07-16 20:29:30Z, 6cda8203-a249-e411-b0cc-f8bc1246af59, $GPGGA,202929.00,4437.5879,N,12402.8894,W,1,10,0.8,20.1,M,-21.8,M,,*6F
2021-07-16 20:29:31Z, 6cda8203-a249-e411-b0cc-f8bc1246af59, $GPGGA,202930.00,4437.5880,N,12402.8891,W,1,10,0.8,20.3,M,-21.8,M,,*66
2021-07-16 20:29:33Z, 6cda8203-a249-e411-b0cc-f8bc1246af59, $GPGGA,202932.00,4437.5880,N,12402.8889,W,1,10,0.8,20.5,M,-21.8,M,,*6B
2021-07-16 20:29:34Z, 6cda8203-a249-e411-b0cc-f8bc1246af59, $GPGGA,202933.00,4437.5879,N,12402.8888,W,1,10,0.8,20.4,M,-21.8,M,,*6C
2021-07-16 20:29:36Z, 6cda8203-a249-e411-b0cc-f8bc1246af59, $GPGGA,202935.00,4437.5878,N,12402.8886,W,1,10,0.8,20.4,M,-21.8,M,,*65
2021-07-16 20:29:37Z, 6cda8203-a249-e411-b0cc-f8bc1246af59, $GPGGA,202936.00,4437.5878,N,12402.8884,W,1,10,0.8,20.4,M,-21.8,M,,*64
2021-07-16 20:29:39Z, 6cda8203-a249-e411-b0cc-f8bc1246af59, $GPGGA,202938.00,4437.5877,N,12402.8883,W,1,11,0.8,20.3,M,-21.8,M,,*64
2021-07-16 20:29:40Z, 6cda8203-a249-e411-b0cc-f8bc1246af59, $GPGGA,202939.00,4437.5877,N,12402.8881,W,1,11,0.8,20.3,M,-21.8,M,,*67
2021-07-16 20:29:42Z, 6cda8203-a249-e411-b0cc-f8bc1246af59, $GPGGA,202941.00,4437.5881,N,12402.8884,W,1,11,0.8,20.1,M,-21.8,M,,*66
2021-07-16 20:29:43Z, 6cda8203-a249-e411-b0cc-f8bc1246af59, $GPGGA,202942.00,4437.5881,N,12402.8886,W,1,11,0.8,20.1,M,-21.8,M,,*67
2021-07-16 20:29:45Z, 6cda8203-a249-e411-b0cc-f8bc1246af59, $GPGGA,202944.00,4437.5881,N,12402.8891,W,1,11,0.8,20.1,M,-21.8,M,,*67
2021-07-16 20:29:46Z, 6cda8203-a249-e411-b0cc-f8bc1246af59, $GPGGA,202945.00,4437.5881,N,12402.8893,W,1,10,0.8,20.1,M,-21.8,M,,*65
2021-07-16 20:29:48Z, 6cda8203-a249-e411-b0cc-f8bc1246af59, $GPGGA,202947.00,4437.5880,N,12402.8892,W,1,10,0.8,20.2,M,-21.8,M,,*64
2021-07-16 20:29:49Z, 6cda8203-a249-e411-b0cc-f8bc1246af59, $GPGGA,202948.00,4437.5880,N,12402.8890,W,1,11,0.8,20.2,M,-21.8,M,,*68
2021-07-16 20:29:51Z, 6cda8203-a249-e411-b0cc-f8bc1246af59, $GPGGA,202950.00,4437.5878,N,12402.8888,W,1,11,0.8,20.3,M,-21.8,M,,*6E
2021-07-16 20:29:52Z, 6cda8203-a249-e411-b0cc-f8bc1246af59, $GPGGA,202951.00,4437.5879,N,12402.8888,W,1,11,0.8,20.3,M,-21.8,M,,*6E
2021-07-16 20:29:54Z, 6cda8203-a249-e411-b0cc-f8bc1246af59, $GPGGA,202953.00,4437.5878,N,12402.8885,W,1,11,0.8,20.3,M,-21.8,M,,*60
2021-07-16 20:29:55Z, 6cda8203-a249-e411-b0cc-f8bc1246af59, $GPGGA,202954.00,4437.5880,N,12402.8884,W,1,11,0.8,20.3,M,-21.8,M,,*61
2021-07-16 20:29:57Z, 6cda8203-a249-e411-b0cc-f8bc1246af59, $GPGGA,202956.00,4437.5882,N,12402.8883,W,1,11,0.8,20.4,M,-21.8,M,,*61
2021-07-16 20:29:58Z, 6cda8203-a249-e411-b0cc-f8bc1246af59, $GPGGA,202957.00,4437.5883,N,12402.8881,W,1,11,0.8,20.4,M,-21.8,M,,*63
2021-07-16 20:30:00Z, 6cda8203-a249-e411-b0cc-f8bc1246af59, $GPGGA,202959.00,4437.5882,N,12402.8880,W,1,11,0.8,20.3,M,-21.8,M,,*6A
2021-07-16 20:30:01Z, 6cda8203-a249-e411-b0cc-f8bc1246af59, $GPGGA,203000.00,4437.5882,N,12402.8881,W,1,11,0.8,20.3,M,-21.8,M,,*6F
2021-07-16 20:30:03Z, 6cda8203-a249-e411-b0cc-f8bc1246af59, $GPGGA,203002.00,4437.5880,N,12402.8878,W,1,11,0.8,20.4,M,-21.8,M,,*6E
2021-07-16 20:30:04Z, 6cda8203-a249-e411-b0cc-f8bc1246af59, $GPGGA,203003.00,4437.5880,N,12402.8877,W,1,10,0.8,20.4,M,-21.8,M,,*61
2021-07-16 20:30:06Z, 6cda8203-a249-e411-b0cc-f8bc1246af59, $GPGGA,203005.00,4437.5878,N,12402.8875,W,1,10,0.8,20.5,M,-21.8,M,,*63
2021-07-16 20:30:07Z, 6cda8203-a249-e411-b0cc-f8bc1246af59, $GPGGA,203006.00,4437.5877,N,12402.8874,W,1,10,0.8,20.5,M,-21.8,M,,*6E
2021-07-16 20:30:09Z, 6cda8203-a249-e411-b0cc-f8bc1246af59, $GPGGA,203008.00,4437.5876,N,12402.8872,W,1,10,0.8,20.6,M,-21.8,M,,*64
2021-07-16 20:30:10Z, 6cda8203-a249-e411-b0cc-f8bc1246af59, $GPGGA,203009.00,4437.5875,N,12402.8872,W,1,10,0.8,20.6,M,-21.8,M,,*66
2021-07-16 20:30:12Z, 6cda8203-a249-e411-b0cc-f8bc1246af59, $GPGGA,203011.00,4437.5875,N,12402.8876,W,1,10,0.8,20.6,M,-21.8,M,,*6B
2021-07-16 20:30:13Z, 6cda8203-a249-e411-b0cc-f8bc1246af59, $GPGGA,203012.00,4437.5875,N,12402.8880,W,1,10,0.8,20.7,M,-21.8,M,,*60
2021-07-16 20:30:15Z, 6cda8203-a249-e411-b0cc-f8bc1246af59, $GPGGA,203014.00,4437.5872,N,12402.8881,W,1,10,0.8,20.6,M,-21.8,M,,*61
2021-07-16 20:30:16Z, 6cda8203-a249-e411-b0cc-f8bc1246af59, $GPGGA,203015.00,4437.5872,N,12402.8883,W,1,10,0.8,20.6,M,-21.8,M,,*62
2021-07-16 20:30:18Z, 6cda8203-a249-e411-b0cc-f8bc1246af59, $GPGGA,203017.00,4437.5868,N,12402.8879,W,1,10,0.8,20.6,M,-21.8,M,,*6E
2021-07-16 20:30:19Z, 6cda8203-a249-e411-b0cc-f8bc1246af59, $GPGGA,203018.00,4437.5869,N,12402.8878,W,1,10,0.8,20.5,M,-21.8,M,,*62
2021-07-16 20:30:21Z, 6cda8203-a249-e411-b0cc-f8bc1246af59, $GPGGA,203020.00,4437.5869,N,12402.8875,W,1,10,0.8,20.5,M,-21.8,M,,*64
2021-07-16 20:30:22Z, 6cda8203-a249-e411-b0cc-f8bc1246af59, $GPGGA,203021.00,4437.5870,N,12402.8877,W,1,11,0.8,20.4,M,-21.8,M,,*6F
2021-07-16 20:30:24Z, 6cda8203-a249-e411-b0cc-f8bc1246af59, $GPGGA,203023.00,4437.5873,N,12402.8880,W,1,11,0.8,20.3,M,-21.8,M,,*61
2021-07-16 20:30:25Z, 6cda8203-a249-e411-b0cc-f8bc1246af59, $GPGGA,203024.00,4437.5873,N,12402.8880,W,1,11,0.8,20.4,M,-21.8,M,,*61
2021-07-16 20:30:27Z, 6cda8203-a249-e411-b0cc-f8bc1246af59, $GPGGA,203026.00,4437.5872,N,12402.8883,W,1,11,0.8,20.5,M,-21.8,M,,*60
2021-07-16 20:30:28Z, 6cda8203-a249-e411-b0cc-f8bc1246af59, $GPGGA,203027.00,4437.5872,N,12402.8884,W,1,11,0.8,20.6,M,-21.8,M,,*65
2021-07-16 20:30:30Z, 6cda8203-a249-e411-b0cc-f8bc1246af59, $GPGGA,203029.00,4437.5868,N,12402.8887,W,1,11,0.8,20.5,M,-21.8,M,,*60
2021-07-16 20:30:31Z, 6cda8203-a249-e411-b0cc-f8bc1246af59, $GPGGA,203030.00,4437.5868,N,12402.8890,W,1,11,0.8,20.4,M,-21.8,M,,*6F
2021-07-16 20:30:33Z, 6cda8203-a249-e411-b0cc-f8bc1246af59, $GPGGA,203032.00,4437.5868,N,12402.8894,W,1,11,0.8,20.5,M,-21.8,M,,*68
2021-07-16 20:30:34Z, 6cda8203-a249-e411-b0cc-f8bc1246af59, $GPGGA,203033.00,4437.5865,N,12402.8893,W,1,11,0.8,20.5,M,-21.8,M,,*63
2021-07-16 20:30:36Z, 6cda8203-a249-e411-b0cc-f8bc1246af59, $GPGGA,203035.00,4437.5865,N,12402.8894,W,1,11,0.8,20.5,M,-21.8,M,,*62
2021-07-16 20:30:37Z, 6cda8203-a249-e411-b0cc-f8bc1246af59, $GPGGA,203036.00,4437.5865,N,12402.8895,W,1,11,0.8,20.6,M,-21.8,M,,*63
2021-07-16 20:30:39Z, 6cda8203-a249-e411-b0cc-f8bc1246af59, $GPGGA,203038.00,4437.5864,N,12402.8896,W,1,11,0.8,20.7,M,-21.8,M,,*6E
2021-07-16 20:30:40Z, 6cda8203-a249-e411-b0cc-f8bc1246af59, $GPGGA,203039.00,4437.5863,N,12402.8897,W,1,11,0.8,20.7,M,-21.8,M,,*69
2021-07-16 20:30:42Z, 6cda8203-a249-e411-b0cc-f8bc1246af59, $GPGGA,203041.00,4437.5864,N,12402.8896,W,1,11,0.8,20.9,M,-21.8,M,,*6E
2021-07-16 20:30:43Z, 6cda8203-a249-e411-b0cc-f8bc1246af59, $GPGGA,203042.00,4437.5864,N,12402.8894,W,1,11,0.8,20.8,M,-21.8,M,,*6E
2021-07-16 20:30:45Z, 6cda8203-a249-e411-b0cc-f8bc1246af59, $GPGGA,203044.00,4437.5861,N,12402.8891,W,1,10,0.8,20.8,M,-21.8,M,,*69
2021-07-16 20:30:46Z, 6cda8203-a249-e411-b0cc-f8bc1246af59, $GPGGA,203045.00,4437.5860,N,12402.8890,W,1,10,0.8,20.8,M,-21.8,M,,*68
2021-07-16 20:30:48Z, 6cda8203-a249-e411-b0cc-f8bc1246af59, $GPGGA,203047.00,4437.5862,N,12402.8890,W,1,10,0.8,20.8,M,-21.8,M,,*68
2021-07-16 20:30:49Z, 6cda8203-a249-e411-b0cc-f8bc1246af59, $GPGGA,203048.00,4437.5863,N,12402.8890,W,1,10,0.8,20.7,M,-21.8,M,,*69
2021-07-16 20:30:51Z, 6cda8203-a249-e411-b0cc-f8bc1246af59, $GPGGA,203050.00,4437.5863,N,12402.8888,W,1,10,0.8,20.7,M,-21.8,M,,*69
2021-07-16 20:30:52Z, 6cda8203-a249-e411-b0cc-f8bc1246af59, $GPGGA,203051.00,4437.5863,N,12402.8889,W,1,10,0.8,20.7,M,-21.8,M,,*69
2021-07-16 20:30:54Z, 6cda8203-a249-e411-b0cc-f8bc1246af59, $GPGGA,203053.00,4437.5864,N,12402.8886,W,1,10,0.8,20.7,M,-21.8,M,,*63
2021-07-16 20:30:55Z, 6cda8203-a249-e411-b0cc-f8bc1246af59, $GPGGA,203054.00,4437.5864,N,12402.8885,W,1,10,0.8,20.8,M,-21.8,M,,*68
2021-07-16 20:30:57Z, 6cda8203-a249-e411-b0cc-f8bc1246af59, $GPGGA,203056.00,4437.5867,N,12402.8884,W,1,10,0.8,20.8,M,-21.8,M,,*68
2021-07-16 20:30:58Z, 6cda8203-a249-e411-b0cc-f8bc1246af59, $GPGGA,203057.00,4437.5865,N,12402.8884,W,1,09,0.8,20.7,M,-21.8,M,,*6C
2021-07-16 20:31:00Z, 6cda8203-a249-e411-b0cc-f8bc1246af59, $GPGGA,203059.00,4437.5865,N,12402.8881,W,1,10,0.8,20.7,M,-21.8,M,,*6F
2021-07-16 20:31:01Z, 6cda8203-a249-e411-b0cc-f8bc1246af59, $GPGGA,203100.00,4437.5864,N,12402.8880,W,1,10,0.8,20.6,M,-21.8,M,,*63
2021-07-16 20:31:03Z, 6cda8203-a249-e411-b0cc-f8bc1246af59, $GPGGA,203102.00,4437.5861,N,12402.8877,W,1,09,1.0,20.6,M,-21.8,M,,*6D
2021-07-16 20:31:04Z, 6cda8203-a249-e411-b0cc-f8bc1246af59, $GPGGA,203103.00,4437.5860,N,12402.8875,W,1,09,1.0,20.6,M,-21.8,M,,*6F
2021-07-16 20:31:06Z, 6cda8203-a249-e411-b0cc-f8bc1246af59, $GPGGA,203105.00,4437.5858,N,12402.8874,W,1,09,1.0,20.6,M,-21.8,M,,*63
2021-07-16 20:31:07Z, 6cda8203-a249-e411-b0cc-f8bc1246af59, $GPGGA,203106.00,4437.5857,N,12402.8875,W,1,09,1.0,20.6,M,-21.8,M,,*6E
2021-07-16 20:31:09Z, 6cda8203-a249-e411-b0cc-f8bc1246af59, $GPGGA,203108.00,4437.5855,N,12402.8873,W,1,09,1.0,20.5,M,-21.8,M,,*67
2021-07-16 20:31:10Z, 6cda8203-a249-e411-b0cc-f8bc1246af59, $GPGGA,203109.00,4437.5854,N,12402.8872,W,1,10,0.8,20.5,M,-21.8,M,,*67
2021-07-16 20:31:12Z, 6cda8203-a249-e411-b0cc-f8bc1246af59, $GPGGA,203111.00,4437.5851,N,12402.8872,W,1,10,0.8,20.5,M,-21.8,M,,*6B
2021-07-16 20:31:13Z, 6cda8203-a249-e411-b0cc-f8bc1246af59, $GPGGA,203112.00,4437.5849,N,12402.8873,W,1,10,0.8,20.5,M,-21.8,M,,*60
2021-07-16 20:31:15Z, 6cda8203-a249-e411-b0cc-f8bc1246af59, $GPGGA,203114.00,4437.5849,N,12402.8874,W,1,10,0.8,20.2,M,-21.8,M,,*66
2021-07-16 20:31:16Z, 6cda8203-a249-e411-b0cc-f8bc1246af59, $GPGGA,203115.00,4437.5848,N,12402.8873,W,1,10,0.8,20.0,M,-21.8,M,,*63
2021-07-16 20:31:18Z, 6cda8203-a249-e411-b0cc-f8bc1246af59, $GPGGA,203117.00,4437.5845,N,12402.8872,W,1,10,0.8,19.9,M,-21.8,M,,*6E
2021-07-16 20:31:19Z, 6cda8203-a249-e411-b0cc-f8bc1246af59, $GPGGA,203118.00,4437.5844,N,12402.8870,W,1,10,0.8,20.0,M,-21.8,M,,*61
2021-07-16 20:31:21Z, 6cda8203-a249-e411-b0cc-f8bc1246af59, $GPGGA,203120.00,4437.5845,N,12402.8866,W,1,11,0.8,19.8,M,-21.8,M,,*6F
2021-07-16 20:31:22Z, 6cda8203-a249-e411-b0cc-f8bc1246af59, $GPGGA,203121.00,4437.5846,N,12402.8864,W,1,11,0.8,19.7,M,-21.8,M,,*60
2021-07-16 20:31:24Z, 6cda8203-a249-e411-b0cc-f8bc1246af59, $GPGGA,203123.00,4437.5844,N,12402.8859,W,1,11,0.8,19.4,M,-21.8,M,,*6D
2021-07-16 20:31:25Z, 6cda8203-a249-e411-b0cc-f8bc1246af59, $GPGGA,203124.00,4437.5845,N,12402.8857,W,1,11,0.8,19.3,M,-21.8,M,,*62
2021-07-16 20:31:27Z, 6cda8203-a249-e411-b0cc-f8bc1246af59, $GPGGA,203126.00,4437.5844,N,12402.8855,W,1,11,0.8,19.1,M,-21.8,M,,*61
2021-07-16 20:31:28Z, 6cda8203-a249-e411-b0cc-f8bc1246af59, $GPGGA,203127.00,4437.5844,N,12402.8854,W,1,11,0.8,19.0,M,-21.8,M,,*60
2021-07-16 20:31:29Z, 6cda8203-a249-e411-b0cc-f8bc1246af59, $GPGGA,203128.00,4437.5843,N,12402.8851,W,1,11,0.8,19.0,M,-21.8,M,,*6D
2021-07-16 20:31:30Z, 6cda8203-a249-e411-b0cc-f8bc1246af59, $GPGGA,203129.00,4437.5843,N,12402.8849,W,1,11,0.8,19.0,M,-21.8,M,,*65
2021-07-16 20:31:32Z, 6cda8203-a249-e411-b0cc-f8bc1246af59, $GPGGA,203131.00,4437.5843,N,12402.8844,W,1,11,0.8,18.8,M,-21.8,M,,*68
2021-07-16 20:31:33Z, 6cda8203-a249-e411-b0cc-f8bc1246af59, $GPGGA,203132.00,4437.5844,N,12402.8841,W,1,11,0.8,18.8,M,-21.8,M,,*69
2021-07-16 20:31:35Z, 6cda8203-a249-e411-b0cc-f8bc1246af59, $GPGGA,203134.00,4437.5846,N,12402.8844,W,1,11,0.8,18.9,M,-21.8,M,,*69
2021-07-16 20:31:37Z, 6cda8203-a249-e411-b0cc-f8bc1246af59, $GPGGA,203135.00,4437.5847,N,12402.8844,W,1,11,0.8,18.8,M,-21.8,M,,*68
2021-07-16 20:31:38Z, 6cda8203-a249-e411-b0cc-f8bc1246af59, $GPGGA,203137.00,4437.5846,N,12402.8843,W,1,11,0.8,18.9,M,-21.8,M,,*6D
2021-07-16 20:31:40Z, 6cda8203-a249-e411-b0cc-f8bc1246af59, $GPGGA,203138.00,4437.5846,N,12402.8843,W,1,11,0.8,18.9,M,-21.8,M,,*62
2021-07-16 20:31:41Z, 6cda8203-a249-e411-b0cc-f8bc1246af59, $GPGGA,203140.00,4437.5847,N,12402.8844,W,1,11,0.8,18.9,M,-21.8,M,,*6B
2021-07-16 20:31:42Z, 6cda8203-a249-e411-b0cc-f8bc1246af59, $GPGGA,203141.00,4437.5847,N,12402.8843,W,1,11,0.8,18.9,M,-21.8,M,,*6D
2021-07-16 20:31:44Z, 6cda8203-a249-e411-b0cc-f8bc1246af59, $GPGGA,203143.00,4437.5847,N,12402.8843,W,1,11,0.8,18.8,M,-21.8,M,,*6E
2021-07-16 20:31:45Z, 6cda8203-a249-e411-b0cc-f8bc1246af59, $GPGGA,203144.00,4437.5845,N,12402.8843,W,1,11,0.8,19.0,M,-21.8,M,,*62
2021-07-16 20:31:47Z, 6cda8203-a249-e411-b0cc-f8bc1246af59, $GPGGA,203146.00,4437.5845,N,12402.8844,W,1,11,0.8,19.1,M,-21.8,M,,*66
2021-07-16 20:31:49Z, 6cda8203-a249-e411-b0cc-f8bc1246af59, $GPGGA,203147.00,4437.5844,N,12402.8846,W,1,11,0.8,19.3,M,-21.8,M,,*66
2021-07-16 20:31:50Z, 6cda8203-a249-e411-b0cc-f8bc1246af59, $GPGGA,203149.00,4437.5843,N,12402.8844,W,1,11,0.8,19.2,M,-21.8,M,,*6C
2021-07-16 20:31:52Z, 6cda8203-a249-e411-b0cc-f8bc1246af59, $GPGGA,203150.00,4437.5842,N,12402.8844,W,1,11,0.8,19.2,M,-21.8,M,,*65
2021-07-16 20:31:53Z, 6cda8203-a249-e411-b0cc-f8bc1246af59, $GPGGA,203152.00,4437.5841,N,12402.8842,W,1,11,0.8,19.2,M,-21.8,M,,*62
2021-07-16 20:31:55Z, 6cda8203-a249-e411-b0cc-f8bc1246af59, $GPGGA,203153.00,4437.5841,N,12402.8842,W,1,11,0.8,19.1,M,-21.8,M,,*60
2021-07-16 20:31:56Z, 6cda8203-a249-e411-b0cc-f8bc1246af59, $GPGGA,203155.00,4437.5841,N,12402.8845,W,1,10,0.8,18.8,M,-21.8,M,,*68
2021-07-16 20:31:57Z, 6cda8203-a249-e411-b0cc-f8bc1246af59, $GPGGA,203156.00,4437.5842,N,12402.8844,W,1,10,0.8,18.8,M,-21.8,M,,*69
2021-07-16 20:31:59Z, 6cda8203-a249-e411-b0cc-f8bc1246af59, $GPGGA,203158.00,4437.5840,N,12402.8850,W,1,10,0.8,18.7,M,-21.8,M,,*6F
2021-07-16 20:32:00Z, 6cda8203-a249-e411-b0cc-f8bc1246af59, $GPGGA,203159.00,4437.5838,N,12402.8849,W,1,10,0.8,18.8,M,-21.8,M,,*66
2021-07-16 20:32:02Z, 6cda8203-a249-e411-b0cc-f8bc1246af59, $GPGGA,203201.00,4437.5836,N,12402.8853,W,1,10,0.8,18.8,M,-21.8,M,,*6D
2021-07-16 20:32:03Z, 6cda8203-a249-e411-b0cc-f8bc1246af59, $GPGGA,203202.00,4437.5836,N,12402.8852,W,1,10,0.8,18.7,M,-21.8,M,,*60
2021-07-16 20:32:05Z, 6cda8203-a249-e411-b0cc-f8bc1246af59, $GPGGA,203204.00,4437.5837,N,12402.8852,W,1,10,0.8,18.7,M,-21.8,M,,*67
2021-07-16 20:32:06Z, 6cda8203-a249-e411-b0cc-f8bc1246af59, $GPGGA,203205.00,4437.5836,N,12402.8850,W,1,10,0.8,18.8,M,-21.8,M,,*6A
2021-07-16 20:32:08Z, 6cda8203-a249-e411-b0cc-f8bc1246af59, $GPGGA,203207.00,4437.5838,N,12402.8852,W,1,10,0.8,18.9,M,-21.8,M,,*65
2021-07-16 20:32:09Z, 6cda8203-a249-e411-b0cc-f8bc1246af59, $GPGGA,203208.00,4437.5840,N,12402.8853,W,1,10,0.8,18.8,M,-21.8,M,,*65
2021-07-16 20:32:11Z, 6cda8203-a249-e411-b0cc-f8bc1246af59, $GPGGA,203210.00,4437.5841,N,12402.8857,W,1,10,0.8,18.8,M,-21.8,M,,*69
2021-07-16 20:32:12Z, 6cda8203-a249-e411-b0cc-f8bc1246af59, $GPGGA,203211.00,4437.5846,N,12402.8867,W,1,10,0.8,18.8,M,-21.8,M,,*6C
2021-07-16 20:32:14Z, 6cda8203-a249-e411-b0cc-f8bc1246af59, $GPGGA,203213.00,4437.5847,N,12402.8870,W,1,10,0.8,18.6,M,-21.8,M,,*67
2021-07-16 20:32:15Z, 6cda8203-a249-e411-b0cc-f8bc1246af59, $GPGGA,203214.00,4437.5847,N,12402.8870,W,1,10,0.8,18.6,M,-21.8,M,,*60
2021-07-16 20:32:17Z, 6cda8203-a249-e411-b0cc-f8bc1246af59, $GPGGA,203216.00,4437.5847,N,12402.8869,W,1,10,0.8,18.5,M,-21.8,M,,*69
2021-07-16 20:32:18Z, 6cda8203-a249-e411-b0cc-f8bc1246af59, $GPGGA,203217.00,4437.5850,N,12402.8870,W,1,10,0.8,18.5,M,-21.8,M,,*66
2021-07-16 20:32:20Z, 6cda8203-a249-e411-b0cc-f8bc1246af59, $GPGGA,203219.00,4437.5850,N,12402.8871,W,1,10,0.8,18.2,M,-21.8,M,,*6E
2021-07-16 20:32:21Z, 6cda8203-a249-e411-b0cc-f8bc1246af59, $GPGGA,203220.00,4437.5849,N,12402.8871,W,1,11,0.8,18.0,M,-21.8,M,,*6F
2021-07-16 20:32:23Z, 6cda8203-a249-e411-b0cc-f8bc1246af59, $GPGGA,203222.00,4437.5847,N,12402.8874,W,1,10,0.8,18.0,M,-21.8,M,,*67
2021-07-16 20:32:24Z, 6cda8203-a249-e411-b0cc-f8bc1246af59, $GPGGA,203223.00,4437.5846,N,12402.8874,W,1,11,0.8,18.0,M,-21.8,M,,*66
2021-07-16 20:32:26Z, 6cda8203-a249-e411-b0cc-f8bc1246af59, $GPGGA,203225.00,4437.5846,N,12402.8875,W,1,11,0.8,17.8,M,-21.8,M,,*66
2021-07-16 20:32:27Z, 6cda8203-a249-e411-b0cc-f8bc1246af59, $GPGGA,203226.00,4437.5846,N,12402.8878,W,1,11,0.8,17.8,M,-21.8,M,,*68
2021-07-16 20:32:29Z, 6cda8203-a249-e411-b0cc-f8bc1246af59, $GPGGA,203228.00,4437.5850,N,12402.8883,W,1,11,0.8,17.7,M,-21.8,M,,*6A
2021-07-16 20:32:30Z, 6cda8203-a249-e411-b0cc-f8bc1246af59, $GPGGA,203229.00,4437.5851,N,12402.8884,W,1,11,0.8,17.7,M,-21.8,M,,*6D
2021-07-16 20:32:32Z, 6cda8203-a249-e411-b0cc-f8bc1246af59, $GPGGA,203231.00,4437.5852,N,12402.8886,W,1,11,0.8,17.7,M,-21.8,M,,*65
2021-07-16 20:32:33Z, 6cda8203-a249-e411-b0cc-f8bc1246af59, $GPGGA,203232.00,4437.5852,N,12402.8885,W,1,10,0.8,17.8,M,-21.8,M,,*6B
2021-07-16 20:32:35Z, 6cda8203-a249-e411-b0cc-f8bc1246af59, $GPGGA,203234.00,4437.5854,N,12402.8885,W,1,10,0.8,17.8,M,-21.8,M,,*6B
2021-07-16 20:32:36Z, 6cda8203-a249-e411-b0cc-f8bc1246af59, $GPGGA,203235.00,4437.5855,N,12402.8883,W,1,10,0.8,17.9,M,-21.8,M,,*6C
2021-07-16 20:32:38Z, 6cda8203-a249-e411-b0cc-f8bc1246af59, $GPGGA,203237.00,4437.5856,N,12402.8877,W,1,10,0.8,18.2,M,-21.8,M,,*62
2021-07-16 20:32:39Z, 6cda8203-a249-e411-b0cc-f8bc1246af59, $GPGGA,203238.00,4437.5855,N,12402.8875,W,1,10,0.8,18.3,M,-21.8,M,,*6D
2021-07-16 20:32:41Z, 6cda8203-a249-e411-b0cc-f8bc1246af59, $GPGGA,203240.00,4437.5857,N,12402.8870,W,1,10,0.8,18.6,M,-21.8,M,,*60
2021-07-16 20:32:42Z, 6cda8203-a249-e411-b0cc-f8bc1246af59, $GPGGA,203241.00,4437.5858,N,12402.8869,W,1,10,0.8,18.7,M,-21.8,M,,*67
2021-07-16 20:32:44Z, 6cda8203-a249-e411-b0cc-f8bc1246af59, $GPGGA,203243.00,4437.5861,N,12402.8866,W,1,10,0.8,18.7,M,-21.8,M,,*60
2021-07-16 20:32:45Z, 6cda8203-a249-e411-b0cc-f8bc1246af59, $GPGGA,203244.00,4437.5860,N,12402.8866,W,1,10,0.8,18.8,M,-21.8,M,,*69
2021-07-16 20:32:47Z, 6cda8203-a249-e411-b0cc-f8bc1246af59, $GPGGA,203246.00,4437.5859,N,12402.8865,W,1,10,0.8,18.9,M,-21.8,M,,*63
2021-07-16 20:32:48Z, 6cda8203-a249-e411-b0cc-f8bc1246af59, $GPGGA,203247.00,4437.5858,N,12402.8865,W,1,10,0.8,18.9,M,-21.8,M,,*63
2021-07-16 20:32:50Z, 6cda8203-a249-e411-b0cc-f8bc1246af59, $GPGGA,203249.00,4437.5859,N,12402.8860,W,1,10,0.8,18.9,M,-21.8,M,,*69
2021-07-16 20:32:51Z, 6cda8203-a249-e411-b0cc-f8bc1246af59, $GPGGA,203250.00,4437.5861,N,12402.8857,W,1,10,0.8,19.0,M,-21.8,M,,*66
2021-07-16 20:32:53Z, 6cda8203-a249-e411-b0cc-f8bc1246af59, $GPGGA,203252.00,4437.5860,N,12402.8855,W,1,10,0.8,19.2,M,-21.8,M,,*65
2021-07-16 20:32:54Z, 6cda8203-a249-e411-b0cc-f8bc1246af59, $GPGGA,203253.00,4437.5859,N,12402.8855,W,1,10,0.8,19.3,M,-21.8,M,,*6F
2021-07-16 20:32:56Z, 6cda8203-a249-e411-b0cc-f8bc1246af59, $GPGGA,203255.00,4437.5859,N,12402.8859,W,1,11,0.8,19.4,M,-21.8,M,,*63
2021-07-16 20:32:57Z, 6cda8203-a249-e411-b0cc-f8bc1246af59, $GPGGA,203256.00,4437.5861,N,12402.8862,W,1,11,0.8,19.5,M,-21.8,M,,*62
2021-07-16 20:32:59Z, 6cda8203-a249-e411-b0cc-f8bc1246af59, $GPGGA,203258.00,4437.5861,N,12402.8865,W,1,11,0.8,19.7,M,-21.8,M,,*69
2021-07-16 20:33:00Z, 6cda8203-a249-e411-b0cc-f8bc1246af59, $GPGGA,203259.00,4437.5860,N,12402.8868,W,1,10,0.8,19.8,M,-21.8,M,,*6A
2021-07-16 20:33:02Z, 6cda8203-a249-e411-b0cc-f8bc1246af59, $GPGGA,203301.00,4437.5860,N,12402.8871,W,1,10,0.8,19.8,M,-21.8,M,,*6E
2021-07-16 20:33:03Z, 6cda8203-a249-e411-b0cc-f8bc1246af59, $GPGGA,203302.00,4437.5863,N,12402.8872,W,1,10,0.8,19.8,M,-21.8,M,,*6D
2021-07-16 20:33:05Z, 6cda8203-a249-e411-b0cc-f8bc1246af59, $GPGGA,203304.00,4437.5863,N,12402.8873,W,1,10,0.8,20.0,M,-21.8,M,,*68
2021-07-16 20:33:06Z, 6cda8203-a249-e411-b0cc-f8bc1246af59, $GPGGA,203305.00,4437.5863,N,12402.8874,W,1,10,0.8,20.1,M,-21.8,M,,*6F
2021-07-16 20:33:08Z, 6cda8203-a249-e411-b0cc-f8bc1246af59, $GPGGA,203307.00,4437.5861,N,12402.8876,W,1,10,0.8,20.2,M,-21.8,M,,*6E
2021-07-16 20:33:09Z, 6cda8203-a249-e411-b0cc-f8bc1246af59, $GPGGA,203308.00,4437.5864,N,12402.8880,W,1,10,0.8,20.1,M,-21.8,M,,*6E
2021-07-16 20:33:11Z, 6cda8203-a249-e411-b0cc-f8bc1246af59, $GPGGA,203310.00,4437.5865,N,12402.8878,W,1,10,0.8,19.9,M,-21.8,M,,*63
2021-07-16 20:33:12Z, 6cda8203-a249-e411-b0cc-f8bc1246af59, $GPGGA,203311.00,4437.5865,N,12402.8879,W,1,10,0.8,19.8,M,-21.8,M,,*62
2021-07-16 20:33:14Z, 6cda8203-a249-e411-b0cc-f8bc1246af59, $GPGGA,203313.00,4437.5868,N,12402.8879,W,1,10,0.8,19.9,M,-21.8,M,,*6C
2021-07-16 20:33:15Z, 6cda8203-a249-e411-b0cc-f8bc1246af59, $GPGGA,203314.00,4437.5870,N,12402.8880,W,1,10,0.8,19.8,M,-21.8,M,,*65
2021-07-16 20:33:17Z, 6cda8203-a249-e411-b0cc-f8bc1246af59, $GPGGA,203316.00,4437.5870,N,12402.8883,W,1,10,0.8,19.8,M,-21.8,M,,*64
2021-07-16 20:33:18Z, 6cda8203-a249-e411-b0cc-f8bc1246af59, $GPGGA,203317.00,4437.5871,N,12402.8887,W,1,10,0.8,19.9,M,-21.8,M,,*61
2021-07-16 20:33:20Z, 6cda8203-a249-e411-b0cc-f8bc1246af59, $GPGGA,203319.00,4437.5872,N,12402.8891,W,1,10,0.8,20.0,M,-21.8,M,,*68
2021-07-16 20:33:21Z, 6cda8203-a249-e411-b0cc-f8bc1246af59, $GPGGA,203320.00,4437.5873,N,12402.8893,W,1,11,0.8,20.0,M,-21.8,M,,*60
2021-07-16 20:33:23Z, 6cda8203-a249-e411-b0cc-f8bc1246af59, $GPGGA,203322.00,4437.5875,N,12402.8896,W,1,10,0.8,20.1,M,-21.8,M,,*61
2021-07-16 20:33:24Z, 6cda8203-a249-e411-b0cc-f8bc1246af59, $GPGGA,203323.00,4437.5876,N,12402.8898,W,1,11,0.8,20.1,M,-21.8,M,,*6C
2021-07-16 20:33:26Z, 6cda8203-a249-e411-b0cc-f8bc1246af59, $GPGGA,203325.00,4437.5876,N,12402.8893,W,1,11,0.8,20.1,M,-21.8,M,,*61
2021-07-16 20:33:27Z, 6cda8203-a249-e411-b0cc-f8bc1246af59, $GPGGA,203326.00,4437.5876,N,12402.8892,W,1,11,0.8,20.0,M,-21.8,M,,*62
2021-07-16 20:33:29Z, 6cda8203-a249-e411-b0cc-f8bc1246af59, $GPGGA,203328.00,4437.5876,N,12402.8892,W,1,11,0.8,20.0,M,-21.8,M,,*6C
2021-07-16 20:33:30Z, 6cda8203-a249-e411-b0cc-f8bc1246af59, $GPGGA,203329.00,4437.5876,N,12402.8891,W,1,11,0.8,20.1,M,-21.8,M,,*6F
2021-07-16 20:33:31Z, 6cda8203-a249-e411-b0cc-f8bc1246af59, $GPGGA,203331.00,4437.5876,N,12402.8891,W,1,11,0.8,20.1,M,-21.8,M,,*66
2021-07-16 20:33:33Z, 6cda8203-a249-e411-b0cc-f8bc1246af59, $GPGGA,203332.00,4437.5875,N,12402.8892,W,1,11,0.8,20.2,M,-21.8,M,,*66
2021-07-16 20:33:34Z, 6cda8203-a249-e411-b0cc-f8bc1246af59, $GPGGA,203333.00,4437.5874,N,12402.8893,W,1,10,0.8,20.2,M,-21.8,M,,*66
2021-07-16 20:33:35Z, 6cda8203-a249-e411-b0cc-f8bc1246af59, $GPGGA,203334.00,4437.5874,N,12402.8896,W,1,10,0.8,20.2,M,-21.8,M,,*64
2021-07-16 20:33:37Z, 6cda8203-a249-e411-b0cc-f8bc1246af59, $GPGGA,203336.00,4437.5872,N,12402.8895,W,1,10,0.8,20.4,M,-21.8,M,,*65
2021-07-16 20:33:38Z, 6cda8203-a249-e411-b0cc-f8bc1246af59, $GPGGA,203337.00,4437.5872,N,12402.8894,W,1,10,0.8,20.5,M,-21.8,M,,*64
2021-07-16 20:33:40Z, 6cda8203-a249-e411-b0cc-f8bc1246af59, $GPGGA,203339.00,4437.5873,N,12402.8895,W,1,10,0.8,20.6,M,-21.8,M,,*69
2021-07-16 20:33:41Z, 6cda8203-a249-e411-b0cc-f8bc1246af59, $GPGGA,203340.00,4437.5874,N,12402.8896,W,1,11,0.8,20.7,M,-21.8,M,,*63
2021-07-16 20:33:43Z, 6cda8203-a249-e411-b0cc-f8bc1246af59, $GPGGA,203342.00,4437.5873,N,12402.8900,W,1,10,0.8,20.9,M,-21.8,M,,*67
2021-07-16 20:33:44Z, 6cda8203-a249-e411-b0cc-f8bc1246af59, $GPGGA,203343.00,4437.5873,N,12402.8899,W,1,10,0.8,20.9,M,-21.8,M,,*67
2021-07-16 20:33:46Z, 6cda8203-a249-e411-b0cc-f8bc1246af59, $GPGGA,203345.00,4437.5871,N,12402.8899,W,1,10,0.8,21.1,M,-21.8,M,,*6A
2021-07-16 20:33:47Z, 6cda8203-a249-e411-b0cc-f8bc1246af59, $GPGGA,203346.00,4437.5871,N,12402.8898,W,1,10,0.8,21.2,M,-21.8,M,,*6B
2021-07-16 20:33:49Z, 6cda8203-a249-e411-b0cc-f8bc1246af59, $GPGGA,203348.00,4437.5869,N,12402.8898,W,1,10,0.8,21.3,M,-21.8,M,,*6D
2021-07-16 20:33:50Z, 6cda8203-a249-e411-b0cc-f8bc1246af59, $GPGGA,203349.00,4437.5869,N,12402.8895,W,1,10,0.8,21.4,M,-21.8,M,,*66
2021-07-16 20:33:52Z, 6cda8203-a249-e411-b0cc-f8bc1246af59, $GPGGA,203351.00,4437.5869,N,12402.8895,W,1,10,0.8,21.6,M,-21.8,M,,*6D
2021-07-16 20:33:53Z, 6cda8203-a249-e411-b0cc-f8bc1246af59, $GPGGA,203352.00,4437.5868,N,12402.8893,W,1,10,0.8,21.6,M,-21.8,M,,*69
2021-07-16 20:33:55Z, 6cda8203-a249-e411-b0cc-f8bc1246af59, $GPGGA,203354.00,4437.5867,N,12402.8890,W,1,10,0.8,21.7,M,-21.8,M,,*62
2021-07-16 20:33:56Z, 6cda8203-a249-e411-b0cc-f8bc1246af59, $GPGGA,203355.00,4437.5867,N,12402.8888,W,1,10,0.8,21.7,M,-21.8,M,,*6A
2021-07-16 20:33:58Z, 6cda8203-a249-e411-b0cc-f8bc1246af59, $GPGGA,203357.00,4437.5867,N,12402.8883,W,1,10,0.8,21.8,M,-21.8,M,,*6C
2021-07-16 20:33:59Z, 6cda8203-a249-e411-b0cc-f8bc1246af59, $GPGGA,203358.00,4437.5867,N,12402.8879,W,1,11,0.8,21.8,M,-21.8,M,,*67
2021-07-16 20:34:01Z, 6cda8203-a249-e411-b0cc-f8bc1246af59, $GPGGA,203400.00,4437.5867,N,12402.8873,W,1,10,0.8,21.8,M,-21.8,M,,*66
2021-07-16 20:34:02Z, 6cda8203-a249-e411-b0cc-f8bc1246af59, $GPGGA,203401.00,4437.5866,N,12402.8870,W,1,10,0.8,21.9,M,-21.8,M,,*64
2021-07-16 20:34:04Z, 6cda8203-a249-e411-b0cc-f8bc1246af59, $GPGGA,203403.00,4437.5864,N,12402.8859,W,1,11,0.8,21.8,M,-21.8,M,,*6F
2021-07-16 20:34:05Z, 6cda8203-a249-e411-b0cc-f8bc1246af59, $GPGGA,203404.00,4437.5864,N,12402.8857,W,1,11,0.8,21.9,M,-21.8,M,,*67
2021-07-16 20:34:07Z, 6cda8203-a249-e411-b0cc-f8bc1246af59, $GPGGA,203406.00,4437.5864,N,12402.8851,W,1,11,0.8,21.9,M,-21.8,M,,*63
2021-07-16 20:34:08Z, 6cda8203-a249-e411-b0cc-f8bc1246af59, $GPGGA,203407.00,4437.5864,N,12402.8850,W,1,11,0.8,21.9,M,-21.8,M,,*63
2021-07-16 20:34:10Z, 6cda8203-a249-e411-b0cc-f8bc1246af59, $GPGGA,203409.00,4437.5864,N,12402.8848,W,1,11,0.8,22.2,M,-21.8,M,,*6C
2021-07-16 20:34:11Z, 6cda8203-a249-e411-b0cc-f8bc1246af59, $GPGGA,203410.00,4437.5864,N,12402.8848,W,1,11,0.8,22.2,M,-21.8,M,,*64
2021-07-16 20:34:13Z, 6cda8203-a249-e411-b0cc-f8bc1246af59, $GPGGA,203412.00,4437.5861,N,12402.8847,W,1,11,0.8,22.3,M,-21.8,M,,*6D
2021-07-16 20:34:14Z, 6cda8203-a249-e411-b0cc-f8bc1246af59, $GPGGA,203413.00,4437.5860,N,12402.8846,W,1,11,0.8,22.3,M,-21.8,M,,*6C
2021-07-16 20:34:16Z, 6cda8203-a249-e411-b0cc-f8bc1246af59, $GPGGA,203415.00,4437.5859,N,12402.8847,W,1,11,0.8,22.4,M,-21.8,M,,*66
2021-07-16 20:34:17Z, 6cda8203-a249-e411-b0cc-f8bc1246af59, $GPGGA,203416.00,4437.5860,N,12402.8848,W,1,11,0.8,22.5,M,-21.8,M,,*61
2021-07-16 20:34:19Z, 6cda8203-a249-e411-b0cc-f8bc1246af59, $GPGGA,203418.00,4437.5859,N,12402.8848,W,1,11,0.8,22.5,M,-21.8,M,,*65
2021-07-16 20:34:20Z, 6cda8203-a249-e411-b0cc-f8bc1246af59, $GPGGA,203419.00,4437.5858,N,12402.8847,W,1,11,0.8,22.5,M,-21.8,M,,*6A
2021-07-16 20:34:22Z, 6cda8203-a249-e411-b0cc-f8bc1246af59, $GPGGA,203421.00,4437.5856,N,12402.8846,W,1,11,0.8,22.5,M,-21.8,M,,*6E
2021-07-16 20:34:23Z, 6cda8203-a249-e411-b0cc-f8bc1246af59, $GPGGA,203422.00,4437.5856,N,12402.8846,W,1,11,0.8,22.4,M,-21.8,M,,*6C
2021-07-16 20:34:25Z, 6cda8203-a249-e411-b0cc-f8bc1246af59, $GPGGA,203424.00,4437.5855,N,12402.8845,W,1,11,0.8,22.4,M,-21.8,M,,*6A
2021-07-16 20:34:26Z, 6cda8203-a249-e411-b0cc-f8bc1246af59, $GPGGA,203425.00,4437.5854,N,12402.8844,W,1,11,0.8,22.4,M,-21.8,M,,*6B
2021-07-16 20:34:28Z, 6cda8203-a249-e411-b0cc-f8bc1246af59, $GPGGA,203427.00,4437.5855,N,12402.8844,W,1,11,0.8,22.4,M,-21.8,M,,*68
2021-07-16 20:34:29Z, 6cda8203-a249-e411-b0cc-f8bc1246af59, $GPGGA,203428.00,4437.5856,N,12402.8844,W,1,11,0.8,22.4,M,-21.8,M,,*64
2021-07-16 20:34:31Z, 6cda8203-a249-e411-b0cc-f8bc1246af59, $GPGGA,203430.00,4437.5856,N,12402.8843,W,1,11,0.8,22.4,M,-21.8,M,,*6A
2021-07-16 20:34:32Z, 6cda8203-a249-e411-b0cc-f8bc1246af59, $GPGGA,203431.00,4437.5855,N,12402.8844,W,1,11,0.8,22.4,M,-21.8,M,,*6F
2021-07-16 20:34:34Z, 6cda8203-a249-e411-b0cc-f8bc1246af59, $GPGGA,203433.00,4437.5857,N,12402.8839,W,1,11,0.8,22.4,M,-21.8,M,,*65
2021-07-16 20:34:35Z, 6cda8203-a249-e411-b0cc-f8bc1246af59, $GPGGA,203434.00,4437.5858,N,12402.8838,W,1,11,0.8,22.4,M,-21.8,M,,*6C
2021-07-16 20:34:37Z, 6cda8203-a249-e411-b0cc-f8bc1246af59, $GPGGA,203436.00,4437.5854,N,12402.8839,W,1,11,0.8,22.4,M,-21.8,M,,*63
2021-07-16 20:34:38Z, 6cda8203-a249-e411-b0cc-f8bc1246af59, $GPGGA,203437.00,4437.5854,N,12402.8840,W,1,11,0.8,22.5,M,-21.8,M,,*6D
2021-07-16 20:34:40Z, 6cda8203-a249-e411-b0cc-f8bc1246af59, $GPGGA,203439.00,4437.5851,N,12402.8842,W,1,11,0.8,22.5,M,-21.8,M,,*64
2021-07-16 20:34:41Z, 6cda8203-a249-e411-b0cc-f8bc1246af59, $GPGGA,203440.00,4437.5851,N,12402.8842,W,1,11,0.8,22.6,M,-21.8,M,,*69
2021-07-16 20:34:43Z, 6cda8203-a249-e411-b0cc-f8bc1246af59, $GPGGA,203442.00,4437.5853,N,12402.8844,W,1,11,0.8,22.5,M,-21.8,M,,*6C
2021-07-16 20:34:44Z, 6cda8203-a249-e411-b0cc-f8bc1246af59, $GPGGA,203443.00,4437.5854,N,12402.8846,W,1,11,0.8,22.5,M,-21.8,M,,*68
2021-07-16 20:34:46Z, 6cda8203-a249-e411-b0cc-f8bc1246af59, $GPGGA,203445.00,4437.5855,N,12402.8845,W,1,11,0.8,22.6,M,-21.8,M,,*6F
2021-07-16 20:34:47Z, 6cda8203-a249-e411-b0cc-f8bc1246af59, $GPGGA,203446.00,4437.5856,N,12402.8843,W,1,11,0.8,22.6,M,-21.8,M,,*69
2021-07-16 20:34:49Z, 6cda8203-a249-e411-b0cc-f8bc1246af59, $GPGGA,203448.00,4437.5859,N,12402.8847,W,1,10,0.8,22.7,M,-21.8,M,,*6C
2021-07-16 20:34:50Z, 6cda8203-a249-e411-b0cc-f8bc1246af59, $GPGGA,203449.00,4437.5858,N,12402.8847,W,1,10,0.8,22.7,M,-21.8,M,,*6C
2021-07-16 20:34:52Z, 6cda8203-a249-e411-b0cc-f8bc1246af59, $GPGGA,203451.00,4437.5868,N,12402.8856,W,1,10,0.8,23.0,M,-21.8,M,,*60
2021-07-16 20:34:53Z, 6cda8203-a249-e411-b0cc-f8bc1246af59, $GPGGA,203452.00,4437.5869,N,12402.8858,W,1,11,0.8,23.0,M,-21.8,M,,*6D
2021-07-16 20:34:55Z, 6cda8203-a249-e411-b0cc-f8bc1246af59, $GPGGA,203454.00,4437.5870,N,12402.8861,W,1,11,0.8,23.0,M,-21.8,M,,*69
2021-07-16 20:34:56Z, 6cda8203-a249-e411-b0cc-f8bc1246af59, $GPGGA,203455.00,4437.5872,N,12402.8860,W,1,11,0.8,22.9,M,-21.8,M,,*63
2021-07-16 20:34:58Z, 6cda8203-a249-e411-b0cc-f8bc1246af59, $GPGGA,203457.00,4437.5874,N,12402.8862,W,1,11,0.8,22.8,M,-21.8,M,,*64
2021-07-16 20:34:59Z, 6cda8203-a249-e411-b0cc-f8bc1246af59, $GPGGA,203458.00,4437.5873,N,12402.8864,W,1,11,0.8,22.8,M,-21.8,M,,*6A
2021-07-16 20:35:01Z, 6cda8203-a249-e411-b0cc-f8bc1246af59, $GPGGA,203500.00,4437.5871,N,12402.8866,W,1,11,0.8,22.9,M,-21.8,M,,*67
2021-07-16 20:35:02Z, 6cda8203-a249-e411-b0cc-f8bc1246af59, $GPGGA,203501.00,4437.5869,N,12402.8866,W,1,11,0.8,22.8,M,-21.8,M,,*6E
2021-07-16 20:35:04Z, 6cda8203-a249-e411-b0cc-f8bc1246af59, $GPGGA,203503.00,4437.5870,N,12402.8867,W,1,11,0.8,22.6,M,-21.8,M,,*6B
2021-07-16 20:35:05Z, 6cda8203-a249-e411-b0cc-f8bc1246af59, $GPGGA,203504.00,4437.5871,N,12402.8866,W,1,11,0.8,22.6,M,-21.8,M,,*6C
2021-07-16 20:35:07Z, 6cda8203-a249-e411-b0cc-f8bc1246af59, $GPGGA,203506.00,4437.5869,N,12402.8867,W,1,11,0.8,22.7,M,-21.8,M,,*67
2021-07-16 20:35:08Z, 6cda8203-a249-e411-b0cc-f8bc1246af59, $GPGGA,203507.00,4437.5868,N,12402.8868,W,1,11,0.8,22.7,M,-21.8,M,,*68
2021-07-16 20:35:10Z, 6cda8203-a249-e411-b0cc-f8bc1246af59, $GPGGA,203509.00,4437.5867,N,12402.8872,W,1,11,0.8,22.8,M,-21.8,M,,*6D
2021-07-16 20:35:11Z, 6cda8203-a249-e411-b0cc-f8bc1246af59, $GPGGA,203510.00,4437.5866,N,12402.8873,W,1,11,0.8,23.0,M,-21.8,M,,*6C
2021-07-16 20:35:13Z, 6cda8203-a249-e411-b0cc-f8bc1246af59, $GPGGA,203512.00,4437.5865,N,12402.8876,W,1,11,0.8,22.9,M,-21.8,M,,*60
2021-07-16 20:35:14Z, 6cda8203-a249-e411-b0cc-f8bc1246af59, $GPGGA,203513.00,4437.5865,N,12402.8878,W,1,11,0.8,22.8,M,-21.8,M,,*6E
2021-07-16 20:35:16Z, 6cda8203-a249-e411-b0cc-f8bc1246af59, $GPGGA,203515.00,4437.5865,N,12402.8882,W,1,11,0.8,22.6,M,-21.8,M,,*63
2021-07-16 20:35:17Z, 6cda8203-a249-e411-b0cc-f8bc1246af59, $GPGGA,203516.00,4437.5864,N,12402.8885,W,1,11,0.8,22.6,M,-21.8,M,,*66
2021-07-16 20:35:19Z, 6cda8203-a249-e411-b0cc-f8bc1246af59, $GPGGA,203518.00,4437.5864,N,12402.8886,W,1,11,0.8,22.4,M,-21.8,M,,*69
2021-07-16 20:35:20Z, 6cda8203-a249-e411-b0cc-f8bc1246af59, $GPGGA,203519.00,4437.5863,N,12402.8887,W,1,11,0.8,22.5,M,-21.8,M,,*6F
2021-07-16 20:35:22Z, 6cda8203-a249-e411-b0cc-f8bc1246af59, $GPGGA,203521.00,4437.5864,N,12402.8888,W,1,11,0.8,22.4,M,-21.8,M,,*6D
2021-07-16 20:35:23Z, 6cda8203-a249-e411-b0cc-f8bc1246af59, $GPGGA,203522.00,4437.5864,N,12402.8890,W,1,11,0.8,22.3,M,-21.8,M,,*60
2021-07-16 20:35:25Z, 6cda8203-a249-e411-b0cc-f8bc1246af59, $GPGGA,203524.00,4437.5862,N,12402.8895,W,1,11,0.8,22.5,M,-21.8,M,,*63
2021-07-16 20:35:26Z, 6cda8203-a249-e411-b0cc-f8bc1246af59, $GPGGA,203525.00,4437.5861,N,12402.8899,W,1,11,0.8,22.5,M,-21.8,M,,*6D
2021-07-16 20:35:28Z, 6cda8203-a249-e411-b0cc-f8bc1246af59, $GPGGA,203527.00,4437.5861,N,12402.8903,W,1,11,0.8,22.4,M,-21.8,M,,*6C
2021-07-16 20:35:29Z, 6cda8203-a249-e411-b0cc-f8bc1246af59, $GPGGA,203528.00,4437.5862,N,12402.8905,W,1,11,0.8,22.4,M,-21.8,M,,*66
2021-07-16 20:35:31Z, 6cda8203-a249-e411-b0cc-f8bc1246af59, $GPGGA,203530.00,4437.5864,N,12402.8905,W,1,11,0.8,22.4,M,-21.8,M,,*69
2021-07-16 20:35:32Z, 6cda8203-a249-e411-b0cc-f8bc1246af59, $GPGGA,203531.00,4437.5865,N,12402.8907,W,1,11,0.8,22.4,M,-21.8,M,,*6B
2021-07-16 20:35:34Z, 6cda8203-a249-e411-b0cc-f8bc1246af59, $GPGGA,203533.00,4437.5867,N,12402.8908,W,1,11,0.8,22.4,M,-21.8,M,,*64
2021-07-16 20:35:35Z, 6cda8203-a249-e411-b0cc-f8bc1246af59, $GPGGA,203534.00,4437.5865,N,12402.8909,W,1,11,0.8,22.4,M,-21.8,M,,*60
2021-07-16 20:35:36Z, 6cda8203-a249-e411-b0cc-f8bc1246af59, $GPGGA,203536.00,4437.5865,N,12402.8909,W,1,11,0.8,22.5,M,-21.8,M,,*63
2021-07-16 20:35:38Z, 6cda8203-a249-e411-b0cc-f8bc1246af59, $GPGGA,203537.00,4437.5865,N,12402.8911,W,1,11,0.8,22.5,M,-21.8,M,,*6B
2021-07-16 20:35:39Z, 6cda8203-a249-e411-b0cc-f8bc1246af59, $GPGGA,203538.00,4437.5866,N,12402.8912,W,1,11,0.8,22.5,M,-21.8,M,,*64
2021-07-16 20:35:41Z, 6cda8203-a249-e411-b0cc-f8bc1246af59, $GPGGA,203539.00,4437.5865,N,12402.8910,W,1,11,0.8,22.5,M,-21.8,M,,*64
2021-07-16 20:35:41Z, 6cda8203-a249-e411-b0cc-f8bc1246af59, $GPGGA,203540.00,4437.5865,N,12402.8908,W,1,11,0.8,22.4,M,-21.8,M,,*62
2021-07-16 20:35:42Z, 6cda8203-a249-e411-b0cc-f8bc1246af59, $GPGGA,203541.00,4437.5862,N,12402.8908,W,1,11,0.8,22.3,M,-21.8,M,,*63
2021-07-16 20:35:43Z, 6cda8203-a249-e411-b0cc-f8bc1246af59, $GPGGA,203542.00,4437.5862,N,12402.8906,W,1,11,0.8,22.3,M,-21.8,M,,*6E
2021-07-16 20:35:45Z, 6cda8203-a249-e411-b0cc-f8bc1246af59, $GPGGA,203544.00,4437.5861,N,12402.8901,W,1,11,0.8,22.2,M,-21.8,M,,*6D
2021-07-16 20:35:46Z, 6cda8203-a249-e411-b0cc-f8bc1246af59, $GPGGA,203545.00,4437.5860,N,12402.8902,W,1,11,0.8,22.2,M,-21.8,M,,*6E
2021-07-16 20:35:48Z, 6cda8203-a249-e411-b0cc-f8bc1246af59, $GPGGA,203547.00,4437.5858,N,12402.8902,W,1,11,0.8,22.2,M,-21.8,M,,*67
2021-07-16 20:35:49Z, 6cda8203-a249-e411-b0cc-f8bc1246af59, $GPGGA,203548.00,4437.5857,N,12402.8899,W,1,11,0.8,22.2,M,-21.8,M,,*64
2021-07-16 20:35:50Z, 6cda8203-a249-e411-b0cc-f8bc1246af59, $GPGGA,203549.00,4437.5857,N,12402.8898,W,1,11,0.8,22.2,M,-21.8,M,,*64
2021-07-16 20:35:51Z, 6cda8203-a249-e411-b0cc-f8bc1246af59, $GPGGA,203550.00,4437.5856,N,12402.8899,W,1,11,0.8,22.2,M,-21.8,M,,*6C
2021-07-16 20:35:52Z, 6cda8203-a249-e411-b0cc-f8bc1246af59, $GPGGA,203551.00,4437.5854,N,12402.8896,W,1,11,0.8,22.2,M,-21.8,M,,*60
2021-07-16 20:35:53Z, 6cda8203-a249-e411-b0cc-f8bc1246af59, $GPGGA,203552.00,4437.5853,N,12402.8894,W,1,11,0.8,22.2,M,-21.8,M,,*66
2021-07-16 20:35:55Z, 6cda8203-a249-e411-b0cc-f8bc1246af59, $GPGGA,203554.00,4437.5851,N,12402.8891,W,1,11,0.8,22.1,M,-21.8,M,,*64
2021-07-16 20:35:56Z, 6cda8203-a249-e411-b0cc-f8bc1246af59, $GPGGA,203555.00,4437.5849,N,12402.8889,W,1,11,0.8,22.0,M,-21.8,M,,*64
2021-07-16 20:35:57Z, 6cda8203-a249-e411-b0cc-f8bc1246af59, $GPGGA,203556.00,4437.5849,N,12402.8889,W,1,11,0.8,21.9,M,-21.8,M,,*6D
2021-07-16 20:35:59Z, 6cda8203-a249-e411-b0cc-f8bc1246af59, $GPGGA,203558.00,4437.5845,N,12402.8887,W,1,11,0.8,21.9,M,-21.8,M,,*61
2021-07-16 20:36:00Z, 6cda8203-a249-e411-b0cc-f8bc1246af59, $GPGGA,203559.00,4437.5844,N,12402.8885,W,1,11,0.8,21.9,M,-21.8,M,,*63
2021-07-16 20:36:01Z, 6cda8203-a249-e411-b0cc-f8bc1246af59, $GPGGA,203600.00,4437.5843,N,12402.8883,W,1,11,0.8,21.8,M,-21.8,M,,*6C
2021-07-16 20:36:02Z, 6cda8203-a249-e411-b0cc-f8bc1246af59, $GPGGA,203601.00,4437.5844,N,12402.8883,W,1,11,0.8,21.9,M,-21.8,M,,*6B
2021-07-16 20:36:04Z, 6cda8203-a249-e411-b0cc-f8bc1246af59, $GPGGA,203603.00,4437.5846,N,12402.8883,W,1,11,0.8,22.1,M,-21.8,M,,*60
2021-07-16 20:36:05Z, 6cda8203-a249-e411-b0cc-f8bc1246af59, $GPGGA,203604.00,4437.5847,N,12402.8883,W,1,11,0.8,22.2,M,-21.8,M,,*65
2021-07-16 20:36:07Z, 6cda8203-a249-e411-b0cc-f8bc1246af59, $GPGGA,203606.00,4437.5851,N,12402.8882,W,1,11,0.8,22.3,M,-21.8,M,,*60
2021-07-16 20:36:08Z, 6cda8203-a249-e411-b0cc-f8bc1246af59, $GPGGA,203607.00,4437.5851,N,12402.8880,W,1,11,0.8,22.3,M,-21.8,M,,*63
2021-07-16 20:36:09Z, 6cda8203-a249-e411-b0cc-f8bc1246af59, $GPGGA,203608.00,4437.5852,N,12402.8878,W,1,11,0.8,22.4,M,-21.8,M,,*6F
2021-07-16 20:36:10Z, 6cda8203-a249-e411-b0cc-f8bc1246af59, $GPGGA,203609.00,4437.5853,N,12402.8875,W,1,11,0.8,22.5,M,-21.8,M,,*63
2021-07-16 20:36:11Z, 6cda8203-a249-e411-b0cc-f8bc1246af59, $GPGGA,203610.00,4437.5854,N,12402.8873,W,1,11,0.8,22.5,M,-21.8,M,,*6A
2021-07-16 20:36:12Z, 6cda8203-a249-e411-b0cc-f8bc1246af59, $GPGGA,203611.00,4437.5853,N,12402.8871,W,1,11,0.8,22.6,M,-21.8,M,,*6D
2021-07-16 20:36:13Z, 6cda8203-a249-e411-b0cc-f8bc1246af59, $GPGGA,203612.00,4437.5853,N,12402.8870,W,1,11,0.8,22.5,M,-21.8,M,,*6C
2021-07-16 20:36:15Z, 6cda8203-a249-e411-b0cc-f8bc1246af59, $GPGGA,203614.00,4437.5851,N,12402.8870,W,1,11,0.8,22.6,M,-21.8,M,,*6B
2021-07-16 20:36:16Z, 6cda8203-a249-e411-b0cc-f8bc1246af59, $GPGGA,203615.00,4437.5852,N,12402.8870,W,1,11,0.8,22.5,M,-21.8,M,,*6A
2021-07-16 20:36:17Z, 6cda8203-a249-e411-b0cc-f8bc1246af59, $GPGGA,203616.00,4437.5851,N,12402.8870,W,1,11,0.8,22.5,M,-21.8,M,,*6A
2021-07-16 20:36:18Z, 6cda8203-a249-e411-b0cc-f8bc1246af59, $GPGGA,203617.00,4437.5851,N,12402.8869,W,1,11,0.8,22.5,M,-21.8,M,,*63
2021-07-16 20:36:20Z, 6cda8203-a249-e411-b0cc-f8bc1246af59, $GPGGA,203619.00,4437.5852,N,12402.8861,W,1,11,0.8,22.3,M,-21.8,M,,*60
2021-07-16 20:36:21Z, 6cda8203-a249-e411-b0cc-f8bc1246af59, $GPGGA,203620.00,4437.5851,N,12402.8858,W,1,11,0.8,22.2,M,-21.8,M,,*62
2021-07-16 20:36:22Z, 6cda8203-a249-e411-b0cc-f8bc1246af59, $GPGGA,203621.00,4437.5851,N,12402.8856,W,1,11,0.8,22.2,M,-21.8,M,,*6D
2021-07-16 20:36:23Z, 6cda8203-a249-e411-b0cc-f8bc1246af59, $GPGGA,203622.00,4437.5851,N,12402.8854,W,1,11,0.8,22.2,M,-21.8,M,,*6C
