ACQ Timestamp (Server Time in UTC), MessageID, Data Value For: GNSS-6452-$GPGGA
2021-06-16 00:00:01Z, 6cda8203-a249-e411-b0cc-f8bc1246af59, $GPGGA,000000.00,4437.5873,N,12402.8872,W,1,11,0.8,36.0,M,-21.8,M,,*68
2021-06-16 00:00:02Z, 6cda8203-a249-e411-b0cc-f8bc1246af59, $GPGGA,000001.00,4437.5872,N,12402.8872,W,1,11,0.8,35.9,M,-21.8,M,,*62
2021-06-16 00:00:04Z, 6cda8203-a249-e411-b0cc-f8bc1246af59, $GPGGA,000003.00,4437.5872,N,12402.8871,W,1,11,0.8,35.9,M,-21.8,M,,*63
2021-06-16 00:00:05Z, 6cda8203-a249-e411-b0cc-f8bc1246af59, $GPGGA,000004.00,4437.5872,N,12402.8871,W,1,11,0.8,35.9,M,-21.8,M,,*64
2021-06-16 00:00:07Z, 6cda8203-a249-e411-b0cc-f8bc1246af59, $GPGGA,000006.00,4437.5871,N,12402.8870,W,1,11,0.8,35.9,M,-21.8,M,,*64
2021-06-16 00:00:08Z, 6cda8203-a249-e411-b0cc-f8bc1246af59, $GPGGA,000007.00,4437.5871,N,12402.8870,W,1,11,0.8,35.8,M,-21.8,M,,*64
2021-06-16 00:00:10Z, 6cda8203-a249-e411-b0cc-f8bc1246af59, $GPGGA,000009.00,4437.5870,N,12402.8868,W,1,11,0.8,35.8,M,-21.8,M,,*62
2021-06-16 00:00:11Z, 6cda8203-a249-e411-b0cc-f8bc1246af59, $GPGGA,000010.00,4437.5870,N,12402.8867,W,1,11,0.8,35.8,M,-21.8,M,,*65
2021-06-16 00:00:13Z, 6cda8203-a249-e411-b0cc-f8bc1246af59, $GPGGA,000012.00,4437.5869,N,12402.8866,W,1,11,0.8,35.8,M,-21.8,M,,*6E
2021-06-16 00:00:14Z, 6cda8203-a249-e411-b0cc-f8bc1246af59, $GPGGA,000013.00,4437.5870,N,12402.8866,W,1,11,0.8,35.8,M,-21.8,M,,*67
2021-06-16 00:00:16Z, 6cda8203-a249-e411-b0cc-f8bc1246af59, $GPGGA,000015.00,4437.5869,N,12402.8865,W,1,11,0.8,35.8,M,-21.8,M,,*6A
2021-06-16 00:00:17Z, 6cda8203-a249-e411-b0cc-f8bc1246af59, $GPGGA,000016.00,4437.5869,N,12402.8865,W,1,11,0.8,35.7,M,-21.8,M,,*66
2021-06-16 00:00:19Z, 6cda8203-a249-e411-b0cc-f8bc1246af59, $GPGGA,000018.00,4437.5869,N,12402.8863,W,1,11,0.8,35.8,M,-21.8,M,,*61
2021-06-16 00:00:20Z, 6cda8203-a249-e411-b0cc-f8bc1246af59, $GPGGA,000019.00,4437.5870,N,12402.8862,W,1,11,0.8,35.7,M,-21.8,M,,*66
2021-06-16 00:00:22Z, 6cda8203-a249-e411-b0cc-f8bc1246af59, $GPGGA,000021.00,4437.5872,N,12402.8860,W,1,11,0.8,35.5,M,-21.8,M,,*6F
2021-06-16 00:00:23Z, 6cda8203-a249-e411-b0cc-f8bc1246af59, $GPGGA,000022.00,4437.5873,N,12402.8855,W,1,11,0.8,35.6,M,-21.8,M,,*68
2021-06-16 00:00:25Z, 6cda8203-a249-e411-b0cc-f8bc1246af59, $GPGGA,000024.00,4437.5878,N,12402.8847,W,1,11,0.8,35.7,M,-21.8,M,,*67
2021-06-16 00:00:26Z, 6cda8203-a249-e411-b0cc-f8bc1246af59, $GPGGA,000025.00,4437.5878,N,12402.8846,W,1,11,0.8,35.8,M,-21.8,M,,*68
2021-06-16 00:00:28Z, 6cda8203-a249-e411-b0cc-f8bc1246af59, $GPGGA,000027.00,4437.5875,N,12402.8840,W,1,11,0.8,35.4,M,-21.8,M,,*6D
2021-06-16 00:00:29Z, 6cda8203-a249-e411-b0cc-f8bc1246af59, $GPGGA,000028.00,4437.5877,N,12402.8837,W,1,11,0.8,35.3,M,-21.8,M,,*67
2021-06-16 00:00:29Z, 6cda8203-a249-e411-b0cc-f8bc1246af59, $GPGGA,000029.00,4437.5876,N,12402.8836,W,1,11,0.8,35.1,M,-21.8,M,,*64
2021-06-16 00:00:31Z, 6cda8203-a249-e411-b0cc-f8bc1246af59, $GPGGA,000030.00,4437.5874,N,12402.8832,W,1,11,0.8,34.9,M,-21.8,M,,*63
2021-06-16 00:00:32Z, 6cda8203-a249-e411-b0cc-f8bc1246af59, $GPGGA,000031.00,4437.5873,N,12402.8829,W,1,11,0.8,34.8,M,-21.8,M,,*6E
2021-06-16 00:00:33Z, 6cda8203-a249-e411-b0cc-f8bc1246af59, $GPGGA,000032.00,4437.5872,N,12402.8826,W,1,11,0.8,35.0,M,-21.8,M,,*6A
2021-06-16 00:00:34Z, 6cda8203-a249-e411-b0cc-f8bc1246af59, $GPGGA,000033.00,4437.5872,N,12402.8825,W,1,11,0.8,34.9,M,-21.8,M,,*60
2021-06-16 00:00:36Z, 6cda8203-a249-e411-b0cc-f8bc1246af59, $GPGGA,000035.00,4437.5872,N,12402.8822,W,1,11,0.8,35.2,M,-21.8,M,,*6B
2021-06-16 00:00:38Z, 6cda8203-a249-e411-b0cc-f8bc1246af59, $GPGGA,000036.00,4437.5869,N,12402.8820,W,1,11,0.8,35.3,M,-21.8,M,,*61
2021-06-16 00:00:39Z, 6cda8203-a249-e411-b0cc-f8bc1246af59, $GPGGA,000037.00,4437.5871,N,12402.8819,W,1,11,0.8,35.4,M,-21.8,M,,*64
2021-06-16 00:00:40Z, 6cda8203-a249-e411-b0cc-f8bc1246af59, $GPGGA,000038.00,4437.5871,N,12402.8817,W,1,11,0.8,35.4,M,-21.8,M,,*65
2021-06-16 00:00:41Z, 6cda8203-a249-e411-b0cc-f8bc1246af59, $GPGGA,000039.00,4437.5870,N,12402.8815,W,1,11,0.8,35.4,M,-21.8,M,,*67
2021-06-16 00:00:42Z, 6cda8203-a249-e411-b0cc-f8bc1246af59, $GPGGA,000041.00,4437.5872,N,12402.8812,W,1,11,0.8,35.4,M,-21.8,M,,*6D
2021-06-16 00:00:44Z, 6cda8203-a249-e411-b0cc-f8bc1246af59, $GPGGA,000042.00,4437.5872,N,12402.8813,W,1,11,0.8,35.6,M,-21.8,M,,*6D
2021-06-16 00:00:44Z, 6cda8203-a249-e411-b0cc-f8bc1246af59, $GPGGA,000043.00,4437.5872,N,12402.8811,W,1,11,0.8,35.7,M,-21.8,M,,*6F
2021-06-16 00:00:46Z, 6cda8203-a249-e411-b0cc-f8bc1246af59, $GPGGA,000044.00,4437.5873,N,12402.8809,W,1,11,0.8,35.8,M,-21.8,M,,*6F
2021-06-16 00:00:47Z, 6cda8203-a249-e411-b0cc-f8bc1246af59, $GPGGA,000046.00,4437.5876,N,12402.8807,W,1,11,0.8,36.1,M,-21.8,M,,*6C
2021-06-16 00:00:49Z, 6cda8203-a249-e411-b0cc-f8bc1246af59, $GPGGA,000047.00,4437.5877,N,12402.8806,W,1,11,0.8,36.3,M,-21.8,M,,*6F
2021-06-16 00:00:50Z, 6cda8203-a249-e411-b0cc-f8bc1246af59, $GPGGA,000049.00,4437.5881,N,12402.8803,W,1,11,0.8,36.7,M,-21.8,M,,*69
2021-06-16 00:00:51Z, 6cda8203-a249-e411-b0cc-f8bc1246af59, $GPGGA,000050.00,4437.5880,N,12402.8803,W,1,11,0.8,36.7,M,-21.8,M,,*60
2021-06-16 00:00:53Z, 6cda8203-a249-e411-b0cc-f8bc1246af59, $GPGGA,000052.00,4437.5880,N,12402.8803,W,1,11,0.8,36.8,M,-21.8,M,,*6D
2021-06-16 00:00:54Z, 6cda8203-a249-e411-b0cc-f8bc1246af59, $GPGGA,000053.00,4437.5879,N,12402.8804,W,1,11,0.8,36.8,M,-21.8,M,,*6D
2021-06-16 00:00:55Z, 6cda8203-a249-e411-b0cc-f8bc1246af59, $GPGGA,000054.00,4437.5877,N,12402.8804,W,1,11,0.8,36.9,M,-21.8,M,,*65
2021-06-16 00:00:57Z, 6cda8203-a249-e411-b0cc-f8bc1246af59, $GPGGA,000056.00,4437.5880,N,12402.8805,W,1,11,0.8,36.8,M,-21.8,M,,*6F
2021-06-16 00:00:58Z, 6cda8203-a249-e411-b0cc-f8bc1246af59, $GPGGA,000057.00,4437.5880,N,12402.8806,W,1,11,0.8,36.8,M,-21.8,M,,*6D
2021-06-16 00:00:59Z, 6cda8203-a249-e411-b0cc-f8bc1246af59, $GPGGA,000058.00,4437.5882,N,12402.8807,W,1,11,0.8,36.8,M,-21.8,M,,*61
2021-06-16 00:01:00Z, 6cda8203-a249-e411-b0cc-f8bc1246af59, $GPGGA,000059.00,4437.5882,N,12402.8807,W,1,11,0.8,36.8,M,-21.8,M,,*60
2021-06-16 00:01:01Z, 6cda8203-a249-e411-b0cc-f8bc1246af59, $GPGGA,000100.00,4437.5881,N,12402.8808,W,1,11,0.8,36.8,M,-21.8,M,,*61
2021-06-16 00:01:03Z, 6cda8203-a249-e411-b0cc-f8bc1246af59, $GPGGA,000102.00,4437.5881,N,12402.8812,W,1,11,0.8,36.5,M,-21.8,M,,*65
2021-06-16 00:01:04Z, 6cda8203-a249-e411-b0cc-f8bc1246af59, $GPGGA,000103.00,4437.5881,N,12402.8815,W,1,11,0.8,36.5,M,-21.8,M,,*63
2021-06-16 00:01:06Z, 6cda8203-a249-e411-b0cc-f8bc1246af59, $GPGGA,000105.00,4437.5879,N,12402.8818,W,1,11,0.8,36.4,M,-21.8,M,,*6E
2021-06-16 00:01:07Z, 6cda8203-a249-e411-b0cc-f8bc1246af59, $GPGGA,000106.00,4437.5879,N,12402.8820,W,1,11,0.8,36.5,M,-21.8,M,,*67
2021-06-16 00:01:08Z, 6cda8203-a249-e411-b0cc-f8bc1246af59, $GPGGA,000107.00,4437.5878,N,12402.8822,W,1,11,0.8,36.5,M,-21.8,M,,*65
2021-06-16 00:01:09Z, 6cda8203-a249-e411-b0cc-f8bc1246af59, $GPGGA,000108.00,4437.5877,N,12402.8821,W,1,11,0.8,36.6,M,-21.8,M,,*65
2021-06-16 00:01:10Z, 6cda8203-a249-e411-b0cc-f8bc1246af59, $GPGGA,000109.00,4437.5877,N,12402.8822,W,1,11,0.8,36.6,M,-21.8,M,,*67
2021-06-16 00:01:12Z, 6cda8203-a249-e411-b0cc-f8bc1246af59, $GPGGA,000111.00,4437.5874,N,12402.8824,W,1,11,0.8,36.3,M,-21.8,M,,*6E
2021-06-16 00:01:13Z, 6cda8203-a249-e411-b0cc-f8bc1246af59, $GPGGA,000112.00,4437.5873,N,12402.8823,W,1,11,0.8,36.4,M,-21.8,M,,*6A
2021-06-16 00:01:15Z, 6cda8203-a249-e411-b0cc-f8bc1246af59, $GPGGA,000114.00,4437.5873,N,12402.8821,W,1,11,0.8,36.5,M,-21.8,M,,*6F
2021-06-16 00:01:16Z, 6cda8203-a249-e411-b0cc-f8bc1246af59, $GPGGA,000115.00,4437.5874,N,12402.8823,W,1,11,0.8,36.3,M,-21.8,M,,*6D
2021-06-16 00:01:17Z, 6cda8203-a249-e411-b0cc-f8bc1246af59, $GPGGA,000116.00,4437.5875,N,12402.8821,W,1,11,0.8,36.3,M,-21.8,M,,*6D
2021-06-16 00:01:18Z, 6cda8203-a249-e411-b0cc-f8bc1246af59, $GPGGA,000117.00,4437.5874,N,12402.8821,W,1,11,0.8,36.2,M,-21.8,M,,*6C
2021-06-16 00:01:20Z, 6cda8203-a249-e411-b0cc-f8bc1246af59, $GPGGA,000119.00,4437.5872,N,12402.8823,W,1,11,0.8,36.0,M,-21.8,M,,*64
2021-06-16 00:01:21Z, 6cda8203-a249-e411-b0cc-f8bc1246af59, $GPGGA,000120.00,4437.5872,N,12402.8823,W,1,11,0.8,35.9,M,-21.8,M,,*64
2021-06-16 00:01:22Z, 6cda8203-a249-e411-b0cc-f8bc1246af59, $GPGGA,000121.00,4437.5872,N,12402.8825,W,1,11,0.8,35.9,M,-21.8,M,,*63
2021-06-16 00:01:23Z, 6cda8203-a249-e411-b0cc-f8bc1246af59, $GPGGA,000122.00,4437.5870,N,12402.8828,W,1,11,0.8,36.0,M,-21.8,M,,*65
2021-06-16 00:01:24Z, 6cda8203-a249-e411-b0cc-f8bc1246af59, $GPGGA,000123.00,4437.5869,N,12402.8825,W,1,11,0.8,35.9,M,-21.8,M,,*6B
2021-06-16 00:01:26Z, 6cda8203-a249-e411-b0cc-f8bc1246af59, $GPGGA,000125.00,4437.5868,N,12402.8822,W,1,11,0.8,35.6,M,-21.8,M,,*64
2021-06-16 00:01:27Z, 6cda8203-a249-e411-b0cc-f8bc1246af59, $GPGGA,000126.00,4437.5869,N,12402.8819,W,1,11,0.8,35.7,M,-21.8,M,,*6F
2021-06-16 00:01:28Z, 6cda8203-a249-e411-b0cc-f8bc1246af59, $GPGGA,000127.00,4437.5869,N,12402.8818,W,1,11,0.8,35.8,M,-21.8,M,,*60
2021-06-16 00:01:29Z, 6cda8203-a249-e411-b0cc-f8bc1246af59, $GPGGA,000128.00,4437.5870,N,12402.8819,W,1,11,0.8,35.8,M,-21.8,M,,*66
2021-06-16 00:01:31Z, 6cda8203-a249-e411-b0cc-f8bc1246af59, $GPGGA,000130.00,4437.5871,N,12402.8821,W,1,11,0.8,35.7,M,-21.8,M,,*6A
2021-06-16 00:01:32Z, 6cda8203-a249-e411-b0cc-f8bc1246af59, $GPGGA,000131.00,4437.5872,N,12402.8823,W,1,11,0.8,35.7,M,-21.8,M,,*6A
2021-06-16 00:01:33Z, 6cda8203-a249-e411-b0cc-f8bc1246af59, $GPGGA,000132.00,4437.5873,N,12402.8826,W,1,11,0.8,35.7,M,-21.8,M,,*6D
2021-06-16 00:01:34Z, 6cda8203-a249-e411-b0cc-f8bc1246af59, $GPGGA,000133.00,4437.5873,N,12402.8829,W,1,10,1.3,35.7,M,-21.8,M,,*68
2021-06-16 00:01:35Z, 6cda8203-a249-e411-b0cc-f8bc1246af59, $GPGGA,000134.00,4437.5873,N,12402.8829,W,1,10,1.3,35.7,M,-21.8,M,,*6F
2021-06-16 00:01:37Z, 6cda8203-a249-e411-b0cc-f8bc1246af59, $GPGGA,000136.00,4437.5872,N,12402.8833,W,1,10,1.3,35.7,M,-21.8,M,,*67
2021-06-16 00:01:38Z, 6cda8203-a249-e411-b0cc-f8bc1246af59, $GPGGA,000137.00,4437.5873,N,12402.8837,W,1,10,1.3,35.7,M,-21.8,M,,*63
2021-06-16 00:01:40Z, 6cda8203-a249-e411-b0cc-f8bc1246af59, $GPGGA,000139.00,4437.5872,N,12402.8853,W,1,10,1.3,35.8,M,-21.8,M,,*61
2021-06-16 00:01:41Z, 6cda8203-a249-e411-b0cc-f8bc1246af59, $GPGGA,000140.00,4437.5872,N,12402.8853,W,1,10,1.3,35.8,M,-21.8,M,,*6F
2021-06-16 00:01:42Z, 6cda8203-a249-e411-b0cc-f8bc1246af59, $GPGGA,000141.00,4437.5871,N,12402.8854,W,1,10,1.3,35.9,M,-21.8,M,,*6B
2021-06-16 00:01:44Z, 6cda8203-a249-e411-b0cc-f8bc1246af59, $GPGGA,000143.00,4437.5868,N,12402.8858,W,1,11,0.8,35.8,M,-21.8,M,,*67
2021-06-16 00:01:45Z, 6cda8203-a249-e411-b0cc-f8bc1246af59, $GPGGA,000144.00,4437.5866,N,12402.8859,W,1,11,0.8,35.8,M,-21.8,M,,*6F
2021-06-16 00:01:46Z, 6cda8203-a249-e411-b0cc-f8bc1246af59, $GPGGA,000145.00,4437.5864,N,12402.8861,W,1,11,0.8,35.8,M,-21.8,M,,*67
2021-06-16 00:01:48Z, 6cda8203-a249-e411-b0cc-f8bc1246af59, $GPGGA,000147.00,4437.5862,N,12402.8863,W,1,11,0.8,35.8,M,-21.8,M,,*61
2021-06-16 00:01:49Z, 6cda8203-a249-e411-b0cc-f8bc1246af59, $GPGGA,000148.00,4437.5861,N,12402.8862,W,1,11,0.8,35.9,M,-21.8,M,,*6D
2021-06-16 00:01:50Z, 6cda8203-a249-e411-b0cc-f8bc1246af59, $GPGGA,000149.00,4437.5860,N,12402.8864,W,1,11,0.8,35.9,M,-21.8,M,,*6B
2021-06-16 00:01:51Z, 6cda8203-a249-e411-b0cc-f8bc1246af59, $GPGGA,000150.00,4437.5860,N,12402.8867,W,1,11,0.8,35.9,M,-21.8,M,,*60
2021-06-16 00:01:52Z, 6cda8203-a249-e411-b0cc-f8bc1246af59, $GPGGA,000151.00,4437.5859,N,12402.8870,W,1,11,0.8,35.9,M,-21.8,M,,*6D
2021-06-16 00:01:53Z, 6cda8203-a249-e411-b0cc-f8bc1246af59, $GPGGA,000152.00,4437.5858,N,12402.8872,W,1,11,0.8,35.9,M,-21.8,M,,*6D
2021-06-16 00:01:55Z, 6cda8203-a249-e411-b0cc-f8bc1246af59, $GPGGA,000154.00,4437.5856,N,12402.8876,W,1,11,0.8,35.9,M,-21.8,M,,*61
2021-06-16 00:01:56Z, 6cda8203-a249-e411-b0cc-f8bc1246af59, $GPGGA,000155.00,4437.5855,N,12402.8877,W,1,11,0.8,35.8,M,-21.8,M,,*63
2021-06-16 00:01:57Z, 6cda8203-a249-e411-b0cc-f8bc1246af59, $GPGGA,000156.00,4437.5854,N,12402.8879,W,1,11,0.8,35.8,M,-21.8,M,,*6F
2021-06-16 00:01:58Z, 6cda8203-a249-e411-b0cc-f8bc1246af59, $GPGGA,000157.00,4437.5854,N,12402.8879,W,1,11,0.8,35.9,M,-21.8,M,,*6F
2021-06-16 00:01:59Z, 6cda8203-a249-e411-b0cc-f8bc1246af59, $GPGGA,000158.00,4437.5854,N,12402.8880,W,1,11,0.8,36.0,M,-21.8,M,,*6C
2021-06-16 00:02:00Z, 6cda8203-a249-e411-b0cc-f8bc1246af59, $GPGGA,000159.00,4437.5852,N,12402.8883,W,1,11,0.8,36.1,M,-21.8,M,,*69
2021-06-16 00:02:01Z, 6cda8203-a249-e411-b0cc-f8bc1246af59, $GPGGA,000200.00,4437.5851,N,12402.8886,W,1,11,0.8,36.2,M,-21.8,M,,*63
2021-06-16 00:02:02Z, 6cda8203-a249-e411-b0cc-f8bc1246af59, $GPGGA,000201.00,4437.5851,N,12402.8888,W,1,11,0.8,36.2,M,-21.8,M,,*6C
2021-06-16 00:02:04Z, 6cda8203-a249-e411-b0cc-f8bc1246af59, $GPGGA,000203.00,4437.5851,N,12402.8888,W,1,11,0.8,36.3,M,-21.8,M,,*6F
2021-06-16 00:02:05Z, 6cda8203-a249-e411-b0cc-f8bc1246af59, $GPGGA,000204.00,4437.5851,N,12402.8887,W,1,11,0.8,36.3,M,-21.8,M,,*67
2021-06-16 00:02:07Z, 6cda8203-a249-e411-b0cc-f8bc1246af59, $GPGGA,000206.00,4437.5852,N,12402.8888,W,1,11,0.8,36.4,M,-21.8,M,,*6E
2021-06-16 00:02:08Z, 6cda8203-a249-e411-b0cc-f8bc1246af59, $GPGGA,000207.00,4437.5853,N,12402.8887,W,1,11,0.8,36.5,M,-21.8,M,,*60
2021-06-16 00:02:09Z, 6cda8203-a249-e411-b0cc-f8bc1246af59, $GPGGA,000208.00,4437.5854,N,12402.8885,W,1,11,0.8,36.5,M,-21.8,M,,*6A
2021-06-16 00:02:10Z, 6cda8203-a249-e411-b0cc-f8bc1246af59, $GPGGA,000209.00,4437.5854,N,12402.8884,W,1,11,0.8,36.7,M,-21.8,M,,*68
2021-06-16 00:02:11Z, 6cda8203-a249-e411-b0cc-f8bc1246af59, $GPGGA,000210.00,4437.5853,N,12402.8885,W,1,11,0.8,36.8,M,-21.8,M,,*69
2021-06-16 00:02:12Z, 6cda8203-a249-e411-b0cc-f8bc1246af59, $GPGGA,000211.00,4437.5855,N,12402.8884,W,1,11,0.8,36.7,M,-21.8,M,,*60
2021-06-16 00:02:14Z, 6cda8203-a249-e411-b0cc-f8bc1246af59, $GPGGA,000213.00,4437.5857,N,12402.8882,W,1,11,0.8,36.6,M,-21.8,M,,*67
2021-06-16 00:02:15Z, 6cda8203-a249-e411-b0cc-f8bc1246af59, $GPGGA,000214.00,4437.5858,N,12402.8880,W,1,11,0.8,36.5,M,-21.8,M,,*6E
2021-06-16 00:02:17Z, 6cda8203-a249-e411-b0cc-f8bc1246af59, $GPGGA,000216.00,4437.5857,N,12402.8877,W,1,11,0.8,36.4,M,-21.8,M,,*6A
2021-06-16 00:02:18Z, 6cda8203-a249-e411-b0cc-f8bc1246af59, $GPGGA,000217.00,4437.5857,N,12402.8877,W,1,11,0.8,36.4,M,-21.8,M,,*6B
2021-06-16 00:02:20Z, 6cda8203-a249-e411-b0cc-f8bc1246af59, $GPGGA,000219.00,4437.5855,N,12402.8872,W,1,11,0.8,36.2,M,-21.8,M,,*64
2021-06-16 00:02:21Z, 6cda8203-a249-e411-b0cc-f8bc1246af59, $GPGGA,000220.00,4437.5855,N,12402.8871,W,1,11,0.8,36.2,M,-21.8,M,,*6D
2021-06-16 00:02:22Z, 6cda8203-a249-e411-b0cc-f8bc1246af59, $GPGGA,000221.00,4437.5854,N,12402.8871,W,1,11,0.8,36.1,M,-21.8,M,,*6E
2021-06-16 00:02:23Z, 6cda8203-a249-e411-b0cc-f8bc1246af59, $GPGGA,000222.00,4437.5854,N,12402.8870,W,1,11,0.8,36.1,M,-21.8,M,,*6C
2021-06-16 00:02:24Z, 6cda8203-a249-e411-b0cc-f8bc1246af59, $GPGGA,000223.00,4437.5854,N,12402.8869,W,1,11,0.8,36.3,M,-21.8,M,,*67
2021-06-16 00:02:25Z, 6cda8203-a249-e411-b0cc-f8bc1246af59, $GPGGA,000224.00,4437.5855,N,12402.8869,W,1,11,0.8,36.4,M,-21.8,M,,*66
2021-06-16 00:02:27Z, 6cda8203-a249-e411-b0cc-f8bc1246af59, $GPGGA,000226.00,4437.5856,N,12402.8866,W,1,11,0.8,36.6,M,-21.8,M,,*6A
2021-06-16 00:02:28Z, 6cda8203-a249-e411-b0cc-f8bc1246af59, $GPGGA,000227.00,4437.5856,N,12402.8866,W,1,11,0.8,36.6,M,-21.8,M,,*6B
2021-06-16 00:02:29Z, 6cda8203-a249-e411-b0cc-f8bc1246af59, $GPGGA,000228.00,4437.5856,N,12402.8866,W,1,11,0.8,36.6,M,-21.8,M,,*64
2021-06-16 00:02:31Z, 6cda8203-a249-e411-b0cc-f8bc1246af59, $GPGGA,000230.00,4437.5854,N,12402.8865,W,1,11,0.8,36.7,M,-21.8,M,,*6D
2021-06-16 00:02:32Z, 6cda8203-a249-e411-b0cc-f8bc1246af59, $GPGGA,000231.00,4437.5854,N,12402.8863,W,1,11,0.8,36.8,M,-21.8,M,,*65
2021-06-16 00:02:33Z, 6cda8203-a249-e411-b0cc-f8bc1246af59, $GPGGA,000232.00,4437.5855,N,12402.8863,W,1,11,0.8,36.8,M,-21.8,M,,*67
2021-06-16 00:02:34Z, 6cda8203-a249-e411-b0cc-f8bc1246af59, $GPGGA,000233.00,4437.5854,N,12402.8862,W,1,11,0.8,36.8,M,-21.8,M,,*66
2021-06-16 00:02:35Z, 6cda8203-a249-e411-b0cc-f8bc1246af59, $GPGGA,000234.00,4437.5854,N,12402.8862,W,1,11,0.8,36.8,M,-21.8,M,,*61
2021-06-16 00:02:36Z, 6cda8203-a249-e411-b0cc-f8bc1246af59, $GPGGA,000235.00,4437.5854,N,12402.8862,W,1,11,0.8,36.9,M,-21.8,M,,*61
2021-06-16 00:02:37Z, 6cda8203-a249-e411-b0cc-f8bc1246af59, $GPGGA,000236.00,4437.5854,N,12402.8862,W,1,11,0.8,36.8,M,-21.8,M,,*63
2021-06-16 00:02:38Z, 6cda8203-a249-e411-b0cc-f8bc1246af59, $GPGGA,000237.00,4437.5855,N,12402.8862,W,1,11,0.8,36.8,M,-21.8,M,,*63
2021-06-16 00:02:39Z, 6cda8203-a249-e411-b0cc-f8bc1246af59, $GPGGA,000238.00,4437.5855,N,12402.8861,W,1,11,0.8,36.8,M,-21.8,M,,*6F
2021-06-16 00:02:40Z, 6cda8203-a249-e411-b0cc-f8bc1246af59, $GPGGA,000239.00,4437.5855,N,12402.8861,W,1,11,0.8,36.9,M,-21.8,M,,*6F
2021-06-16 00:02:41Z, 6cda8203-a249-e411-b0cc-f8bc1246af59, $GPGGA,000240.00,4437.5855,N,12402.8861,W,1,11,0.8,36.9,M,-21.8,M,,*61
2021-06-16 00:02:43Z, 6cda8203-a249-e411-b0cc-f8bc1246af59, $GPGGA,000242.00,4437.5856,N,12402.8860,W,1,11,0.8,36.9,M,-21.8,M,,*61
2021-06-16 00:02:44Z, 6cda8203-a249-e411-b0cc-f8bc1246af59, $GPGGA,000243.00,4437.5856,N,12402.8860,W,1,11,0.8,37.0,M,-21.8,M,,*68
2021-06-16 00:02:46Z, 6cda8203-a249-e411-b0cc-f8bc1246af59, $GPGGA,000245.00,4437.5857,N,12402.8859,W,1,11,0.8,37.0,M,-21.8,M,,*65
2021-06-16 00:02:47Z, 6cda8203-a249-e411-b0cc-f8bc1246af59, $GPGGA,000246.00,4437.5858,N,12402.8859,W,1,11,0.8,37.0,M,-21.8,M,,*69
2021-06-16 00:02:49Z, 6cda8203-a249-e411-b0cc-f8bc1246af59, $GPGGA,000248.00,4437.5858,N,12402.8859,W,1,11,0.8,37.0,M,-21.8,M,,*67
2021-06-16 00:02:50Z, 6cda8203-a249-e411-b0cc-f8bc1246af59, $GPGGA,000249.00,4437.5858,N,12402.8859,W,1,11,0.8,37.0,M,-21.8,M,,*66
2021-06-16 00:02:52Z, 6cda8203-a249-e411-b0cc-f8bc1246af59, $GPGGA,000251.00,4437.5858,N,12402.8859,W,1,11,0.8,37.1,M,-21.8,M,,*6E
2021-06-16 00:02:53Z, 6cda8203-a249-e411-b0cc-f8bc1246af59, $GPGGA,000252.00,4437.5858,N,12402.8859,W,1,11,0.8,37.1,M,-21.8,M,,*6D
2021-06-16 00:02:55Z, 6cda8203-a249-e411-b0cc-f8bc1246af59, $GPGGA,000254.00,4437.5858,N,12402.8859,W,1,11,0.8,37.2,M,-21.8,M,,*68
2021-06-16 00:02:56Z, 6cda8203-a249-e411-b0cc-f8bc1246af59, $GPGGA,000255.00,4437.5857,N,12402.8858,W,1,11,0.8,37.2,M,-21.8,M,,*67
2021-06-16 00:02:58Z, 6cda8203-a249-e411-b0cc-f8bc1246af59, $GPGGA,000257.00,4437.5857,N,12402.8857,W,1,11,0.8,37.2,M,-21.8,M,,*6A
2021-06-16 00:02:59Z, 6cda8203-a249-e411-b0cc-f8bc1246af59, $GPGGA,000258.00,4437.5856,N,12402.8856,W,1,11,0.8,37.2,M,-21.8,M,,*65
2021-06-16 00:03:01Z, 6cda8203-a249-e411-b0cc-f8bc1246af59, $GPGGA,000300.00,4437.5855,N,12402.8854,W,1,11,0.8,37.2,M,-21.8,M,,*68
2021-06-16 00:03:02Z, 6cda8203-a249-e411-b0cc-f8bc1246af59, $GPGGA,000301.00,4437.5854,N,12402.8854,W,1,11,0.8,37.1,M,-21.8,M,,*6B
2021-06-16 00:03:04Z, 6cda8203-a249-e411-b0cc-f8bc1246af59, $GPGGA,000303.00,4437.5854,N,12402.8853,W,1,11,0.8,37.0,M,-21.8,M,,*6F
2021-06-16 00:03:05Z, 6cda8203-a249-e411-b0cc-f8bc1246af59, $GPGGA,000304.00,4437.5854,N,12402.8852,W,1,11,0.8,37.0,M,-21.8,M,,*69
2021-06-16 00:03:07Z, 6cda8203-a249-e411-b0cc-f8bc1246af59, $GPGGA,000306.00,4437.5854,N,12402.8853,W,1,11,0.8,37.0,M,-21.8,M,,*6A
2021-06-16 00:03:08Z, 6cda8203-a249-e411-b0cc-f8bc1246af59, $GPGGA,000307.00,4437.5854,N,12402.8853,W,1,11,0.8,37.0,M,-21.8,M,,*6B
2021-06-16 00:03:10Z, 6cda8203-a249-e411-b0cc-f8bc1246af59, $GPGGA,000309.00,4437.5854,N,12402.8852,W,1,11,0.8,37.0,M,-21.8,M,,*64
2021-06-16 00:03:11Z, 6cda8203-a249-e411-b0cc-f8bc1246af59, $GPGGA,000310.00,4437.5854,N,12402.8852,W,1,11,0.8,37.0,M,-21.8,M,,*6C
2021-06-16 00:03:13Z, 6cda8203-a249-e411-b0cc-f8bc1246af59, $GPGGA,000312.00,4437.5855,N,12402.8852,W,1,11,0.8,37.0,M,-21.8,M,,*6F
2021-06-16 00:03:14Z, 6cda8203-a249-e411-b0cc-f8bc1246af59, $GPGGA,000313.00,4437.5855,N,12402.8853,W,1,11,0.8,36.9,M,-21.8,M,,*67
2021-06-16 00:03:16Z, 6cda8203-a249-e411-b0cc-f8bc1246af59, $GPGGA,000315.00,4437.5855,N,12402.8853,W,1,11,0.8,37.0,M,-21.8,M,,*69
2021-06-16 00:03:17Z, 6cda8203-a249-e411-b0cc-f8bc1246af59, $GPGGA,000316.00,4437.5856,N,12402.8853,W,1,11,0.8,36.9,M,-21.8,M,,*61
2021-06-16 00:03:19Z, 6cda8203-a249-e411-b0cc-f8bc1246af59, $GPGGA,000318.00,4437.5855,N,12402.8853,W,1,11,0.8,37.0,M,-21.8,M,,*64
2021-06-16 00:03:20Z, 6cda8203-a249-e411-b0cc-f8bc1246af59, $GPGGA,000319.00,4437.5855,N,12402.8853,W,1,11,0.8,37.0,M,-21.8,M,,*65
2021-06-16 00:03:22Z, 6cda8203-a249-e411-b0cc-f8bc1246af59, $GPGGA,000321.00,4437.5862,N,12402.8840,W,1,10,0.8,37.0,M,-21.8,M,,*69
2021-06-16 00:03:23Z, 6cda8203-a249-e411-b0cc-f8bc1246af59, $GPGGA,000322.00,4437.5867,N,12402.8839,W,1,10,0.8,36.8,M,-21.8,M,,*68
2021-06-16 00:03:25Z, 6cda8203-a249-e411-b0cc-f8bc1246af59, $GPGGA,000324.00,4437.5869,N,12402.8836,W,1,11,0.8,36.3,M,-21.8,M,,*65
2021-06-16 00:03:26Z, 6cda8203-a249-e411-b0cc-f8bc1246af59, $GPGGA,000325.00,4437.5869,N,12402.8837,W,1,11,0.8,36.1,M,-21.8,M,,*67
2021-06-16 00:03:28Z, 6cda8203-a249-e411-b0cc-f8bc1246af59, $GPGGA,000327.00,4437.5869,N,12402.8838,W,1,11,0.8,36.0,M,-21.8,M,,*6B
2021-06-16 00:03:29Z, 6cda8203-a249-e411-b0cc-f8bc1246af59, $GPGGA,000328.00,4437.5870,N,12402.8840,W,1,11,0.8,36.2,M,-21.8,M,,*61
2021-06-16 00:03:31Z, 6cda8203-a249-e411-b0cc-f8bc1246af59, $GPGGA,000330.00,4437.5870,N,12402.8840,W,1,11,0.8,36.0,M,-21.8,M,,*6A
2021-06-16 00:03:32Z, 6cda8203-a249-e411-b0cc-f8bc1246af59, $GPGGA,000331.00,4437.5872,N,12402.8840,W,1,11,0.8,35.8,M,-21.8,M,,*62
2021-06-16 00:03:34Z, 6cda8203-a249-e411-b0cc-f8bc1246af59, $GPGGA,000333.00,4437.5872,N,12402.8830,W,1,11,0.8,35.3,M,-21.8,M,,*6C
2021-06-16 00:03:35Z, 6cda8203-a249-e411-b0cc-f8bc1246af59, $GPGGA,000334.00,4437.5872,N,12402.8828,W,1,11,0.8,35.2,M,-21.8,M,,*63
2021-06-16 00:03:37Z, 6cda8203-a249-e411-b0cc-f8bc1246af59, $GPGGA,000336.00,4437.5872,N,12402.8825,W,1,11,0.8,34.6,M,-21.8,M,,*69
2021-06-16 00:03:38Z, 6cda8203-a249-e411-b0cc-f8bc1246af59, $GPGGA,000337.00,4437.5873,N,12402.8824,W,1,11,0.8,34.5,M,-21.8,M,,*6B
2021-06-16 00:03:40Z, 6cda8203-a249-e411-b0cc-f8bc1246af59, $GPGGA,000339.00,4437.5871,N,12402.8808,W,1,11,0.8,34.5,M,-21.8,M,,*69
2021-06-16 00:03:41Z, 6cda8203-a249-e411-b0cc-f8bc1246af59, $GPGGA,000340.00,4437.5870,N,12402.8808,W,1,11,0.8,34.5,M,-21.8,M,,*66
2021-06-16 00:03:43Z, 6cda8203-a249-e411-b0cc-f8bc1246af59, $GPGGA,000342.00,4437.5869,N,12402.8808,W,1,11,0.8,34.4,M,-21.8,M,,*6D
2021-06-16 00:03:44Z, 6cda8203-a249-e411-b0cc-f8bc1246af59, $GPGGA,000343.00,4437.5869,N,12402.8808,W,1,11,0.8,34.3,M,-21.8,M,,*6B
2021-06-16 00:03:46Z, 6cda8203-a249-e411-b0cc-f8bc1246af59, $GPGGA,000345.00,4437.5869,N,12402.8808,W,1,11,0.8,34.3,M,-21.8,M,,*6D
2021-06-16 00:03:47Z, 6cda8203-a249-e411-b0cc-f8bc1246af59, $GPGGA,000346.00,4437.5868,N,12402.8808,W,1,11,0.8,34.3,M,-21.8,M,,*6F
2021-06-16 00:03:49Z, 6cda8203-a249-e411-b0cc-f8bc1246af59, $GPGGA,000348.00,4437.5868,N,12402.8809,W,1,11,0.8,34.3,M,-21.8,M,,*60
2021-06-16 00:03:50Z, 6cda8203-a249-e411-b0cc-f8bc1246af59, $GPGGA,000349.00,4437.5869,N,12402.8809,W,1,11,0.8,34.3,M,-21.8,M,,*60
2021-06-16 00:03:52Z, 6cda8203-a249-e411-b0cc-f8bc1246af59, $GPGGA,000351.00,4437.5869,N,12402.8811,W,1,11,0.8,34.2,M,-21.8,M,,*61
2021-06-16 00:03:53Z, 6cda8203-a249-e411-b0cc-f8bc1246af59, $GPGGA,000352.00,4437.5868,N,12402.8811,W,1,11,0.8,34.1,M,-21.8,M,,*60
2021-06-16 00:03:55Z, 6cda8203-a249-e411-b0cc-f8bc1246af59, $GPGGA,000354.00,4437.5868,N,12402.8812,W,1,11,0.8,34.1,M,-21.8,M,,*65
2021-06-16 00:03:56Z, 6cda8203-a249-e411-b0cc-f8bc1246af59, $GPGGA,000355.00,4437.5865,N,12402.8825,W,1,11,0.8,31.2,M,-21.8,M,,*6B
2021-06-16 00:03:58Z, 6cda8203-a249-e411-b0cc-f8bc1246af59, $GPGGA,000357.00,4437.5867,N,12402.8826,W,1,11,0.8,31.1,M,-21.8,M,,*6B
2021-06-16 00:03:59Z, 6cda8203-a249-e411-b0cc-f8bc1246af59, $GPGGA,000358.00,4437.5868,N,12402.8827,W,1,11,0.8,31.1,M,-21.8,M,,*6A
2021-06-16 00:04:01Z, 6cda8203-a249-e411-b0cc-f8bc1246af59, $GPGGA,000400.00,4437.5873,N,12402.8834,W,1,11,0.8,30.4,M,-21.8,M,,*6C
2021-06-16 00:04:02Z, 6cda8203-a249-e411-b0cc-f8bc1246af59, $GPGGA,000401.00,4437.5872,N,12402.8834,W,1,11,0.8,30.3,M,-21.8,M,,*6B
2021-06-16 00:04:04Z, 6cda8203-a249-e411-b0cc-f8bc1246af59, $GPGGA,000403.00,4437.5872,N,12402.8835,W,1,11,0.8,30.2,M,-21.8,M,,*69
2021-06-16 00:04:05Z, 6cda8203-a249-e411-b0cc-f8bc1246af59, $GPGGA,000404.00,4437.5872,N,12402.8836,W,1,11,0.8,30.2,M,-21.8,M,,*6D
2021-06-16 00:04:07Z, 6cda8203-a249-e411-b0cc-f8bc1246af59, $GPGGA,000406.00,4437.5872,N,12402.8837,W,1,11,0.8,30.1,M,-21.8,M,,*6D
2021-06-16 00:04:08Z, 6cda8203-a249-e411-b0cc-f8bc1246af59, $GPGGA,000407.00,4437.5872,N,12402.8837,W,1,11,0.8,30.1,M,-21.8,M,,*6C
2021-06-16 00:04:10Z, 6cda8203-a249-e411-b0cc-f8bc1246af59, $GPGGA,000409.00,4437.5875,N,12402.8842,W,1,11,0.8,30.0,M,-21.8,M,,*66
2021-06-16 00:04:11Z, 6cda8203-a249-e411-b0cc-f8bc1246af59, $GPGGA,000410.00,4437.5873,N,12402.8846,W,1,11,0.8,29.6,M,-21.8,M,,*62
2021-06-16 00:04:13Z, 6cda8203-a249-e411-b0cc-f8bc1246af59, $GPGGA,000412.00,4437.5870,N,12402.8854,W,1,11,0.8,29.5,M,-21.8,M,,*63
2021-06-16 00:04:14Z, 6cda8203-a249-e411-b0cc-f8bc1246af59, $GPGGA,000413.00,4437.5870,N,12402.8856,W,1,11,0.8,29.2,M,-21.8,M,,*67
2021-06-16 00:04:16Z, 6cda8203-a249-e411-b0cc-f8bc1246af59, $GPGGA,000415.00,4437.5865,N,12402.8865,W,1,11,0.8,29.2,M,-21.8,M,,*65
2021-06-16 00:04:17Z, 6cda8203-a249-e411-b0cc-f8bc1246af59, $GPGGA,000416.00,4437.5862,N,12402.8865,W,1,11,0.8,29.2,M,-21.8,M,,*61
2021-06-16 00:04:19Z, 6cda8203-a249-e411-b0cc-f8bc1246af59, $GPGGA,000418.00,4437.5861,N,12402.8865,W,1,11,0.8,29.3,M,-21.8,M,,*6D
2021-06-16 00:04:20Z, 6cda8203-a249-e411-b0cc-f8bc1246af59, $GPGGA,000419.00,4437.5860,N,12402.8865,W,1,11,0.8,29.3,M,-21.8,M,,*6D
2021-06-16 00:04:22Z, 6cda8203-a249-e411-b0cc-f8bc1246af59, $GPGGA,000421.00,4437.5859,N,12402.8861,W,1,11,0.8,29.9,M,-21.8,M,,*62
2021-06-16 00:04:23Z, 6cda8203-a249-e411-b0cc-f8bc1246af59, $GPGGA,000422.00,4437.5859,N,12402.8862,W,1,10,1.3,29.9,M,-21.8,M,,*69
2021-06-16 00:04:25Z, 6cda8203-a249-e411-b0cc-f8bc1246af59, $GPGGA,000424.00,4437.5857,N,12402.8862,W,1,10,1.3,30.3,M,-21.8,M,,*63
2021-06-16 00:04:26Z, 6cda8203-a249-e411-b0cc-f8bc1246af59, $GPGGA,000425.00,4437.5858,N,12402.8860,W,1,11,0.8,30.5,M,-21.8,M,,*62
2021-06-16 00:04:28Z, 6cda8203-a249-e411-b0cc-f8bc1246af59, $GPGGA,000427.00,4437.5858,N,12402.8858,W,1,11,0.8,30.7,M,-21.8,M,,*69
2021-06-16 00:04:29Z, 6cda8203-a249-e411-b0cc-f8bc1246af59, $GPGGA,000428.00,4437.5859,N,12402.8858,W,1,11,0.8,30.5,M,-21.8,M,,*65
2021-06-16 00:04:31Z, 6cda8203-a249-e411-b0cc-f8bc1246af59, $GPGGA,000430.00,4437.5858,N,12402.8855,W,1,11,0.8,30.8,M,-21.8,M,,*6D
2021-06-16 00:04:32Z, 6cda8203-a249-e411-b0cc-f8bc1246af59, $GPGGA,000431.00,4437.5858,N,12402.8854,W,1,11,0.8,30.9,M,-21.8,M,,*6C
2021-06-16 00:04:34Z, 6cda8203-a249-e411-b0cc-f8bc1246af59, $GPGGA,000433.00,4437.5854,N,12402.8853,W,1,11,0.8,31.1,M,-21.8,M,,*6C
2021-06-16 00:04:35Z, 6cda8203-a249-e411-b0cc-f8bc1246af59, $GPGGA,000434.00,4437.5853,N,12402.8852,W,1,11,0.8,31.3,M,-21.8,M,,*6F
2021-06-16 00:04:37Z, 6cda8203-a249-e411-b0cc-f8bc1246af59, $GPGGA,000436.00,4437.5849,N,12402.8850,W,1,11,0.8,31.6,M,-21.8,M,,*61
2021-06-16 00:04:38Z, 6cda8203-a249-e411-b0cc-f8bc1246af59, $GPGGA,000437.00,4437.5846,N,12402.8850,W,1,11,0.8,31.6,M,-21.8,M,,*6F
2021-06-16 00:04:39Z, 6cda8203-a249-e411-b0cc-f8bc1246af59, $GPGGA,000439.00,4437.5849,N,12402.8851,W,1,11,0.8,31.8,M,-21.8,M,,*61
2021-06-16 00:04:41Z, 6cda8203-a249-e411-b0cc-f8bc1246af59, $GPGGA,000440.00,4437.5852,N,12402.8850,W,1,11,0.8,32.0,M,-21.8,M,,*6F
2021-06-16 00:04:42Z, 6cda8203-a249-e411-b0cc-f8bc1246af59, $GPGGA,000441.00,4437.5853,N,12402.8850,W,1,11,0.8,32.0,M,-21.8,M,,*6F
2021-06-16 00:04:43Z, 6cda8203-a249-e411-b0cc-f8bc1246af59, $GPGGA,000442.00,4437.5854,N,12402.8848,W,1,11,0.8,32.0,M,-21.8,M,,*62
2021-06-16 00:04:44Z, 6cda8203-a249-e411-b0cc-f8bc1246af59, $GPGGA,000443.00,4437.5856,N,12402.8847,W,1,11,0.8,32.1,M,-21.8,M,,*6F
2021-06-16 00:04:46Z, 6cda8203-a249-e411-b0cc-f8bc1246af59, $GPGGA,000444.00,4437.5855,N,12402.8847,W,1,11,0.8,32.1,M,-21.8,M,,*6B
2021-06-16 00:04:47Z, 6cda8203-a249-e411-b0cc-f8bc1246af59, $GPGGA,000446.00,4437.5855,N,12402.8847,W,1,11,0.8,32.1,M,-21.8,M,,*69
2021-06-16 00:04:48Z, 6cda8203-a249-e411-b0cc-f8bc1246af59, $GPGGA,000447.00,4437.5855,N,12402.8847,W,1,11,0.8,32.0,M,-21.8,M,,*69
2021-06-16 00:04:50Z, 6cda8203-a249-e411-b0cc-f8bc1246af59, $GPGGA,000449.00,4437.5854,N,12402.8847,W,1,11,0.8,32.0,M,-21.8,M,,*66
2021-06-16 00:04:51Z, 6cda8203-a249-e411-b0cc-f8bc1246af59, $GPGGA,000450.00,4437.5854,N,12402.8848,W,1,11,0.8,31.9,M,-21.8,M,,*6B
2021-06-16 00:04:53Z, 6cda8203-a249-e411-b0cc-f8bc1246af59, $GPGGA,000452.00,4437.5850,N,12402.8851,W,1,11,0.8,32.0,M,-21.8,M,,*6F
2021-06-16 00:04:54Z, 6cda8203-a249-e411-b0cc-f8bc1246af59, $GPGGA,000453.00,4437.5849,N,12402.8851,W,1,11,0.8,31.8,M,-21.8,M,,*6D
2021-06-16 00:04:56Z, 6cda8203-a249-e411-b0cc-f8bc1246af59, $GPGGA,000455.00,4437.5845,N,12402.8851,W,1,11,0.8,31.4,M,-21.8,M,,*6B
2021-06-16 00:04:57Z, 6cda8203-a249-e411-b0cc-f8bc1246af59, $GPGGA,000456.00,4437.5844,N,12402.8851,W,1,11,0.8,31.5,M,-21.8,M,,*68
2021-06-16 00:04:59Z, 6cda8203-a249-e411-b0cc-f8bc1246af59, $GPGGA,000458.00,4437.5845,N,12402.8846,W,1,11,0.8,31.1,M,-21.8,M,,*65
2021-06-16 00:05:00Z, 6cda8203-a249-e411-b0cc-f8bc1246af59, $GPGGA,000459.00,4437.5844,N,12402.8846,W,1,11,0.8,31.1,M,-21.8,M,,*65
2021-06-16 00:05:02Z, 6cda8203-a249-e411-b0cc-f8bc1246af59, $GPGGA,000501.00,4437.5844,N,12402.8844,W,1,11,0.8,31.3,M,-21.8,M,,*69
2021-06-16 00:05:03Z, 6cda8203-a249-e411-b0cc-f8bc1246af59, $GPGGA,000502.00,4437.5843,N,12402.8844,W,1,11,0.8,31.2,M,-21.8,M,,*6C
2021-06-16 00:05:05Z, 6cda8203-a249-e411-b0cc-f8bc1246af59, $GPGGA,000504.00,4437.5842,N,12402.8846,W,1,11,0.8,31.0,M,-21.8,M,,*6B
2021-06-16 00:05:06Z, 6cda8203-a249-e411-b0cc-f8bc1246af59, $GPGGA,000505.00,4437.5841,N,12402.8844,W,1,11,0.8,31.0,M,-21.8,M,,*6B
2021-06-16 00:05:08Z, 6cda8203-a249-e411-b0cc-f8bc1246af59, $GPGGA,000507.00,4437.5841,N,12402.8843,W,1,11,0.8,30.8,M,-21.8,M,,*67
2021-06-16 00:05:09Z, 6cda8203-a249-e411-b0cc-f8bc1246af59, $GPGGA,000508.00,4437.5842,N,12402.8844,W,1,11,0.8,30.7,M,-21.8,M,,*63
2021-06-16 00:05:11Z, 6cda8203-a249-e411-b0cc-f8bc1246af59, $GPGGA,000510.00,4437.5841,N,12402.8845,W,1,11,0.8,30.7,M,-21.8,M,,*68
2021-06-16 00:05:12Z, 6cda8203-a249-e411-b0cc-f8bc1246af59, $GPGGA,000511.00,4437.5841,N,12402.8845,W,1,11,0.8,30.5,M,-21.8,M,,*6B
2021-06-16 00:05:14Z, 6cda8203-a249-e411-b0cc-f8bc1246af59, $GPGGA,000513.00,4437.5838,N,12402.8850,W,1,11,0.8,30.3,M,-21.8,M,,*65
2021-06-16 00:05:15Z, 6cda8203-a249-e411-b0cc-f8bc1246af59, $GPGGA,000514.00,4437.5837,N,12402.8852,W,1,11,0.8,30.2,M,-21.8,M,,*6E
2021-06-16 00:05:17Z, 6cda8203-a249-e411-b0cc-f8bc1246af59, $GPGGA,000516.00,4437.5836,N,12402.8849,W,1,11,0.8,29.9,M,-21.8,M,,*64
2021-06-16 00:05:18Z, 6cda8203-a249-e411-b0cc-f8bc1246af59, $GPGGA,000517.00,4437.5836,N,12402.8850,W,1,11,0.8,29.9,M,-21.8,M,,*6D
2021-06-16 00:05:20Z, 6cda8203-a249-e411-b0cc-f8bc1246af59, $GPGGA,000519.00,4437.5833,N,12402.8856,W,1,11,0.8,29.9,M,-21.8,M,,*60
2021-06-16 00:05:21Z, 6cda8203-a249-e411-b0cc-f8bc1246af59, $GPGGA,000520.00,4437.5831,N,12402.8858,W,1,11,0.8,29.8,M,-21.8,M,,*67
2021-06-16 00:05:23Z, 6cda8203-a249-e411-b0cc-f8bc1246af59, $GPGGA,000522.00,4437.5831,N,12402.8857,W,1,11,0.8,30.1,M,-21.8,M,,*6B
2021-06-16 00:05:24Z, 6cda8203-a249-e411-b0cc-f8bc1246af59, $GPGGA,000523.00,4437.5831,N,12402.8858,W,1,11,0.8,30.2,M,-21.8,M,,*66
2021-06-16 00:05:26Z, 6cda8203-a249-e411-b0cc-f8bc1246af59, $GPGGA,000525.00,4437.5830,N,12402.8858,W,1,11,0.8,30.2,M,-21.8,M,,*61
2021-06-16 00:05:27Z, 6cda8203-a249-e411-b0cc-f8bc1246af59, $GPGGA,000526.00,4437.5830,N,12402.8860,W,1,11,0.8,30.2,M,-21.8,M,,*69
2021-06-16 00:05:29Z, 6cda8203-a249-e411-b0cc-f8bc1246af59, $GPGGA,000528.00,4437.5831,N,12402.8865,W,1,11,0.8,30.1,M,-21.8,M,,*60
2021-06-16 00:05:30Z, 6cda8203-a249-e411-b0cc-f8bc1246af59, $GPGGA,000529.00,4437.5830,N,12402.8869,W,1,11,0.8,30.1,M,-21.8,M,,*6C
2021-06-16 00:05:32Z, 6cda8203-a249-e411-b0cc-f8bc1246af59, $GPGGA,000531.00,4437.5836,N,12402.8880,W,1,11,0.8,30.1,M,-21.8,M,,*64
2021-06-16 00:05:33Z, 6cda8203-a249-e411-b0cc-f8bc1246af59, $GPGGA,000532.00,4437.5837,N,12402.8879,W,1,11,0.8,30.2,M,-21.8,M,,*63
2021-06-16 00:05:35Z, 6cda8203-a249-e411-b0cc-f8bc1246af59, $GPGGA,000534.00,4437.5840,N,12402.8876,W,1,11,0.8,30.2,M,-21.8,M,,*6A
2021-06-16 00:05:36Z, 6cda8203-a249-e411-b0cc-f8bc1246af59, $GPGGA,000535.00,4437.5840,N,12402.8877,W,1,11,0.8,30.2,M,-21.8,M,,*6A
2021-06-16 00:05:38Z, 6cda8203-a249-e411-b0cc-f8bc1246af59, $GPGGA,000537.00,4437.5846,N,12402.8878,W,1,11,0.8,30.1,M,-21.8,M,,*62
2021-06-16 00:05:39Z, 6cda8203-a249-e411-b0cc-f8bc1246af59, $GPGGA,000538.00,4437.5846,N,12402.8878,W,1,11,0.8,30.2,M,-21.8,M,,*6E
2021-06-16 00:05:41Z, 6cda8203-a249-e411-b0cc-f8bc1246af59, $GPGGA,000540.00,4437.5848,N,12402.8876,W,1,11,0.8,30.4,M,-21.8,M,,*67
2021-06-16 00:05:42Z, 6cda8203-a249-e411-b0cc-f8bc1246af59, $GPGGA,000541.00,4437.5847,N,12402.8874,W,1,11,0.8,30.5,M,-21.8,M,,*6A
2021-06-16 00:05:44Z, 6cda8203-a249-e411-b0cc-f8bc1246af59, $GPGGA,000543.00,4437.5847,N,12402.8871,W,1,11,0.8,30.5,M,-21.8,M,,*6D
2021-06-16 00:05:45Z, 6cda8203-a249-e411-b0cc-f8bc1246af59, $GPGGA,000544.00,4437.5847,N,12402.8869,W,1,11,0.8,30.5,M,-21.8,M,,*63
2021-06-16 00:05:47Z, 6cda8203-a249-e411-b0cc-f8bc1246af59, $GPGGA,000546.00,4437.5845,N,12402.8865,W,1,11,0.8,30.4,M,-21.8,M,,*6E
2021-06-16 00:05:48Z, 6cda8203-a249-e411-b0cc-f8bc1246af59, $GPGGA,000547.00,4437.5843,N,12402.8864,W,1,11,0.8,30.4,M,-21.8,M,,*68
2021-06-16 00:05:50Z, 6cda8203-a249-e411-b0cc-f8bc1246af59, $GPGGA,000549.00,4437.5840,N,12402.8867,W,1,11,0.8,30.4,M,-21.8,M,,*66
2021-06-16 00:05:51Z, 6cda8203-a249-e411-b0cc-f8bc1246af59, $GPGGA,000550.00,4437.5840,N,12402.8868,W,1,11,0.8,30.5,M,-21.8,M,,*60
2021-06-16 00:05:53Z, 6cda8203-a249-e411-b0cc-f8bc1246af59, $GPGGA,000552.00,4437.5837,N,12402.8866,W,1,11,0.8,30.4,M,-21.8,M,,*6D
2021-06-16 00:05:54Z, 6cda8203-a249-e411-b0cc-f8bc1246af59, $GPGGA,000553.00,4437.5835,N,12402.8865,W,1,11,0.8,30.3,M,-21.8,M,,*6A
2021-06-16 00:05:56Z, 6cda8203-a249-e411-b0cc-f8bc1246af59, $GPGGA,000555.00,4437.5832,N,12402.8866,W,1,11,0.8,30.3,M,-21.8,M,,*68
2021-06-16 00:05:57Z, 6cda8203-a249-e411-b0cc-f8bc1246af59, $GPGGA,000556.00,4437.5833,N,12402.8867,W,1,11,0.8,30.2,M,-21.8,M,,*6A
2021-06-16 00:05:59Z, 6cda8203-a249-e411-b0cc-f8bc1246af59, $GPGGA,000558.00,4437.5828,N,12402.8863,W,1,11,0.8,30.1,M,-21.8,M,,*69
2021-06-16 00:06:00Z, 6cda8203-a249-e411-b0cc-f8bc1246af59, $GPGGA,000559.00,4437.5827,N,12402.8862,W,1,11,0.8,30.0,M,-21.8,M,,*67
2021-06-16 00:06:02Z, 6cda8203-a249-e411-b0cc-f8bc1246af59, $GPGGA,000601.00,4437.5827,N,12402.8859,W,1,11,0.8,29.8,M,-21.8,M,,*61
2021-06-16 00:06:03Z, 6cda8203-a249-e411-b0cc-f8bc1246af59, $GPGGA,000602.00,4437.5828,N,12402.8858,W,1,11,0.8,29.7,M,-21.8,M,,*63
2021-06-16 00:06:05Z, 6cda8203-a249-e411-b0cc-f8bc1246af59, $GPGGA,000604.00,4437.5829,N,12402.8857,W,1,11,0.8,29.5,M,-21.8,M,,*69
2021-06-16 00:06:06Z, 6cda8203-a249-e411-b0cc-f8bc1246af59, $GPGGA,000605.00,4437.5829,N,12402.8858,W,1,11,0.8,29.5,M,-21.8,M,,*67
2021-06-16 00:06:08Z, 6cda8203-a249-e411-b0cc-f8bc1246af59, $GPGGA,000607.00,4437.5830,N,12402.8859,W,1,11,0.8,29.4,M,-21.8,M,,*6D
2021-06-16 00:06:09Z, 6cda8203-a249-e411-b0cc-f8bc1246af59, $GPGGA,000608.00,4437.5831,N,12402.8856,W,1,11,0.8,29.4,M,-21.8,M,,*6C
2021-06-16 00:06:11Z, 6cda8203-a249-e411-b0cc-f8bc1246af59, $GPGGA,000610.00,4437.5833,N,12402.8855,W,1,11,0.8,29.3,M,-21.8,M,,*63
2021-06-16 00:06:12Z, 6cda8203-a249-e411-b0cc-f8bc1246af59, $GPGGA,000611.00,4437.5833,N,12402.8856,W,1,11,0.8,29.3,M,-21.8,M,,*61
2021-06-16 00:06:14Z, 6cda8203-a249-e411-b0cc-f8bc1246af59, $GPGGA,000613.00,4437.5834,N,12402.8859,W,1,11,0.8,29.3,M,-21.8,M,,*6B
2021-06-16 00:06:15Z, 6cda8203-a249-e411-b0cc-f8bc1246af59, $GPGGA,000614.00,4437.5833,N,12402.8859,W,1,11,0.8,29.3,M,-21.8,M,,*6B
2021-06-16 00:06:17Z, 6cda8203-a249-e411-b0cc-f8bc1246af59, $GPGGA,000616.00,4437.5833,N,12402.8859,W,1,11,0.8,29.3,M,-21.8,M,,*69
2021-06-16 00:06:18Z, 6cda8203-a249-e411-b0cc-f8bc1246af59, $GPGGA,000617.00,4437.5833,N,12402.8863,W,1,11,0.8,29.3,M,-21.8,M,,*61
2021-06-16 00:06:20Z, 6cda8203-a249-e411-b0cc-f8bc1246af59, $GPGGA,000619.00,4437.5833,N,12402.8867,W,1,11,0.8,29.1,M,-21.8,M,,*69
2021-06-16 00:06:21Z, 6cda8203-a249-e411-b0cc-f8bc1246af59, $GPGGA,000620.00,4437.5835,N,12402.8869,W,1,11,0.8,29.0,M,-21.8,M,,*6A
2021-06-16 00:06:23Z, 6cda8203-a249-e411-b0cc-f8bc1246af59, $GPGGA,000622.00,4437.5838,N,12402.8875,W,1,11,0.8,28.9,M,-21.8,M,,*60
2021-06-16 00:06:24Z, 6cda8203-a249-e411-b0cc-f8bc1246af59, $GPGGA,000623.00,4437.5839,N,12402.8879,W,1,11,0.8,28.8,M,-21.8,M,,*6D
2021-06-16 00:06:26Z, 6cda8203-a249-e411-b0cc-f8bc1246af59, $GPGGA,000625.00,4437.5840,N,12402.8883,W,1,11,0.8,28.9,M,-21.8,M,,*61
2021-06-16 00:06:27Z, 6cda8203-a249-e411-b0cc-f8bc1246af59, $GPGGA,000626.00,4437.5840,N,12402.8884,W,1,11,0.8,28.9,M,-21.8,M,,*65
2021-06-16 00:06:29Z, 6cda8203-a249-e411-b0cc-f8bc1246af59, $GPGGA,000628.00,4437.5842,N,12402.8887,W,1,11,0.8,28.8,M,-21.8,M,,*6B
2021-06-16 00:06:30Z, 6cda8203-a249-e411-b0cc-f8bc1246af59, $GPGGA,000629.00,4437.5849,N,12402.8895,W,1,11,0.8,28.6,M,-21.8,M,,*6C
2021-06-16 00:06:32Z, 6cda8203-a249-e411-b0cc-f8bc1246af59, $GPGGA,000631.00,4437.5850,N,12402.8902,W,1,11,0.8,28.5,M,-21.8,M,,*61
2021-06-16 00:06:33Z, 6cda8203-a249-e411-b0cc-f8bc1246af59, $GPGGA,000632.00,4437.5850,N,12402.8903,W,1,11,0.8,28.4,M,-21.8,M,,*62
2021-06-16 00:06:35Z, 6cda8203-a249-e411-b0cc-f8bc1246af59, $GPGGA,000634.00,4437.5850,N,12402.8905,W,1,11,0.8,28.4,M,-21.8,M,,*62
2021-06-16 00:06:36Z, 6cda8203-a249-e411-b0cc-f8bc1246af59, $GPGGA,000635.00,4437.5849,N,12402.8906,W,1,11,0.8,28.5,M,-21.8,M,,*69
2021-06-16 00:06:38Z, 6cda8203-a249-e411-b0cc-f8bc1246af59, $GPGGA,000637.00,4437.5846,N,12402.8910,W,1,11,0.8,28.0,M,-21.8,M,,*66
2021-06-16 00:06:39Z, 6cda8203-a249-e411-b0cc-f8bc1246af59, $GPGGA,000638.00,4437.5847,N,12402.8909,W,1,11,0.8,28.0,M,-21.8,M,,*60
2021-06-16 00:06:41Z, 6cda8203-a249-e411-b0cc-f8bc1246af59, $GPGGA,000640.00,4437.5847,N,12402.8911,W,1,11,0.8,27.8,M,-21.8,M,,*61
2021-06-16 00:06:42Z, 6cda8203-a249-e411-b0cc-f8bc1246af59, $GPGGA,000641.00,4437.5848,N,12402.8908,W,1,11,0.8,27.7,M,-21.8,M,,*68
2021-06-16 00:06:44Z, 6cda8203-a249-e411-b0cc-f8bc1246af59, $GPGGA,000643.00,4437.5851,N,12402.8903,W,1,11,0.8,27.6,M,-21.8,M,,*68
2021-06-16 00:06:45Z, 6cda8203-a249-e411-b0cc-f8bc1246af59, $GPGGA,000644.00,4437.5852,N,12402.8902,W,1,11,0.8,27.5,M,-21.8,M,,*6E
2021-06-16 00:06:46Z, 6cda8203-a249-e411-b0cc-f8bc1246af59, $GPGGA,000645.00,4437.5854,N,12402.8900,W,1,10,0.8,27.6,M,-21.8,M,,*69
2021-06-16 00:06:47Z, 6cda8203-a249-e411-b0cc-f8bc1246af59, $GPGGA,000646.00,4437.5858,N,12402.8898,W,1,10,0.8,27.7,M,-21.8,M,,*67
2021-06-16 00:06:49Z, 6cda8203-a249-e411-b0cc-f8bc1246af59, $GPGGA,000647.00,4437.5859,N,12402.8896,W,1,10,0.8,27.8,M,-21.8,M,,*66
2021-06-16 00:06:49Z, 6cda8203-a249-e411-b0cc-f8bc1246af59, $GPGGA,000648.00,4437.5858,N,12402.8896,W,1,10,0.8,27.9,M,-21.8,M,,*69
2021-06-16 00:06:51Z, 6cda8203-a249-e411-b0cc-f8bc1246af59, $GPGGA,000649.00,4437.5858,N,12402.8897,W,1,10,0.8,27.9,M,-21.8,M,,*69
2021-06-16 00:06:52Z, 6cda8203-a249-e411-b0cc-f8bc1246af59, $GPGGA,000651.00,4437.5857,N,12402.8899,W,1,10,0.8,28.0,M,-21.8,M,,*67
2021-06-16 00:06:53Z, 6cda8203-a249-e411-b0cc-f8bc1246af59, $GPGGA,000652.00,4437.5855,N,12402.8901,W,1,10,0.8,28.0,M,-21.8,M,,*66
2021-06-16 00:06:55Z, 6cda8203-a249-e411-b0cc-f8bc1246af59, $GPGGA,000654.00,4437.5855,N,12402.8901,W,1,10,0.8,28.3,M,-21.8,M,,*63
2021-06-16 00:06:56Z, 6cda8203-a249-e411-b0cc-f8bc1246af59, $GPGGA,000655.00,4437.5856,N,12402.8902,W,1,10,0.8,28.7,M,-21.8,M,,*66
2021-06-16 00:06:58Z, 6cda8203-a249-e411-b0cc-f8bc1246af59, $GPGGA,000657.00,4437.5857,N,12402.8902,W,1,10,0.8,28.8,M,-21.8,M,,*6A
2021-06-16 00:06:59Z, 6cda8203-a249-e411-b0cc-f8bc1246af59, $GPGGA,000658.00,4437.5856,N,12402.8903,W,1,10,0.8,29.0,M,-21.8,M,,*6C
2021-06-16 00:07:01Z, 6cda8203-a249-e411-b0cc-f8bc1246af59, $GPGGA,000700.00,4437.5854,N,12402.8905,W,1,10,0.8,29.0,M,-21.8,M,,*64
2021-06-16 00:07:02Z, 6cda8203-a249-e411-b0cc-f8bc1246af59, $GPGGA,000701.00,4437.5854,N,12402.8907,W,1,10,0.8,29.0,M,-21.8,M,,*67
2021-06-16 00:07:04Z, 6cda8203-a249-e411-b0cc-f8bc1246af59, $GPGGA,000703.00,4437.5854,N,12402.8907,W,1,10,0.8,29.0,M,-21.8,M,,*65
2021-06-16 00:07:05Z, 6cda8203-a249-e411-b0cc-f8bc1246af59, $GPGGA,000704.00,4437.5854,N,12402.8906,W,1,10,0.8,29.0,M,-21.8,M,,*63
2021-06-16 00:07:07Z, 6cda8203-a249-e411-b0cc-f8bc1246af59, $GPGGA,000706.00,4437.5854,N,12402.8905,W,1,10,0.8,29.0,M,-21.8,M,,*62
2021-06-16 00:07:08Z, 6cda8203-a249-e411-b0cc-f8bc1246af59, $GPGGA,000707.00,4437.5854,N,12402.8905,W,1,10,0.8,29.0,M,-21.8,M,,*63
2021-06-16 00:07:10Z, 6cda8203-a249-e411-b0cc-f8bc1246af59, $GPGGA,000709.00,4437.5847,N,12402.8907,W,1,10,0.8,28.9,M,-21.8,M,,*65
2021-06-16 00:07:11Z, 6cda8203-a249-e411-b0cc-f8bc1246af59, $GPGGA,000710.00,4437.5847,N,12402.8909,W,1,10,0.8,29.0,M,-21.8,M,,*6B
2021-06-16 00:07:13Z, 6cda8203-a249-e411-b0cc-f8bc1246af59, $GPGGA,000712.00,4437.5844,N,12402.8905,W,1,10,0.8,29.1,M,-21.8,M,,*67
2021-06-16 00:07:14Z, 6cda8203-a249-e411-b0cc-f8bc1246af59, $GPGGA,000713.00,4437.5844,N,12402.8904,W,1,10,0.8,29.0,M,-21.8,M,,*66
2021-06-16 00:07:16Z, 6cda8203-a249-e411-b0cc-f8bc1246af59, $GPGGA,000715.00,4437.5843,N,12402.8900,W,1,10,0.8,28.8,M,-21.8,M,,*6A
2021-06-16 00:07:17Z, 6cda8203-a249-e411-b0cc-f8bc1246af59, $GPGGA,000716.00,4437.5844,N,12402.8899,W,1,10,0.8,28.9,M,-21.8,M,,*6E
2021-06-16 00:07:19Z, 6cda8203-a249-e411-b0cc-f8bc1246af59, $GPGGA,000718.00,4437.5841,N,12402.8895,W,1,10,0.8,28.9,M,-21.8,M,,*69
2021-06-16 00:07:20Z, 6cda8203-a249-e411-b0cc-f8bc1246af59, $GPGGA,000719.00,4437.5840,N,12402.8894,W,1,10,0.8,28.8,M,-21.8,M,,*69
2021-06-16 00:07:22Z, 6cda8203-a249-e411-b0cc-f8bc1246af59, $GPGGA,000721.00,4437.5844,N,12402.8891,W,1,10,0.8,28.7,M,-21.8,M,,*6C
2021-06-16 00:07:23Z, 6cda8203-a249-e411-b0cc-f8bc1246af59, $GPGGA,000722.00,4437.5844,N,12402.8890,W,1,10,0.8,28.6,M,-21.8,M,,*6F
2021-06-16 00:07:25Z, 6cda8203-a249-e411-b0cc-f8bc1246af59, $GPGGA,000724.00,4437.5847,N,12402.8887,W,1,10,0.8,28.7,M,-21.8,M,,*6D
2021-06-16 00:07:26Z, 6cda8203-a249-e411-b0cc-f8bc1246af59, $GPGGA,000725.00,4437.5847,N,12402.8887,W,1,10,0.8,28.7,M,-21.8,M,,*6C
2021-06-16 00:07:28Z, 6cda8203-a249-e411-b0cc-f8bc1246af59, $GPGGA,000727.00,4437.5848,N,12402.8884,W,1,10,0.8,28.7,M,-21.8,M,,*62
2021-06-16 00:07:29Z, 6cda8203-a249-e411-b0cc-f8bc1246af59, $GPGGA,000728.00,4437.5849,N,12402.8884,W,1,10,0.8,28.6,M,-21.8,M,,*6D
2021-06-16 00:07:31Z, 6cda8203-a249-e411-b0cc-f8bc1246af59, $GPGGA,000730.00,4437.5850,N,12402.8883,W,1,10,0.8,28.6,M,-21.8,M,,*6B
2021-06-16 00:07:32Z, 6cda8203-a249-e411-b0cc-f8bc1246af59, $GPGGA,000731.00,4437.5851,N,12402.8882,W,1,10,0.8,28.7,M,-21.8,M,,*6B
2021-06-16 00:07:34Z, 6cda8203-a249-e411-b0cc-f8bc1246af59, $GPGGA,000733.00,4437.5859,N,12402.8880,W,1,10,0.8,28.6,M,-21.8,M,,*62
2021-06-16 00:07:35Z, 6cda8203-a249-e411-b0cc-f8bc1246af59, $GPGGA,000734.00,4437.5860,N,12402.8878,W,1,10,0.8,28.5,M,-21.8,M,,*6B
2021-06-16 00:07:37Z, 6cda8203-a249-e411-b0cc-f8bc1246af59, $GPGGA,000736.00,4437.5862,N,12402.8877,W,1,10,0.8,28.6,M,-21.8,M,,*67
2021-06-16 00:07:38Z, 6cda8203-a249-e411-b0cc-f8bc1246af59, $GPGGA,000737.00,4437.5863,N,12402.8878,W,1,10,0.8,28.5,M,-21.8,M,,*6B
2021-06-16 00:07:40Z, 6cda8203-a249-e411-b0cc-f8bc1246af59, $GPGGA,000739.00,4437.5865,N,12402.8880,W,1,10,0.8,28.6,M,-21.8,M,,*67
2021-06-16 00:07:41Z, 6cda8203-a249-e411-b0cc-f8bc1246af59, $GPGGA,000740.00,4437.5866,N,12402.8882,W,1,10,0.8,28.6,M,-21.8,M,,*68
2021-06-16 00:07:43Z, 6cda8203-a249-e411-b0cc-f8bc1246af59, $GPGGA,000742.00,4437.5868,N,12402.8878,W,1,10,0.8,28.7,M,-21.8,M,,*60
2021-06-16 00:07:44Z, 6cda8203-a249-e411-b0cc-f8bc1246af59, $GPGGA,000743.00,4437.5870,N,12402.8877,W,1,10,0.8,28.8,M,-21.8,M,,*68
2021-06-16 00:07:46Z, 6cda8203-a249-e411-b0cc-f8bc1246af59, $GPGGA,000745.00,4437.5871,N,12402.8871,W,1,10,0.8,28.6,M,-21.8,M,,*67
2021-06-16 00:07:47Z, 6cda8203-a249-e411-b0cc-f8bc1246af59, $GPGGA,000746.00,4437.5871,N,12402.8868,W,1,09,0.8,28.6,M,-21.8,M,,*64
2021-06-16 00:07:49Z, 6cda8203-a249-e411-b0cc-f8bc1246af59, $GPGGA,000748.00,4437.5876,N,12402.8867,W,1,10,0.8,28.7,M,-21.8,M,,*6B
2021-06-16 00:07:50Z, 6cda8203-a249-e411-b0cc-f8bc1246af59, $GPGGA,000749.00,4437.5878,N,12402.8868,W,1,10,0.8,28.8,M,-21.8,M,,*64
2021-06-16 00:07:52Z, 6cda8203-a249-e411-b0cc-f8bc1246af59, $GPGGA,000751.00,4437.5879,N,12402.8865,W,1,10,0.8,28.7,M,-21.8,M,,*6E
2021-06-16 00:07:53Z, 6cda8203-a249-e411-b0cc-f8bc1246af59, $GPGGA,000752.00,4437.5879,N,12402.8862,W,1,10,0.8,28.7,M,-21.8,M,,*6A
2021-06-16 00:07:55Z, 6cda8203-a249-e411-b0cc-f8bc1246af59, $GPGGA,000754.00,4437.5879,N,12402.8860,W,1,10,0.8,28.6,M,-21.8,M,,*6F
2021-06-16 00:07:56Z, 6cda8203-a249-e411-b0cc-f8bc1246af59, $GPGGA,000755.00,4437.5880,N,12402.8860,W,1,10,0.8,28.6,M,-21.8,M,,*68
2021-06-16 00:07:58Z, 6cda8203-a249-e411-b0cc-f8bc1246af59, $GPGGA,000757.00,4437.5880,N,12402.8858,W,1,10,0.8,28.6,M,-21.8,M,,*61
2021-06-16 00:07:59Z, 6cda8203-a249-e411-b0cc-f8bc1246af59, $GPGGA,000758.00,4437.5880,N,12402.8858,W,1,09,1.3,28.6,M,-21.8,M,,*6C
2021-06-16 00:08:01Z, 6cda8203-a249-e411-b0cc-f8bc1246af59, $GPGGA,000800.00,4437.5882,N,12402.8852,W,1,10,0.8,28.6,M,-21.8,M,,*64
2021-06-16 00:08:02Z, 6cda8203-a249-e411-b0cc-f8bc1246af59, $GPGGA,000801.00,4437.5883,N,12402.8847,W,1,10,0.8,28.7,M,-21.8,M,,*61
2021-06-16 00:08:04Z, 6cda8203-a249-e411-b0cc-f8bc1246af59, $GPGGA,000803.00,4437.5882,N,12402.8846,W,1,10,0.8,28.7,M,-21.8,M,,*63
2021-06-16 00:08:05Z, 6cda8203-a249-e411-b0cc-f8bc1246af59, $GPGGA,000804.00,4437.5881,N,12402.8845,W,1,10,0.8,28.7,M,-21.8,M,,*64
2021-06-16 00:08:07Z, 6cda8203-a249-e411-b0cc-f8bc1246af59, $GPGGA,000806.00,4437.5881,N,12402.8848,W,1,10,0.8,28.7,M,-21.8,M,,*6B
2021-06-16 00:08:08Z, 6cda8203-a249-e411-b0cc-f8bc1246af59, $GPGGA,000807.00,4437.5881,N,12402.8845,W,1,10,0.8,29.0,M,-21.8,M,,*61
2021-06-16 00:08:10Z, 6cda8203-a249-e411-b0cc-f8bc1246af59, $GPGGA,000809.00,4437.5880,N,12402.8848,W,1,10,0.8,29.1,M,-21.8,M,,*62
2021-06-16 00:08:11Z, 6cda8203-a249-e411-b0cc-f8bc1246af59, $GPGGA,000810.00,4437.5879,N,12402.8850,W,1,10,0.8,29.3,M,-21.8,M,,*67
2021-06-16 00:08:13Z, 6cda8203-a249-e411-b0cc-f8bc1246af59, $GPGGA,000812.00,4437.5878,N,12402.8851,W,1,10,0.8,29.4,M,-21.8,M,,*62
2021-06-16 00:08:14Z, 6cda8203-a249-e411-b0cc-f8bc1246af59, $GPGGA,000813.00,4437.5877,N,12402.8850,W,1,10,0.8,29.5,M,-21.8,M,,*6C
2021-06-16 00:08:16Z, 6cda8203-a249-e411-b0cc-f8bc1246af59, $GPGGA,000815.00,4437.5874,N,12402.8855,W,1,10,0.8,29.6,M,-21.8,M,,*6F
2021-06-16 00:08:17Z, 6cda8203-a249-e411-b0cc-f8bc1246af59, $GPGGA,000816.00,4437.5872,N,12402.8856,W,1,10,0.8,29.6,M,-21.8,M,,*69
2021-06-16 00:08:19Z, 6cda8203-a249-e411-b0cc-f8bc1246af59, $GPGGA,000818.00,4437.5874,N,12402.8863,W,1,10,0.8,29.6,M,-21.8,M,,*67
2021-06-16 00:08:20Z, 6cda8203-a249-e411-b0cc-f8bc1246af59, $GPGGA,000819.00,4437.5874,N,12402.8864,W,1,10,0.8,29.7,M,-21.8,M,,*60
2021-06-16 00:08:22Z, 6cda8203-a249-e411-b0cc-f8bc1246af59, $GPGGA,000821.00,4437.5873,N,12402.8864,W,1,10,0.8,29.7,M,-21.8,M,,*6C
2021-06-16 00:08:23Z, 6cda8203-a249-e411-b0cc-f8bc1246af59, $GPGGA,000822.00,4437.5872,N,12402.8864,W,1,10,0.8,29.7,M,-21.8,M,,*6E
2021-06-16 00:08:25Z, 6cda8203-a249-e411-b0cc-f8bc1246af59, $GPGGA,000824.00,4437.5872,N,12402.8865,W,1,10,0.8,29.7,M,-21.8,M,,*69
2021-06-16 00:08:26Z, 6cda8203-a249-e411-b0cc-f8bc1246af59, $GPGGA,000825.00,4437.5872,N,12402.8866,W,1,10,0.8,29.7,M,-21.8,M,,*6B
2021-06-16 00:08:28Z, 6cda8203-a249-e411-b0cc-f8bc1246af59, $GPGGA,000827.00,4437.5875,N,12402.8869,W,1,10,0.8,29.9,M,-21.8,M,,*6F
2021-06-16 00:08:29Z, 6cda8203-a249-e411-b0cc-f8bc1246af59, $GPGGA,000828.00,4437.5873,N,12402.8872,W,1,10,0.8,29.9,M,-21.8,M,,*6C
2021-06-16 00:08:31Z, 6cda8203-a249-e411-b0cc-f8bc1246af59, $GPGGA,000830.00,4437.5872,N,12402.8877,W,1,10,0.8,30.0,M,-21.8,M,,*60
2021-06-16 00:08:32Z, 6cda8203-a249-e411-b0cc-f8bc1246af59, $GPGGA,000831.00,4437.5871,N,12402.8877,W,1,10,0.8,30.1,M,-21.8,M,,*63
2021-06-16 00:08:34Z, 6cda8203-a249-e411-b0cc-f8bc1246af59, $GPGGA,000833.00,4437.5871,N,12402.8873,W,1,10,0.8,30.2,M,-21.8,M,,*66
2021-06-16 00:08:35Z, 6cda8203-a249-e411-b0cc-f8bc1246af59, $GPGGA,000834.00,4437.5869,N,12402.8873,W,1,10,0.8,30.3,M,-21.8,M,,*69
2021-06-16 00:08:37Z, 6cda8203-a249-e411-b0cc-f8bc1246af59, $GPGGA,000836.00,4437.5872,N,12402.8875,W,1,10,0.8,30.1,M,-21.8,M,,*65
2021-06-16 00:08:38Z, 6cda8203-a249-e411-b0cc-f8bc1246af59, $GPGGA,000837.00,4437.5870,N,12402.8874,W,1,10,0.8,30.0,M,-21.8,M,,*66
2021-06-16 00:08:40Z, 6cda8203-a249-e411-b0cc-f8bc1246af59, $GPGGA,000839.00,4437.5869,N,12402.8874,W,1,10,0.8,30.0,M,-21.8,M,,*60
2021-06-16 00:08:41Z, 6cda8203-a249-e411-b0cc-f8bc1246af59, $GPGGA,000840.00,4437.5869,N,12402.8876,W,1,10,0.8,29.8,M,-21.8,M,,*6C
2021-06-16 00:08:43Z, 6cda8203-a249-e411-b0cc-f8bc1246af59, $GPGGA,000842.00,4437.5869,N,12402.8880,W,1,10,0.8,29.7,M,-21.8,M,,*68
2021-06-16 00:08:44Z, 6cda8203-a249-e411-b0cc-f8bc1246af59, $GPGGA,000843.00,4437.5869,N,12402.8881,W,1,10,0.8,29.7,M,-21.8,M,,*68
2021-06-16 00:08:46Z, 6cda8203-a249-e411-b0cc-f8bc1246af59, $GPGGA,000845.00,4437.5869,N,12402.8880,W,1,10,0.8,29.8,M,-21.8,M,,*60
2021-06-16 00:08:47Z, 6cda8203-a249-e411-b0cc-f8bc1246af59, $GPGGA,000846.00,4437.5868,N,12402.8881,W,1,10,0.8,29.8,M,-21.8,M,,*63
2021-06-16 00:08:49Z, 6cda8203-a249-e411-b0cc-f8bc1246af59, $GPGGA,000848.00,4437.5868,N,12402.8882,W,1,10,0.8,29.9,M,-21.8,M,,*6F
2021-06-16 00:08:50Z, 6cda8203-a249-e411-b0cc-f8bc1246af59, $GPGGA,000849.00,4437.5867,N,12402.8882,W,1,10,0.8,29.9,M,-21.8,M,,*61
2021-06-16 00:08:51Z, 6cda8203-a249-e411-b0cc-f8bc1246af59, $GPGGA,000850.00,4437.5867,N,12402.8882,W,1,10,0.8,29.9,M,-21.8,M,,*69
2021-06-16 00:08:52Z, 6cda8203-a249-e411-b0cc-f8bc1246af59, $GPGGA,000851.00,4437.5867,N,12402.8883,W,1,10,0.8,29.9,M,-21.8,M,,*69
2021-06-16 00:08:53Z, 6cda8203-a249-e411-b0cc-f8bc1246af59, $GPGGA,000852.00,4437.5866,N,12402.8883,W,1,10,0.8,30.0,M,-21.8,M,,*6A
2021-06-16 00:08:54Z, 6cda8203-a249-e411-b0cc-f8bc1246af59, $GPGGA,000853.00,4437.5866,N,12402.8884,W,1,10,0.8,30.0,M,-21.8,M,,*6C
2021-06-16 00:08:56Z, 6cda8203-a249-e411-b0cc-f8bc1246af59, $GPGGA,000854.00,4437.5866,N,12402.8884,W,1,10,0.8,30.0,M,-21.8,M,,*6B
2021-06-16 00:08:57Z, 6cda8203-a249-e411-b0cc-f8bc1246af59, $GPGGA,000856.00,4437.5866,N,12402.8886,W,1,10,0.8,30.1,M,-21.8,M,,*6A
2021-06-16 00:08:58Z, 6cda8203-a249-e411-b0cc-f8bc1246af59, $GPGGA,000857.00,4437.5865,N,12402.8887,W,1,10,0.8,30.1,M,-21.8,M,,*69
2021-06-16 00:09:00Z, 6cda8203-a249-e411-b0cc-f8bc1246af59, $GPGGA,000859.00,4437.5865,N,12402.8891,W,1,10,0.8,30.1,M,-21.8,M,,*60
2021-06-16 00:09:02Z, 6cda8203-a249-e411-b0cc-f8bc1246af59, $GPGGA,000900.00,4437.5864,N,12402.8893,W,1,10,0.8,30.1,M,-21.8,M,,*6E
2021-06-16 00:09:03Z, 6cda8203-a249-e411-b0cc-f8bc1246af59, $GPGGA,000902.00,4437.5864,N,12402.8895,W,1,10,0.8,30.1,M,-21.8,M,,*6A
2021-06-16 00:09:05Z, 6cda8203-a249-e411-b0cc-f8bc1246af59, $GPGGA,000903.00,4437.5863,N,12402.8897,W,1,10,0.8,30.1,M,-21.8,M,,*6E
2021-06-16 00:09:06Z, 6cda8203-a249-e411-b0cc-f8bc1246af59, $GPGGA,000905.00,4437.5862,N,12402.8899,W,1,10,0.8,30.2,M,-21.8,M,,*64
2021-06-16 00:09:08Z, 6cda8203-a249-e411-b0cc-f8bc1246af59, $GPGGA,000906.00,4437.5862,N,12402.8900,W,1,10,0.8,30.2,M,-21.8,M,,*66
2021-06-16 00:09:09Z, 6cda8203-a249-e411-b0cc-f8bc1246af59, $GPGGA,000908.00,4437.5861,N,12402.8901,W,1,10,0.8,30.1,M,-21.8,M,,*69
2021-06-16 00:09:10Z, 6cda8203-a249-e411-b0cc-f8bc1246af59, $GPGGA,000909.00,4437.5861,N,12402.8901,W,1,10,0.8,30.1,M,-21.8,M,,*68
2021-06-16 00:09:12Z, 6cda8203-a249-e411-b0cc-f8bc1246af59, $GPGGA,000911.00,4437.5860,N,12402.8901,W,1,10,0.8,30.1,M,-21.8,M,,*60
2021-06-16 00:09:13Z, 6cda8203-a249-e411-b0cc-f8bc1246af59, $GPGGA,000912.00,4437.5860,N,12402.8901,W,1,10,0.8,30.0,M,-21.8,M,,*62
2021-06-16 00:09:15Z, 6cda8203-a249-e411-b0cc-f8bc1246af59, $GPGGA,000914.00,4437.5859,N,12402.8901,W,1,10,0.8,30.0,M,-21.8,M,,*6E
2021-06-16 00:09:16Z, 6cda8203-a249-e411-b0cc-f8bc1246af59, $GPGGA,000915.00,4437.5858,N,12402.8900,W,1,10,0.8,30.0,M,-21.8,M,,*6F
2021-06-16 00:09:18Z, 6cda8203-a249-e411-b0cc-f8bc1246af59, $GPGGA,000917.00,4437.5858,N,12402.8900,W,1,10,0.8,30.0,M,-21.8,M,,*6D
2021-06-16 00:09:19Z, 6cda8203-a249-e411-b0cc-f8bc1246af59, $GPGGA,000918.00,4437.5858,N,12402.8900,W,1,10,0.8,30.0,M,-21.8,M,,*62
2021-06-16 00:09:21Z, 6cda8203-a249-e411-b0cc-f8bc1246af59, $GPGGA,000920.00,4437.5858,N,12402.8899,W,1,10,0.8,30.0,M,-21.8,M,,*68
2021-06-16 00:09:22Z, 6cda8203-a249-e411-b0cc-f8bc1246af59, $GPGGA,000921.00,4437.5858,N,12402.8898,W,1,10,0.8,30.0,M,-21.8,M,,*68
2021-06-16 00:09:24Z, 6cda8203-a249-e411-b0cc-f8bc1246af59, $GPGGA,000923.00,4437.5858,N,12402.8897,W,1,10,0.8,29.9,M,-21.8,M,,*64
2021-06-16 00:09:25Z, 6cda8203-a249-e411-b0cc-f8bc1246af59, $GPGGA,000924.00,4437.5858,N,12402.8896,W,1,10,0.8,29.9,M,-21.8,M,,*62
2021-06-16 00:09:27Z, 6cda8203-a249-e411-b0cc-f8bc1246af59, $GPGGA,000926.00,4437.5858,N,12402.8896,W,1,10,0.8,29.9,M,-21.8,M,,*60
2021-06-16 00:09:28Z, 6cda8203-a249-e411-b0cc-f8bc1246af59, $GPGGA,000927.00,4437.5858,N,12402.8895,W,1,10,0.8,29.9,M,-21.8,M,,*62
2021-06-16 00:09:30Z, 6cda8203-a249-e411-b0cc-f8bc1246af59, $GPGGA,000929.00,4437.5858,N,12402.8895,W,1,10,0.8,29.8,M,-21.8,M,,*6D
2021-06-16 00:09:31Z, 6cda8203-a249-e411-b0cc-f8bc1246af59, $GPGGA,000930.00,4437.5857,N,12402.8894,W,1,10,0.8,29.8,M,-21.8,M,,*6B
2021-06-16 00:09:33Z, 6cda8203-a249-e411-b0cc-f8bc1246af59, $GPGGA,000932.00,4437.5856,N,12402.8893,W,1,10,0.8,29.8,M,-21.8,M,,*6F
2021-06-16 00:09:34Z, 6cda8203-a249-e411-b0cc-f8bc1246af59, $GPGGA,000933.00,4437.5855,N,12402.8893,W,1,10,0.8,29.8,M,-21.8,M,,*6D
2021-06-16 00:09:36Z, 6cda8203-a249-e411-b0cc-f8bc1246af59, $GPGGA,000935.00,4437.5852,N,12402.8881,W,1,10,0.8,29.3,M,-21.8,M,,*64
2021-06-16 00:09:37Z, 6cda8203-a249-e411-b0cc-f8bc1246af59, $GPGGA,000936.00,4437.5854,N,12402.8878,W,1,10,0.8,28.6,M,-21.8,M,,*63
2021-06-16 00:09:39Z, 6cda8203-a249-e411-b0cc-f8bc1246af59, $GPGGA,000938.00,4437.5853,N,12402.8874,W,1,10,0.8,28.5,M,-21.8,M,,*65
2021-06-16 00:09:40Z, 6cda8203-a249-e411-b0cc-f8bc1246af59, $GPGGA,000939.00,4437.5852,N,12402.8870,W,1,10,0.8,28.2,M,-21.8,M,,*66
2021-06-16 00:09:42Z, 6cda8203-a249-e411-b0cc-f8bc1246af59, $GPGGA,000941.00,4437.5855,N,12402.8868,W,1,10,0.8,27.8,M,-21.8,M,,*62
2021-06-16 00:09:43Z, 6cda8203-a249-e411-b0cc-f8bc1246af59, $GPGGA,000942.00,4437.5856,N,12402.8866,W,1,10,0.8,27.8,M,-21.8,M,,*6C
2021-06-16 00:09:45Z, 6cda8203-a249-e411-b0cc-f8bc1246af59, $GPGGA,000944.00,4437.5856,N,12402.8863,W,1,10,0.8,27.5,M,-21.8,M,,*62
2021-06-16 00:09:46Z, 6cda8203-a249-e411-b0cc-f8bc1246af59, $GPGGA,000945.00,4437.5856,N,12402.8862,W,1,10,0.8,27.7,M,-21.8,M,,*60
2021-06-16 00:09:48Z, 6cda8203-a249-e411-b0cc-f8bc1246af59, $GPGGA,000947.00,4437.5856,N,12402.8856,W,1,10,0.8,28.5,M,-21.8,M,,*68
2021-06-16 00:09:49Z, 6cda8203-a249-e411-b0cc-f8bc1246af59, $GPGGA,000948.00,4437.5853,N,12402.8856,W,1,10,0.8,28.5,M,-21.8,M,,*62
2021-06-16 00:09:51Z, 6cda8203-a249-e411-b0cc-f8bc1246af59, $GPGGA,000950.00,4437.5850,N,12402.8855,W,1,10,0.8,28.5,M,-21.8,M,,*6B
2021-06-16 00:09:52Z, 6cda8203-a249-e411-b0cc-f8bc1246af59, $GPGGA,000951.00,4437.5851,N,12402.8854,W,1,10,0.8,28.6,M,-21.8,M,,*69
2021-06-16 00:09:54Z, 6cda8203-a249-e411-b0cc-f8bc1246af59, $GPGGA,000953.00,4437.5850,N,12402.8850,W,1,10,0.8,29.1,M,-21.8,M,,*68
2021-06-16 00:09:55Z, 6cda8203-a249-e411-b0cc-f8bc1246af59, $GPGGA,000954.00,4437.5850,N,12402.8845,W,1,10,0.8,29.3,M,-21.8,M,,*69
2021-06-16 00:09:57Z, 6cda8203-a249-e411-b0cc-f8bc1246af59, $GPGGA,000956.00,4437.5846,N,12402.8842,W,1,10,0.8,29.4,M,-21.8,M,,*6C
2021-06-16 00:09:58Z, 6cda8203-a249-e411-b0cc-f8bc1246af59, $GPGGA,000957.00,4437.5845,N,12402.8841,W,1,10,0.8,29.3,M,-21.8,M,,*6A
2021-06-16 00:10:00Z, 6cda8203-a249-e411-b0cc-f8bc1246af59, $GPGGA,000959.00,4437.5848,N,12402.8845,W,1,10,0.8,29.5,M,-21.8,M,,*6B
2021-06-16 00:10:01Z, 6cda8203-a249-e411-b0cc-f8bc1246af59, $GPGGA,001000.00,4437.5849,N,12402.8846,W,1,10,0.8,29.6,M,-21.8,M,,*6E
2021-06-16 00:10:03Z, 6cda8203-a249-e411-b0cc-f8bc1246af59, $GPGGA,001002.00,4437.5848,N,12402.8844,W,1,10,0.8,29.8,M,-21.8,M,,*61
2021-06-16 00:10:04Z, 6cda8203-a249-e411-b0cc-f8bc1246af59, $GPGGA,001003.00,4437.5847,N,12402.8844,W,1,10,0.8,29.8,M,-21.8,M,,*6F
2021-06-16 00:10:06Z, 6cda8203-a249-e411-b0cc-f8bc1246af59, $GPGGA,001005.00,4437.5846,N,12402.8846,W,1,10,0.8,29.9,M,-21.8,M,,*6B
2021-06-16 00:10:07Z, 6cda8203-a249-e411-b0cc-f8bc1246af59, $GPGGA,001006.00,4437.5847,N,12402.8843,W,1,09,0.8,30.0,M,-21.8,M,,*65
2021-06-16 00:10:09Z, 6cda8203-a249-e411-b0cc-f8bc1246af59, $GPGGA,001008.00,4437.5845,N,12402.8842,W,1,09,0.8,29.8,M,-21.8,M,,*68
2021-06-16 00:10:10Z, 6cda8203-a249-e411-b0cc-f8bc1246af59, $GPGGA,001009.00,4437.5846,N,12402.8843,W,1,09,0.8,29.7,M,-21.8,M,,*64
2021-06-16 00:10:12Z, 6cda8203-a249-e411-b0cc-f8bc1246af59, $GPGGA,001011.00,4437.5846,N,12402.8845,W,1,09,0.8,29.6,M,-21.8,M,,*6A
2021-06-16 00:10:13Z, 6cda8203-a249-e411-b0cc-f8bc1246af59, $GPGGA,001012.00,4437.5846,N,12402.8848,W,1,09,0.8,29.6,M,-21.8,M,,*64
2021-06-16 00:10:15Z, 6cda8203-a249-e411-b0cc-f8bc1246af59, $GPGGA,001014.00,4437.5847,N,12402.8851,W,1,09,0.8,29.4,M,-21.8,M,,*69
2021-06-16 00:10:16Z, 6cda8203-a249-e411-b0cc-f8bc1246af59, $GPGGA,001015.00,4437.5848,N,12402.8854,W,1,09,0.8,29.3,M,-21.8,M,,*65
2021-06-16 00:10:18Z, 6cda8203-a249-e411-b0cc-f8bc1246af59, $GPGGA,001017.00,4437.5844,N,12402.8852,W,1,09,0.8,29.1,M,-21.8,M,,*6F
2021-06-16 00:10:19Z, 6cda8203-a249-e411-b0cc-f8bc1246af59, $GPGGA,001018.00,4437.5843,N,12402.8852,W,1,09,0.8,29.1,M,-21.8,M,,*67
2021-06-16 00:10:21Z, 6cda8203-a249-e411-b0cc-f8bc1246af59, $GPGGA,001020.00,4437.5839,N,12402.8854,W,1,09,0.8,29.0,M,-21.8,M,,*66
2021-06-16 00:10:22Z, 6cda8203-a249-e411-b0cc-f8bc1246af59, $GPGGA,001021.00,4437.5837,N,12402.8856,W,1,09,0.8,28.9,M,-21.8,M,,*63
2021-06-16 00:10:24Z, 6cda8203-a249-e411-b0cc-f8bc1246af59, $GPGGA,001023.00,4437.5836,N,12402.8859,W,1,09,0.8,28.7,M,-21.8,M,,*61
2021-06-16 00:10:25Z, 6cda8203-a249-e411-b0cc-f8bc1246af59, $GPGGA,001024.00,4437.5836,N,12402.8860,W,1,09,0.8,28.6,M,-21.8,M,,*6D
2021-06-16 00:10:27Z, 6cda8203-a249-e411-b0cc-f8bc1246af59, $GPGGA,001026.00,4437.5834,N,12402.8866,W,1,09,0.8,28.3,M,-21.8,M,,*6E
2021-06-16 00:10:28Z, 6cda8203-a249-e411-b0cc-f8bc1246af59, $GPGGA,001027.00,4437.5833,N,12402.8867,W,1,09,0.8,28.1,M,-21.8,M,,*6B
2021-06-16 00:10:30Z, 6cda8203-a249-e411-b0cc-f8bc1246af59, $GPGGA,001029.00,4437.5833,N,12402.8868,W,1,09,0.8,28.1,M,-21.8,M,,*6A
2021-06-16 00:10:31Z, 6cda8203-a249-e411-b0cc-f8bc1246af59, $GPGGA,001030.00,4437.5831,N,12402.8867,W,1,09,0.8,28.1,M,-21.8,M,,*6F
2021-06-16 00:10:33Z, 6cda8203-a249-e411-b0cc-f8bc1246af59, $GPGGA,001032.00,4437.5830,N,12402.8866,W,1,09,0.8,28.0,M,-21.8,M,,*6C
2021-06-16 00:10:34Z, 6cda8203-a249-e411-b0cc-f8bc1246af59, $GPGGA,001033.00,4437.5831,N,12402.8867,W,1,09,0.8,27.9,M,-21.8,M,,*6B
2021-06-16 00:10:36Z, 6cda8203-a249-e411-b0cc-f8bc1246af59, $GPGGA,001035.00,4437.5830,N,12402.8870,W,1,09,0.8,27.9,M,-21.8,M,,*6A
2021-06-16 00:10:37Z, 6cda8203-a249-e411-b0cc-f8bc1246af59, $GPGGA,001036.00,4437.5832,N,12402.8871,W,1,09,0.8,27.9,M,-21.8,M,,*6A
2021-06-16 00:10:39Z, 6cda8203-a249-e411-b0cc-f8bc1246af59, $GPGGA,001038.00,4437.5833,N,12402.8873,W,1,09,0.8,27.9,M,-21.8,M,,*67
2021-06-16 00:10:40Z, 6cda8203-a249-e411-b0cc-f8bc1246af59, $GPGGA,001039.00,4437.5834,N,12402.8875,W,1,09,0.8,27.9,M,-21.8,M,,*67
2021-06-16 00:10:42Z, 6cda8203-a249-e411-b0cc-f8bc1246af59, $GPGGA,001041.00,4437.5837,N,12402.8876,W,1,09,0.8,27.8,M,-21.8,M,,*69
2021-06-16 00:10:43Z, 6cda8203-a249-e411-b0cc-f8bc1246af59, $GPGGA,001042.00,4437.5838,N,12402.8876,W,1,09,0.8,27.8,M,-21.8,M,,*65
2021-06-16 00:10:45Z, 6cda8203-a249-e411-b0cc-f8bc1246af59, $GPGGA,001044.00,4437.5844,N,12402.8881,W,1,09,0.8,27.9,M,-21.8,M,,*61
2021-06-16 00:10:46Z, 6cda8203-a249-e411-b0cc-f8bc1246af59, $GPGGA,001045.00,4437.5849,N,12402.8886,W,1,09,0.8,28.1,M,-21.8,M,,*6D
2021-06-16 00:10:48Z, 6cda8203-a249-e411-b0cc-f8bc1246af59, $GPGGA,001047.00,4437.5849,N,12402.8887,W,1,09,0.8,28.2,M,-21.8,M,,*6D
2021-06-16 00:10:49Z, 6cda8203-a249-e411-b0cc-f8bc1246af59, $GPGGA,001048.00,4437.5848,N,12402.8888,W,1,09,0.8,28.2,M,-21.8,M,,*6C
