ACQ Timestamp (Server Time in UTC), MessageID, Data Value For: GNSS-6452-$GPGGA
2021-08-13T16:43:20.9695272Z, 6cda8203-a249-e411-b0cc-f8bc1246af59, $GPGGA,164319.00,4437.5866,N,12402.8934,W,1,09,1.0,44.1,M,-21.8,M,,*63
2021-08-13T16:43:22.6591588Z, 6cda8203-a249-e411-b0cc-f8bc1246af59, $GPGGA,164320.00,4437.5864,N,12402.8935,W,1,09,1.0,44.2,M,-21.8,M,,*69
2021-08-13T16:43:23.7294679Z, 6cda8203-a249-e411-b0cc-f8bc1246af59, $GPGGA,164322.00,4437.5863,N,12402.8934,W,1,09,1.0,44.3,M,-21.8,M,,*6C
2021-08-13T16:43:25.3295080Z, 6cda8203-a249-e411-b0cc-f8bc1246af59, $GPGGA,164323.00,4437.5862,N,12402.8934,W,1,09,1.0,44.3,M,-21.8,M,,*6C
2021-08-13T16:43:26.4794668Z, 6cda8203-a249-e411-b0cc-f8bc1246af59, $GPGGA,164325.00,4437.5859,N,12402.8931,W,1,09,1.0,45.1,M,-21.8,M,,*64
2021-08-13T16:43:28.0894198Z, 6cda8203-a249-e411-b0cc-f8bc1246af59, $GPGGA,164326.00,4437.5859,N,12402.8930,W,1,09,1.0,45.3,M,-21.8,M,,*64
2021-08-13T16:43:29.2394221Z, 6cda8203-a249-e411-b0cc-f8bc1246af59, $GPGGA,164328.00,4437.5860,N,12402.8930,W,1,09,1.0,45.5,M,-21.8,M,,*66
2021-08-13T16:43:30.8394448Z, 6cda8203-a249-e411-b0cc-f8bc1246af59, $GPGGA,164329.00,4437.5861,N,12402.8931,W,1,09,1.0,45.5,M,-21.8,M,,*67
2021-08-13T16:43:32.9701108Z, 6cda8203-a249-e411-b0cc-f8bc1246af59, $GPGGA,164331.00,4437.5860,N,12402.8930,W,1,09,1.0,45.5,M,-21.8,M,,*6E
2021-08-13T16:43:34.5701396Z, 6cda8203-a249-e411-b0cc-f8bc1246af59, $GPGGA,164332.00,4437.5860,N,12402.8931,W,1,09,1.0,45.5,M,-21.8,M,,*6C
2021-08-13T16:43:35.7300323Z, 6cda8203-a249-e411-b0cc-f8bc1246af59, $GPGGA,164334.00,4437.5859,N,12402.8931,W,1,09,1.0,45.5,M,-21.8,M,,*60
2021-08-13T16:43:37.3300676Z, 6cda8203-a249-e411-b0cc-f8bc1246af59, $GPGGA,164335.00,4437.5859,N,12402.8931,W,1,09,1.0,45.6,M,-21.8,M,,*62
2021-08-13T16:43:38.4800505Z, 6cda8203-a249-e411-b0cc-f8bc1246af59, $GPGGA,164337.00,4437.5858,N,12402.8931,W,1,09,1.0,45.5,M,-21.8,M,,*62
2021-08-13T16:43:40.0899999Z, 6cda8203-a249-e411-b0cc-f8bc1246af59, $GPGGA,164338.00,4437.5858,N,12402.8931,W,1,09,1.0,45.6,M,-21.8,M,,*6E
2021-08-13T16:43:41.2399938Z, 6cda8203-a249-e411-b0cc-f8bc1246af59, $GPGGA,164340.00,4437.5858,N,12402.8931,W,1,09,1.0,45.5,M,-21.8,M,,*62
2021-08-13T16:43:42.8400277Z, 6cda8203-a249-e411-b0cc-f8bc1246af59, $GPGGA,164341.00,4437.5857,N,12402.8931,W,1,09,1.0,45.6,M,-21.8,M,,*6F
2021-08-13T16:43:44.9697005Z, 6cda8203-a249-e411-b0cc-f8bc1246af59, $GPGGA,164343.00,4437.5857,N,12402.8931,W,1,09,1.0,45.6,M,-21.8,M,,*6D
2021-08-13T16:43:46.5697893Z, 6cda8203-a249-e411-b0cc-f8bc1246af59, $GPGGA,164344.00,4437.5856,N,12402.8931,W,1,09,1.0,45.6,M,-21.8,M,,*6B
2021-08-13T16:43:47.7307080Z, 6cda8203-a249-e411-b0cc-f8bc1246af59, $GPGGA,164346.00,4437.5856,N,12402.8931,W,1,09,1.0,45.6,M,-21.8,M,,*69
2021-08-13T16:43:49.3307467Z, 6cda8203-a249-e411-b0cc-f8bc1246af59, $GPGGA,164347.00,4437.5855,N,12402.8931,W,1,09,1.0,45.6,M,-21.8,M,,*6B
2021-08-13T16:43:50.4808007Z, 6cda8203-a249-e411-b0cc-f8bc1246af59, $GPGGA,164349.00,4437.5857,N,12402.8930,W,1,09,1.0,45.7,M,-21.8,M,,*67
2021-08-13T16:43:52.0907410Z, 6cda8203-a249-e411-b0cc-f8bc1246af59, $GPGGA,164350.00,4437.5857,N,12402.8931,W,1,09,1.0,45.6,M,-21.8,M,,*6F
2021-08-13T16:43:53.2407445Z, 6cda8203-a249-e411-b0cc-f8bc1246af59, $GPGGA,164352.00,4437.5857,N,12402.8930,W,1,09,1.0,45.4,M,-21.8,M,,*6E
2021-08-13T16:43:54.8407794Z, 6cda8203-a249-e411-b0cc-f8bc1246af59, $GPGGA,164353.00,4437.5858,N,12402.8929,W,1,09,1.0,45.5,M,-21.8,M,,*69
2021-08-13T16:43:57.0102906Z, 6cda8203-a249-e411-b0cc-f8bc1246af59, $GPGGA,164355.00,4437.5860,N,12402.8925,W,1,09,1.0,45.3,M,-21.8,M,,*6E
2021-08-13T16:43:58.5704708Z, 6cda8203-a249-e411-b0cc-f8bc1246af59, $GPGGA,164356.00,4437.5860,N,12402.8926,W,1,09,1.0,45.4,M,-21.8,M,,*69
2021-08-13T16:43:59.8010793Z, 6cda8203-a249-e411-b0cc-f8bc1246af59, $GPGGA,164358.00,4437.5857,N,12402.8928,W,1,09,1.0,45.4,M,-21.8,M,,*6D
2021-08-13T16:44:01.2824011Z, 6cda8203-a249-e411-b0cc-f8bc1246af59, $GPGGA,164359.00,4437.5857,N,12402.8929,W,1,09,1.0,45.4,M,-21.8,M,,*6D
2021-08-13T16:44:02.5610278Z, 6cda8203-a249-e411-b0cc-f8bc1246af59, $GPGGA,164401.00,4437.5853,N,12402.8930,W,1,09,1.0,45.7,M,-21.8,M,,*68
2021-08-13T16:44:04.0306322Z, 6cda8203-a249-e411-b0cc-f8bc1246af59, $GPGGA,164402.00,4437.5855,N,12402.8931,W,1,09,1.0,45.9,M,-21.8,M,,*62
2021-08-13T16:44:05.3110510Z, 6cda8203-a249-e411-b0cc-f8bc1246af59, $GPGGA,164404.00,4437.5856,N,12402.8931,W,1,09,1.0,45.8,M,-21.8,M,,*66
2021-08-13T16:44:06.7905614Z, 6cda8203-a249-e411-b0cc-f8bc1246af59, $GPGGA,164405.00,4437.5855,N,12402.8932,W,1,09,1.0,45.5,M,-21.8,M,,*6A
2021-08-13T16:44:08.0908880Z, 6cda8203-a249-e411-b0cc-f8bc1246af59, $GPGGA,164407.00,4437.5859,N,12402.8931,W,1,09,1.0,45.3,M,-21.8,M,,*61
2021-08-13T16:44:09.6211973Z, 6cda8203-a249-e411-b0cc-f8bc1246af59, $GPGGA,164408.00,4437.5859,N,12402.8932,W,1,09,1.0,45.2,M,-21.8,M,,*6C
2021-08-13T16:44:11.0907543Z, 6cda8203-a249-e411-b0cc-f8bc1246af59, $GPGGA,164410.00,4437.5859,N,12402.8934,W,1,09,1.0,45.0,M,-21.8,M,,*61
2021-08-13T16:44:12.6210958Z, 6cda8203-a249-e411-b0cc-f8bc1246af59, $GPGGA,164411.00,4437.5858,N,12402.8935,W,1,09,1.0,44.8,M,-21.8,M,,*69
2021-08-13T16:44:14.0916472Z, 6cda8203-a249-e411-b0cc-f8bc1246af59, $GPGGA,164413.00,4437.5857,N,12402.8938,W,1,09,1.0,44.7,M,-21.8,M,,*66
2021-08-13T16:44:15.6209863Z, 6cda8203-a249-e411-b0cc-f8bc1246af59, $GPGGA,164414.00,4437.5856,N,12402.8939,W,1,09,1.0,44.6,M,-21.8,M,,*60
2021-08-13T16:44:17.0915601Z, 6cda8203-a249-e411-b0cc-f8bc1246af59, $GPGGA,164416.00,4437.5855,N,12402.8936,W,1,09,1.0,44.5,M,-21.8,M,,*6D
2021-08-13T16:44:18.6218857Z, 6cda8203-a249-e411-b0cc-f8bc1246af59, $GPGGA,164417.00,4437.5856,N,12402.8934,W,1,09,1.0,44.4,M,-21.8,M,,*6C
2021-08-13T16:44:20.0914515Z, 6cda8203-a249-e411-b0cc-f8bc1246af59, $GPGGA,164419.00,4437.5856,N,12402.8936,W,1,09,1.0,44.1,M,-21.8,M,,*65
2021-08-13T16:44:21.6217781Z, 6cda8203-a249-e411-b0cc-f8bc1246af59, $GPGGA,164420.00,4437.5858,N,12402.8935,W,1,09,1.0,44.0,M,-21.8,M,,*63
2021-08-13T16:44:23.0913600Z, 6cda8203-a249-e411-b0cc-f8bc1246af59, $GPGGA,164422.00,4437.5860,N,12402.8936,W,1,09,1.0,43.7,M,-21.8,M,,*69
2021-08-13T16:44:24.6216843Z, 6cda8203-a249-e411-b0cc-f8bc1246af59, $GPGGA,164423.00,4437.5862,N,12402.8937,W,1,09,1.0,43.6,M,-21.8,M,,*6A
2021-08-13T16:44:26.0922334Z, 6cda8203-a249-e411-b0cc-f8bc1246af59, $GPGGA,164425.00,4437.5864,N,12402.8937,W,1,09,1.0,43.3,M,-21.8,M,,*6F
2021-08-13T16:44:27.6216019Z, 6cda8203-a249-e411-b0cc-f8bc1246af59, $GPGGA,164426.00,4437.5864,N,12402.8938,W,1,09,1.0,43.0,M,-21.8,M,,*60
2021-08-13T16:44:29.0921200Z, 6cda8203-a249-e411-b0cc-f8bc1246af59, $GPGGA,164428.00,4437.5863,N,12402.8942,W,1,09,1.0,42.9,M,-21.8,M,,*6C
2021-08-13T16:44:30.6158366Z, 6cda8203-a249-e411-b0cc-f8bc1246af59, $GPGGA,164429.00,4437.5864,N,12402.8940,W,1,09,1.0,42.9,M,-21.8,M,,*68
2021-08-13T16:44:32.0920455Z, 6cda8203-a249-e411-b0cc-f8bc1246af59, $GPGGA,164431.00,4437.5867,N,12402.8937,W,1,09,1.0,42.7,M,-21.8,M,,*6C
2021-08-13T16:44:33.6223444Z, 6cda8203-a249-e411-b0cc-f8bc1246af59, $GPGGA,164432.00,4437.5868,N,12402.8936,W,1,09,1.0,42.6,M,-21.8,M,,*60
2021-08-13T16:44:35.0857676Z, 6cda8203-a249-e411-b0cc-f8bc1246af59, $GPGGA,164434.00,4437.5871,N,12402.8935,W,1,09,1.0,42.5,M,-21.8,M,,*6E
2021-08-13T16:44:36.6222716Z, 6cda8203-a249-e411-b0cc-f8bc1246af59, $GPGGA,164435.00,4437.5874,N,12402.8934,W,1,09,1.0,42.4,M,-21.8,M,,*6A
2021-08-13T16:44:38.0918316Z, 6cda8203-a249-e411-b0cc-f8bc1246af59, $GPGGA,164437.00,4437.5875,N,12402.8936,W,1,09,1.0,42.3,M,-21.8,M,,*6C
2021-08-13T16:44:39.6221661Z, 6cda8203-a249-e411-b0cc-f8bc1246af59, $GPGGA,164438.00,4437.5877,N,12402.8936,W,1,09,1.0,42.1,M,-21.8,M,,*63
2021-08-13T16:44:41.0927238Z, 6cda8203-a249-e411-b0cc-f8bc1246af59, $GPGGA,164440.00,4437.5879,N,12402.8939,W,1,09,1.0,42.0,M,-21.8,M,,*6C
2021-08-13T16:44:42.6220627Z, 6cda8203-a249-e411-b0cc-f8bc1246af59, $GPGGA,164441.00,4437.5880,N,12402.8938,W,1,09,1.0,41.9,M,-21.8,M,,*60
2021-08-13T16:44:44.0926248Z, 6cda8203-a249-e411-b0cc-f8bc1246af59, $GPGGA,164443.00,4437.5882,N,12402.8935,W,1,09,1.0,41.9,M,-21.8,M,,*6D
2021-08-13T16:44:45.6229345Z, 6cda8203-a249-e411-b0cc-f8bc1246af59, $GPGGA,164444.00,4437.5883,N,12402.8933,W,1,09,1.0,41.9,M,-21.8,M,,*6D
2021-08-13T16:44:47.0925263Z, 6cda8203-a249-e411-b0cc-f8bc1246af59, $GPGGA,164446.00,4437.5884,N,12402.8932,W,1,09,1.0,41.8,M,-21.8,M,,*68
2021-08-13T16:44:48.6228260Z, 6cda8203-a249-e411-b0cc-f8bc1246af59, $GPGGA,164447.00,4437.5885,N,12402.8931,W,1,09,1.0,41.7,M,-21.8,M,,*64
2021-08-13T16:44:50.0924260Z, 6cda8203-a249-e411-b0cc-f8bc1246af59, $GPGGA,164449.00,4437.5886,N,12402.8931,W,1,09,1.0,41.5,M,-21.8,M,,*6B
2021-08-13T16:44:51.6227533Z, 6cda8203-a249-e411-b0cc-f8bc1246af59, $GPGGA,164450.00,4437.5887,N,12402.8929,W,1,09,1.0,41.5,M,-21.8,M,,*6B
2021-08-13T16:44:53.0923031Z, 6cda8203-a249-e411-b0cc-f8bc1246af59, $GPGGA,164452.00,4437.5890,N,12402.8931,W,1,09,1.0,41.5,M,-21.8,M,,*66
2021-08-13T16:44:54.6226795Z, 6cda8203-a249-e411-b0cc-f8bc1246af59, $GPGGA,164453.00,4437.5891,N,12402.8932,W,1,09,1.0,41.5,M,-21.8,M,,*65
2021-08-13T16:44:56.0931886Z, 6cda8203-a249-e411-b0cc-f8bc1246af59, $GPGGA,164455.00,4437.5894,N,12402.8930,W,1,09,1.0,41.3,M,-21.8,M,,*62
2021-08-13T16:44:57.6225327Z, 6cda8203-a249-e411-b0cc-f8bc1246af59, $GPGGA,164456.00,4437.5895,N,12402.8931,W,1,09,1.0,41.3,M,-21.8,M,,*61
2021-08-13T16:44:59.0931162Z, 6cda8203-a249-e411-b0cc-f8bc1246af59, $GPGGA,164458.00,4437.5896,N,12402.8933,W,1,09,1.0,41.1,M,-21.8,M,,*6C
2021-08-13T16:45:00.6234070Z, 6cda8203-a249-e411-b0cc-f8bc1246af59, $GPGGA,164459.00,4437.5897,N,12402.8935,W,1,09,1.0,41.1,M,-21.8,M,,*6A
2021-08-13T16:45:02.0930016Z, 6cda8203-a249-e411-b0cc-f8bc1246af59, $GPGGA,164501.00,4437.5899,N,12402.8934,W,1,09,1.0,41.0,M,-21.8,M,,*68
2021-08-13T16:45:03.6233232Z, 6cda8203-a249-e411-b0cc-f8bc1246af59, $GPGGA,164502.00,4437.5899,N,12402.8936,W,1,09,1.0,41.0,M,-21.8,M,,*69
2021-08-13T16:45:05.0929127Z, 6cda8203-a249-e411-b0cc-f8bc1246af59, $GPGGA,164504.00,4437.5897,N,12402.8936,W,1,09,1.0,41.0,M,-21.8,M,,*61
2021-08-13T16:45:06.6232033Z, 6cda8203-a249-e411-b0cc-f8bc1246af59, $GPGGA,164505.00,4437.5896,N,12402.8938,W,1,09,1.0,40.9,M,-21.8,M,,*67
2021-08-13T16:45:08.0937848Z, 6cda8203-a249-e411-b0cc-f8bc1246af59, $GPGGA,164507.00,4437.5893,N,12402.8937,W,1,09,1.0,40.9,M,-21.8,M,,*6F
2021-08-13T16:45:09.6231328Z, 6cda8203-a249-e411-b0cc-f8bc1246af59, $GPGGA,164508.00,4437.5893,N,12402.8935,W,1,09,1.0,40.9,M,-21.8,M,,*62
2021-08-13T16:45:11.0936829Z, 6cda8203-a249-e411-b0cc-f8bc1246af59, $GPGGA,164510.00,4437.5892,N,12402.8932,W,1,09,1.0,41.0,M,-21.8,M,,*65
2021-08-13T16:45:12.6240268Z, 6cda8203-a249-e411-b0cc-f8bc1246af59, $GPGGA,164511.00,4437.5892,N,12402.8933,W,1,09,1.0,41.0,M,-21.8,M,,*65
2021-08-13T16:45:14.0935851Z, 6cda8203-a249-e411-b0cc-f8bc1246af59, $GPGGA,164513.00,4437.5890,N,12402.8935,W,1,09,1.0,41.0,M,-21.8,M,,*63
2021-08-13T16:45:15.6239147Z, 6cda8203-a249-e411-b0cc-f8bc1246af59, $GPGGA,164514.00,4437.5889,N,12402.8934,W,1,09,1.0,41.0,M,-21.8,M,,*6D
2021-08-13T16:45:15.8539173Z, 6cda8203-a249-e411-b0cc-f8bc1246af59, $GPGGA,164515.00,4437.5888,N,12402.8935,W,1,09,1.0,41.1,M,-21.8,M,,*6D
2021-08-13T16:45:17.6440854Z, 6cda8203-a249-e411-b0cc-f8bc1246af59, $GPGGA,164516.00,4437.5889,N,12402.8935,W,1,09,1.0,41.2,M,-21.8,M,,*6C
2021-08-13T16:45:18.6437255Z, 6cda8203-a249-e411-b0cc-f8bc1246af59, $GPGGA,164517.00,4437.5891,N,12402.8934,W,1,09,1.0,41.3,M,-21.8,M,,*64
2021-08-13T16:45:19.5139667Z, 6cda8203-a249-e411-b0cc-f8bc1246af59, $GPGGA,164518.00,4437.5891,N,12402.8935,W,1,09,1.0,41.5,M,-21.8,M,,*6C
2021-08-13T16:45:20.9934560Z, 6cda8203-a249-e411-b0cc-f8bc1246af59, $GPGGA,164519.00,4437.5890,N,12402.8936,W,1,09,1.0,41.6,M,-21.8,M,,*6C
2021-08-13T16:45:22.2738863Z, 6cda8203-a249-e411-b0cc-f8bc1246af59, $GPGGA,164521.00,4437.5889,N,12402.8936,W,1,09,1.0,41.7,M,-21.8,M,,*6E
2021-08-13T16:45:23.7444518Z, 6cda8203-a249-e411-b0cc-f8bc1246af59, $GPGGA,164522.00,4437.5889,N,12402.8935,W,1,09,1.0,41.8,M,-21.8,M,,*61
2021-08-13T16:45:25.0935481Z, 6cda8203-a249-e411-b0cc-f8bc1246af59, $GPGGA,164524.00,4437.5889,N,12402.8934,W,1,09,1.0,42.0,M,-21.8,M,,*6D
2021-08-13T16:45:26.6139197Z, 6cda8203-a249-e411-b0cc-f8bc1246af59, $GPGGA,164525.00,4437.5888,N,12402.8934,W,1,09,1.0,42.0,M,-21.8,M,,*6D
2021-08-13T16:45:28.0944245Z, 6cda8203-a249-e411-b0cc-f8bc1246af59, $GPGGA,164527.00,4437.5888,N,12402.8936,W,1,09,1.0,42.2,M,-21.8,M,,*6F
2021-08-13T16:45:29.6237591Z, 6cda8203-a249-e411-b0cc-f8bc1246af59, $GPGGA,164528.00,4437.5888,N,12402.8937,W,1,09,1.0,42.2,M,-21.8,M,,*61
2021-08-13T16:45:31.0943438Z, 6cda8203-a249-e411-b0cc-f8bc1246af59, $GPGGA,164530.00,4437.5888,N,12402.8936,W,1,09,1.0,42.2,M,-21.8,M,,*69
2021-08-13T16:45:32.6147093Z, 6cda8203-a249-e411-b0cc-f8bc1246af59, $GPGGA,164531.00,4437.5886,N,12402.8936,W,1,09,1.0,42.2,M,-21.8,M,,*66
2021-08-13T16:45:34.0942411Z, 6cda8203-a249-e411-b0cc-f8bc1246af59, $GPGGA,164533.00,4437.5887,N,12402.8935,W,1,09,1.0,42.4,M,-21.8,M,,*60
2021-08-13T16:45:35.6146265Z, 6cda8203-a249-e411-b0cc-f8bc1246af59, $GPGGA,164534.00,4437.5887,N,12402.8935,W,1,09,1.0,42.5,M,-21.8,M,,*66
2021-08-13T16:45:37.0941332Z, 6cda8203-a249-e411-b0cc-f8bc1246af59, $GPGGA,164536.00,4437.5884,N,12402.8935,W,1,09,1.0,42.5,M,-21.8,M,,*67
2021-08-13T16:45:38.6145072Z, 6cda8203-a249-e411-b0cc-f8bc1246af59, $GPGGA,164537.00,4437.5879,N,12402.8935,W,1,09,1.0,42.6,M,-21.8,M,,*67
2021-08-13T16:45:40.0850954Z, 6cda8203-a249-e411-b0cc-f8bc1246af59, $GPGGA,164539.00,4437.5876,N,12402.8936,W,1,09,1.0,42.7,M,-21.8,M,,*64
2021-08-13T16:45:41.6144046Z, 6cda8203-a249-e411-b0cc-f8bc1246af59, $GPGGA,164540.00,4437.5876,N,12402.8934,W,1,09,1.0,42.7,M,-21.8,M,,*68
2021-08-13T16:45:43.0949844Z, 6cda8203-a249-e411-b0cc-f8bc1246af59, $GPGGA,164542.00,4437.5875,N,12402.8934,W,1,09,1.0,42.7,M,-21.8,M,,*69
2021-08-13T16:45:44.6144465Z, 6cda8203-a249-e411-b0cc-f8bc1246af59, $GPGGA,164543.00,4437.5875,N,12402.8934,W,1,09,1.0,42.7,M,-21.8,M,,*68
2021-08-13T16:45:46.0949740Z, 6cda8203-a249-e411-b0cc-f8bc1246af59, $GPGGA,164545.00,4437.5877,N,12402.8936,W,1,09,1.0,42.6,M,-21.8,M,,*6F
2021-08-13T16:45:47.6153455Z, 6cda8203-a249-e411-b0cc-f8bc1246af59, $GPGGA,164546.00,4437.5878,N,12402.8935,W,1,09,1.0,42.6,M,-21.8,M,,*60
2021-08-13T16:45:49.0948640Z, 6cda8203-a249-e411-b0cc-f8bc1246af59, $GPGGA,164548.00,4437.5878,N,12402.8937,W,1,09,1.0,42.5,M,-21.8,M,,*6F
2021-08-13T16:45:50.6153218Z, 6cda8203-a249-e411-b0cc-f8bc1246af59, $GPGGA,164549.00,4437.5876,N,12402.8939,W,1,09,1.0,42.5,M,-21.8,M,,*6E
2021-08-13T16:45:52.0948635Z, 6cda8203-a249-e411-b0cc-f8bc1246af59, $GPGGA,164551.00,4437.5873,N,12402.8943,W,1,09,1.0,42.8,M,-21.8,M,,*62
2021-08-13T16:45:53.6152397Z, 6cda8203-a249-e411-b0cc-f8bc1246af59, $GPGGA,164552.00,4437.5870,N,12402.8942,W,1,09,1.0,42.7,M,-21.8,M,,*6C
2021-08-13T16:45:55.0947542Z, 6cda8203-a249-e411-b0cc-f8bc1246af59, $GPGGA,164554.00,4437.5871,N,12402.8944,W,1,09,1.0,42.7,M,-21.8,M,,*6D
2021-08-13T16:45:56.6151408Z, 6cda8203-a249-e411-b0cc-f8bc1246af59, $GPGGA,164555.00,4437.5873,N,12402.8945,W,1,09,1.0,42.7,M,-21.8,M,,*6F
2021-08-13T16:45:58.0857018Z, 6cda8203-a249-e411-b0cc-f8bc1246af59, $GPGGA,164557.00,4437.5870,N,12402.8947,W,1,09,1.0,42.2,M,-21.8,M,,*69
2021-08-13T16:45:59.6150297Z, 6cda8203-a249-e411-b0cc-f8bc1246af59, $GPGGA,164558.00,4437.5869,N,12402.8948,W,1,09,1.0,42.0,M,-21.8,M,,*63
2021-08-13T16:46:01.0856335Z, 6cda8203-a249-e411-b0cc-f8bc1246af59, $GPGGA,164600.00,4437.5869,N,12402.8950,W,1,09,1.0,41.8,M,-21.8,M,,*6F
2021-08-13T16:46:02.6159164Z, 6cda8203-a249-e411-b0cc-f8bc1246af59, $GPGGA,164601.00,4437.5872,N,12402.8947,W,1,09,1.0,41.3,M,-21.8,M,,*69
2021-08-13T16:46:04.0954457Z, 6cda8203-a249-e411-b0cc-f8bc1246af59, $GPGGA,164603.00,4437.5871,N,12402.8950,W,1,09,1.0,41.1,M,-21.8,M,,*6C
2021-08-13T16:46:05.6158156Z, 6cda8203-a249-e411-b0cc-f8bc1246af59, $GPGGA,164604.00,4437.5870,N,12402.8950,W,1,08,1.0,41.0,M,-21.8,M,,*6A
2021-08-13T16:46:07.0953610Z, 6cda8203-a249-e411-b0cc-f8bc1246af59, $GPGGA,164606.00,4437.5870,N,12402.8952,W,1,09,1.0,40.9,M,-21.8,M,,*63
2021-08-13T16:46:08.6157104Z, 6cda8203-a249-e411-b0cc-f8bc1246af59, $GPGGA,164607.00,4437.5870,N,12402.8951,W,1,09,1.0,40.9,M,-21.8,M,,*61
2021-08-13T16:46:10.0962234Z, 6cda8203-a249-e411-b0cc-f8bc1246af59, $GPGGA,164609.00,4437.5871,N,12402.8951,W,1,08,1.0,40.7,M,-21.8,M,,*61
2021-08-13T16:46:11.6156352Z, 6cda8203-a249-e411-b0cc-f8bc1246af59, $GPGGA,164610.00,4437.5870,N,12402.8951,W,1,09,1.0,40.7,M,-21.8,M,,*69
2021-08-13T16:46:13.0861830Z, 6cda8203-a249-e411-b0cc-f8bc1246af59, $GPGGA,164612.00,4437.5868,N,12402.8950,W,1,09,1.0,40.7,M,-21.8,M,,*63
2021-08-13T16:46:14.6155351Z, 6cda8203-a249-e411-b0cc-f8bc1246af59, $GPGGA,164613.00,4437.5867,N,12402.8951,W,1,09,1.0,40.6,M,-21.8,M,,*6D
2021-08-13T16:46:16.0862293Z, 6cda8203-a249-e411-b0cc-f8bc1246af59, $GPGGA,164615.00,4437.5866,N,12402.8952,W,1,09,1.0,40.6,M,-21.8,M,,*69
2021-08-13T16:46:17.6155471Z, 6cda8203-a249-e411-b0cc-f8bc1246af59, $GPGGA,164616.00,4437.5866,N,12402.8952,W,1,09,1.0,40.5,M,-21.8,M,,*69
2021-08-13T16:46:19.0861436Z, 6cda8203-a249-e411-b0cc-f8bc1246af59, $GPGGA,164618.00,4437.5866,N,12402.8953,W,1,09,1.0,40.5,M,-21.8,M,,*66
2021-08-13T16:46:20.6164456Z, 6cda8203-a249-e411-b0cc-f8bc1246af59, $GPGGA,164619.00,4437.5865,N,12402.8952,W,1,09,1.0,40.4,M,-21.8,M,,*64
2021-08-13T16:46:22.0959926Z, 6cda8203-a249-e411-b0cc-f8bc1246af59, $GPGGA,164621.00,4437.5864,N,12402.8952,W,1,09,1.0,40.3,M,-21.8,M,,*69
2021-08-13T16:46:23.6163529Z, 6cda8203-a249-e411-b0cc-f8bc1246af59, $GPGGA,164622.00,4437.5864,N,12402.8951,W,1,09,1.0,40.3,M,-21.8,M,,*69
2021-08-13T16:46:25.0906383Z, 6cda8203-a249-e411-b0cc-f8bc1246af59, $GPGGA,164624.00,4437.5865,N,12402.8951,W,1,09,1.0,40.3,M,-21.8,M,,*6E
2021-08-13T16:46:26.6162561Z, 6cda8203-a249-e411-b0cc-f8bc1246af59, $GPGGA,164625.00,4437.5867,N,12402.8951,W,1,09,1.0,40.3,M,-21.8,M,,*6D
2021-08-13T16:46:28.0868148Z, 6cda8203-a249-e411-b0cc-f8bc1246af59, $GPGGA,164627.00,4437.5868,N,12402.8946,W,1,09,1.0,40.2,M,-21.8,M,,*67
2021-08-13T16:46:29.6163461Z, 6cda8203-a249-e411-b0cc-f8bc1246af59, $GPGGA,164628.00,4437.5867,N,12402.8943,W,1,09,1.0,40.2,M,-21.8,M,,*62
2021-08-13T16:46:31.0870243Z, 6cda8203-a249-e411-b0cc-f8bc1246af59, $GPGGA,164630.00,4437.5874,N,12402.8932,W,1,09,1.0,39.7,M,-21.8,M,,*64
2021-08-13T16:46:32.6163446Z, 6cda8203-a249-e411-b0cc-f8bc1246af59, $GPGGA,164631.00,4437.5875,N,12402.8928,W,1,09,1.0,39.7,M,-21.8,M,,*6F
2021-08-13T16:46:34.0869059Z, 6cda8203-a249-e411-b0cc-f8bc1246af59, $GPGGA,164633.00,4437.5875,N,12402.8924,W,1,09,1.0,39.5,M,-21.8,M,,*63
2021-08-13T16:46:35.6172329Z, 6cda8203-a249-e411-b0cc-f8bc1246af59, $GPGGA,164634.00,4437.5874,N,12402.8921,W,1,08,1.0,39.6,M,-21.8,M,,*62
2021-08-13T16:46:37.0868238Z, 6cda8203-a249-e411-b0cc-f8bc1246af59, $GPGGA,164636.00,4437.5873,N,12402.8916,W,1,09,1.0,39.4,M,-21.8,M,,*60
2021-08-13T16:46:38.6171177Z, 6cda8203-a249-e411-b0cc-f8bc1246af59, $GPGGA,164637.00,4437.5874,N,12402.8913,W,1,08,1.0,39.3,M,-21.8,M,,*65
2021-08-13T16:46:40.0867757Z, 6cda8203-a249-e411-b0cc-f8bc1246af59, $GPGGA,164639.00,4437.5873,N,12402.8908,W,1,09,1.0,39.1,M,-21.8,M,,*65
2021-08-13T16:46:41.6170661Z, 6cda8203-a249-e411-b0cc-f8bc1246af59, $GPGGA,164640.00,4437.5873,N,12402.8906,W,1,09,1.0,38.8,M,-21.8,M,,*6D
2021-08-13T16:46:43.0965821Z, 6cda8203-a249-e411-b0cc-f8bc1246af59, $GPGGA,164642.00,4437.5874,N,12402.8902,W,1,09,1.0,38.4,M,-21.8,M,,*60
2021-08-13T16:46:44.6169715Z, 6cda8203-a249-e411-b0cc-f8bc1246af59, $GPGGA,164643.00,4437.5874,N,12402.8902,W,1,09,1.0,38.3,M,-21.8,M,,*66
2021-08-13T16:46:46.0875379Z, 6cda8203-a249-e411-b0cc-f8bc1246af59, $GPGGA,164645.00,4437.5873,N,12402.8898,W,1,09,1.0,38.2,M,-21.8,M,,*64
2021-08-13T16:46:47.6168729Z, 6cda8203-a249-e411-b0cc-f8bc1246af59, $GPGGA,164646.00,4437.5872,N,12402.8897,W,1,09,1.0,38.1,M,-21.8,M,,*6A
2021-08-13T16:46:49.0874712Z, 6cda8203-a249-e411-b0cc-f8bc1246af59, $GPGGA,164648.00,4437.5871,N,12402.8895,W,1,09,1.0,38.3,M,-21.8,M,,*67
2021-08-13T16:46:50.6177570Z, 6cda8203-a249-e411-b0cc-f8bc1246af59, $GPGGA,164649.00,4437.5873,N,12402.8894,W,1,09,1.0,38.4,M,-21.8,M,,*62
2021-08-13T16:46:52.0873432Z, 6cda8203-a249-e411-b0cc-f8bc1246af59, $GPGGA,164651.00,4437.5877,N,12402.8898,W,1,09,1.0,38.9,M,-21.8,M,,*6E
2021-08-13T16:46:53.6176508Z, 6cda8203-a249-e411-b0cc-f8bc1246af59, $GPGGA,164652.00,4437.5878,N,12402.8897,W,1,09,1.0,39.0,M,-21.8,M,,*65
2021-08-13T16:46:55.0872595Z, 6cda8203-a249-e411-b0cc-f8bc1246af59, $GPGGA,164654.00,4437.5877,N,12402.8899,W,1,09,1.0,39.1,M,-21.8,M,,*63
2021-08-13T16:46:56.6175452Z, 6cda8203-a249-e411-b0cc-f8bc1246af59, $GPGGA,164655.00,4437.5877,N,12402.8902,W,1,09,1.0,39.1,M,-21.8,M,,*61
2021-08-13T16:46:58.0980686Z, 6cda8203-a249-e411-b0cc-f8bc1246af59, $GPGGA,164657.00,4437.5878,N,12402.8905,W,1,09,1.0,39.2,M,-21.8,M,,*68
2021-08-13T16:46:59.6174510Z, 6cda8203-a249-e411-b0cc-f8bc1246af59, $GPGGA,164658.00,4437.5879,N,12402.8908,W,1,09,1.0,39.3,M,-21.8,M,,*6A
2021-08-13T16:47:01.0881694Z, 6cda8203-a249-e411-b0cc-f8bc1246af59, $GPGGA,164700.00,4437.5880,N,12402.8909,W,1,09,1.0,39.5,M,-21.8,M,,*67
2021-08-13T16:47:02.6175063Z, 6cda8203-a249-e411-b0cc-f8bc1246af59, $GPGGA,164701.00,4437.5878,N,12402.8911,W,1,09,1.0,39.5,M,-21.8,M,,*68
2021-08-13T16:47:04.0880545Z, 6cda8203-a249-e411-b0cc-f8bc1246af59, $GPGGA,164703.00,4437.5878,N,12402.8914,W,1,09,1.0,39.5,M,-21.8,M,,*6F
2021-08-13T16:47:05.6183864Z, 6cda8203-a249-e411-b0cc-f8bc1246af59, $GPGGA,164704.00,4437.5878,N,12402.8913,W,1,09,1.0,39.4,M,-21.8,M,,*6E
2021-08-13T16:47:07.0879727Z, 6cda8203-a249-e411-b0cc-f8bc1246af59, $GPGGA,164706.00,4437.5879,N,12402.8911,W,1,09,1.0,39.4,M,-21.8,M,,*6F
2021-08-13T16:47:08.6182712Z, 6cda8203-a249-e411-b0cc-f8bc1246af59, $GPGGA,164707.00,4437.5879,N,12402.8909,W,1,09,1.0,39.4,M,-21.8,M,,*67
2021-08-13T16:47:10.0878873Z, 6cda8203-a249-e411-b0cc-f8bc1246af59, $GPGGA,164709.00,4437.5879,N,12402.8903,W,1,09,1.0,39.3,M,-21.8,M,,*64
2021-08-13T16:47:11.6181957Z, 6cda8203-a249-e411-b0cc-f8bc1246af59, $GPGGA,164710.00,4437.5879,N,12402.8902,W,1,09,1.0,39.3,M,-21.8,M,,*6D
2021-08-13T16:47:13.0877812Z, 6cda8203-a249-e411-b0cc-f8bc1246af59, $GPGGA,164712.00,4437.5880,N,12402.8899,W,1,09,1.0,39.2,M,-21.8,M,,*6B
2021-08-13T16:47:14.6180734Z, 6cda8203-a249-e411-b0cc-f8bc1246af59, $GPGGA,164713.00,4437.5878,N,12402.8897,W,1,09,1.0,39.1,M,-21.8,M,,*60
2021-08-13T16:47:16.0886475Z, 6cda8203-a249-e411-b0cc-f8bc1246af59, $GPGGA,164715.00,4437.5876,N,12402.8894,W,1,09,1.0,39.0,M,-21.8,M,,*6A
2021-08-13T16:47:17.6179900Z, 6cda8203-a249-e411-b0cc-f8bc1246af59, $GPGGA,164716.00,4437.5874,N,12402.8895,W,1,09,1.0,38.9,M,-21.8,M,,*62
2021-08-13T16:47:19.0985097Z, 6cda8203-a249-e411-b0cc-f8bc1246af59, $GPGGA,164718.00,4437.5874,N,12402.8897,W,1,09,1.0,38.6,M,-21.8,M,,*61
2021-08-13T16:47:20.6188672Z, 6cda8203-a249-e411-b0cc-f8bc1246af59, $GPGGA,164719.00,4437.5871,N,12402.8896,W,1,09,1.0,38.6,M,-21.8,M,,*64
2021-08-13T16:47:21.1485471Z, 6cda8203-a249-e411-b0cc-f8bc1246af59, $GPGGA,164720.00,4437.5868,N,12402.8894,W,1,09,1.0,38.5,M,-21.8,M,,*67
2021-08-13T16:47:22.6489990Z, 6cda8203-a249-e411-b0cc-f8bc1246af59, $GPGGA,164721.00,4437.5867,N,12402.8894,W,1,09,1.0,38.5,M,-21.8,M,,*69
2021-08-13T16:47:23.8985624Z, 6cda8203-a249-e411-b0cc-f8bc1246af59, $GPGGA,164722.00,4437.5862,N,12402.8894,W,1,09,1.0,37.9,M,-21.8,M,,*6C
2021-08-13T16:47:24.5188251Z, 6cda8203-a249-e411-b0cc-f8bc1246af59, $GPGGA,164723.00,4437.5860,N,12402.8894,W,1,09,1.0,37.8,M,-21.8,M,,*6E
2021-08-13T16:47:25.9884360Z, 6cda8203-a249-e411-b0cc-f8bc1246af59, $GPGGA,164724.00,4437.5861,N,12402.8898,W,1,09,1.0,37.8,M,-21.8,M,,*64
2021-08-13T16:47:27.2787949Z, 6cda8203-a249-e411-b0cc-f8bc1246af59, $GPGGA,164726.00,4437.5862,N,12402.8897,W,1,09,1.0,37.6,M,-21.8,M,,*64
2021-08-13T16:47:28.7483723Z, 6cda8203-a249-e411-b0cc-f8bc1246af59, $GPGGA,164727.00,4437.5862,N,12402.8897,W,1,09,1.0,37.6,M,-21.8,M,,*65
2021-08-13T16:47:30.0885163Z, 6cda8203-a249-e411-b0cc-f8bc1246af59, $GPGGA,164729.00,4437.5861,N,12402.8897,W,1,09,1.0,37.4,M,-21.8,M,,*6A
2021-08-13T16:47:31.6188207Z, 6cda8203-a249-e411-b0cc-f8bc1246af59, $GPGGA,164730.00,4437.5859,N,12402.8897,W,1,09,1.0,37.2,M,-21.8,M,,*6F
2021-08-13T16:47:33.0894013Z, 6cda8203-a249-e411-b0cc-f8bc1246af59, $GPGGA,164732.00,4437.5858,N,12402.8902,W,1,09,1.0,37.1,M,-21.8,M,,*62
2021-08-13T16:47:34.6187199Z, 6cda8203-a249-e411-b0cc-f8bc1246af59, $GPGGA,164733.00,4437.5858,N,12402.8905,W,1,09,1.0,37.0,M,-21.8,M,,*65
2021-08-13T16:47:36.0885668Z, 6cda8203-a249-e411-b0cc-f8bc1246af59, $GPGGA,164735.00,4437.5856,N,12402.8910,W,1,08,1.0,36.9,M,-21.8,M,,*60
2021-08-13T16:47:37.6189019Z, 6cda8203-a249-e411-b0cc-f8bc1246af59, $GPGGA,164736.00,4437.5857,N,12402.8913,W,1,09,1.0,36.9,M,-21.8,M,,*60
2021-08-13T16:47:39.0894568Z, 6cda8203-a249-e411-b0cc-f8bc1246af59, $GPGGA,164738.00,4437.5857,N,12402.8917,W,1,09,1.0,36.8,M,-21.8,M,,*6B
2021-08-13T16:47:40.6187872Z, 6cda8203-a249-e411-b0cc-f8bc1246af59, $GPGGA,164739.00,4437.5859,N,12402.8918,W,1,09,1.0,36.9,M,-21.8,M,,*6A
2021-08-13T16:47:42.0893885Z, 6cda8203-a249-e411-b0cc-f8bc1246af59, $GPGGA,164741.00,4437.5861,N,12402.8922,W,1,09,1.0,36.9,M,-21.8,M,,*67
2021-08-13T16:47:43.6196653Z, 6cda8203-a249-e411-b0cc-f8bc1246af59, $GPGGA,164742.00,4437.5860,N,12402.8921,W,1,09,1.0,36.9,M,-21.8,M,,*66
2021-08-13T16:47:45.0892680Z, 6cda8203-a249-e411-b0cc-f8bc1246af59, $GPGGA,164744.00,4437.5859,N,12402.8921,W,1,09,1.0,36.9,M,-21.8,M,,*6A
2021-08-13T16:47:46.6195861Z, 6cda8203-a249-e411-b0cc-f8bc1246af59, $GPGGA,164745.00,4437.5859,N,12402.8922,W,1,09,1.0,36.9,M,-21.8,M,,*68
2021-08-13T16:47:48.0891855Z, 6cda8203-a249-e411-b0cc-f8bc1246af59, $GPGGA,164747.00,4437.5859,N,12402.8926,W,1,09,1.0,36.8,M,-21.8,M,,*6F
2021-08-13T16:47:49.6194653Z, 6cda8203-a249-e411-b0cc-f8bc1246af59, $GPGGA,164748.00,4437.5859,N,12402.8928,W,1,09,1.0,36.8,M,-21.8,M,,*6E
2021-08-13T16:47:51.0900589Z, 6cda8203-a249-e411-b0cc-f8bc1246af59, $GPGGA,164750.00,4437.5861,N,12402.8934,W,1,09,1.0,36.7,M,-21.8,M,,*6E
2021-08-13T16:47:52.6193627Z, 6cda8203-a249-e411-b0cc-f8bc1246af59, $GPGGA,164751.00,4437.5861,N,12402.8937,W,1,09,1.0,36.7,M,-21.8,M,,*6C
2021-08-13T16:47:54.0899590Z, 6cda8203-a249-e411-b0cc-f8bc1246af59, $GPGGA,164753.00,4437.5862,N,12402.8938,W,1,09,1.0,36.7,M,-21.8,M,,*62
2021-08-13T16:47:55.6202663Z, 6cda8203-a249-e411-b0cc-f8bc1246af59, $GPGGA,164754.00,4437.5861,N,12402.8938,W,1,09,1.0,36.7,M,-21.8,M,,*66
2021-08-13T16:47:57.0901292Z, 6cda8203-a249-e411-b0cc-f8bc1246af59, $GPGGA,164756.00,4437.5862,N,12402.8937,W,1,09,1.0,36.7,M,-21.8,M,,*68
2021-08-13T16:47:58.6194447Z, 6cda8203-a249-e411-b0cc-f8bc1246af59, $GPGGA,164757.00,4437.5862,N,12402.8937,W,1,09,1.0,36.6,M,-21.8,M,,*68
2021-08-13T16:48:00.0900565Z, 6cda8203-a249-e411-b0cc-f8bc1246af59, $GPGGA,164759.00,4437.5860,N,12402.8936,W,1,09,1.0,36.7,M,-21.8,M,,*64
2021-08-13T16:48:01.6204093Z, 6cda8203-a249-e411-b0cc-f8bc1246af59, $GPGGA,164800.00,4437.5860,N,12402.8935,W,1,09,1.0,36.7,M,-21.8,M,,*64
2021-08-13T16:48:03.0900096Z, 6cda8203-a249-e411-b0cc-f8bc1246af59, $GPGGA,164802.00,4437.5858,N,12402.8934,W,1,09,1.0,36.8,M,-21.8,M,,*63
2021-08-13T16:48:04.6203119Z, 6cda8203-a249-e411-b0cc-f8bc1246af59, $GPGGA,164803.00,4437.5858,N,12402.8936,W,1,09,1.0,36.8,M,-21.8,M,,*60
2021-08-13T16:48:06.0899975Z, 6cda8203-a249-e411-b0cc-f8bc1246af59, $GPGGA,164805.00,4437.5857,N,12402.8939,W,1,09,1.0,36.8,M,-21.8,M,,*66
2021-08-13T16:48:07.6202851Z, 6cda8203-a249-e411-b0cc-f8bc1246af59, $GPGGA,164806.00,4437.5856,N,12402.8940,W,1,09,1.0,36.8,M,-21.8,M,,*6A
2021-08-13T16:48:09.0898730Z, 6cda8203-a249-e411-b0cc-f8bc1246af59, $GPGGA,164808.00,4437.5854,N,12402.8939,W,1,09,1.0,36.7,M,-21.8,M,,*67
2021-08-13T16:48:10.6202041Z, 6cda8203-a249-e411-b0cc-f8bc1246af59, $GPGGA,164809.00,4437.5852,N,12402.8941,W,1,09,1.0,36.7,M,-21.8,M,,*6F
2021-08-13T16:48:12.0907660Z, 6cda8203-a249-e411-b0cc-f8bc1246af59, $GPGGA,164811.00,4437.5847,N,12402.8946,W,1,09,1.0,36.7,M,-21.8,M,,*65
2021-08-13T16:48:13.6200838Z, 6cda8203-a249-e411-b0cc-f8bc1246af59, $GPGGA,164812.00,4437.5846,N,12402.8949,W,1,09,1.0,36.7,M,-21.8,M,,*68
2021-08-13T16:48:15.0906872Z, 6cda8203-a249-e411-b0cc-f8bc1246af59, $GPGGA,164814.00,4437.5845,N,12402.8949,W,1,09,1.0,36.8,M,-21.8,M,,*62
2021-08-13T16:48:16.6210650Z, 6cda8203-a249-e411-b0cc-f8bc1246af59, $GPGGA,164815.00,4437.5844,N,12402.8951,W,1,09,1.0,36.8,M,-21.8,M,,*6B
2021-08-13T16:48:18.0906444Z, 6cda8203-a249-e411-b0cc-f8bc1246af59, $GPGGA,164817.00,4437.5841,N,12402.8954,W,1,09,1.0,36.7,M,-21.8,M,,*66
2021-08-13T16:48:19.6209426Z, 6cda8203-a249-e411-b0cc-f8bc1246af59, $GPGGA,164818.00,4437.5841,N,12402.8956,W,1,09,1.0,36.7,M,-21.8,M,,*6B
2021-08-13T16:48:21.0905587Z, 6cda8203-a249-e411-b0cc-f8bc1246af59, $GPGGA,164820.00,4437.5841,N,12402.8961,W,1,09,1.0,37.0,M,-21.8,M,,*62
2021-08-13T16:48:22.6208462Z, 6cda8203-a249-e411-b0cc-f8bc1246af59, $GPGGA,164821.00,4437.5839,N,12402.8963,W,1,09,1.0,37.1,M,-21.8,M,,*6F
2021-08-13T16:48:24.0908031Z, 6cda8203-a249-e411-b0cc-f8bc1246af59, $GPGGA,164823.00,4437.5838,N,12402.8963,W,1,09,1.0,37.0,M,-21.8,M,,*6D
2021-08-13T16:48:25.6211086Z, 6cda8203-a249-e411-b0cc-f8bc1246af59, $GPGGA,164824.00,4437.5838,N,12402.8962,W,1,09,1.0,37.0,M,-21.8,M,,*6B
2021-08-13T16:48:27.0907096Z, 6cda8203-a249-e411-b0cc-f8bc1246af59, $GPGGA,164826.00,4437.5835,N,12402.8961,W,1,09,1.0,37.1,M,-21.8,M,,*66
2021-08-13T16:48:28.6210008Z, 6cda8203-a249-e411-b0cc-f8bc1246af59, $GPGGA,164827.00,4437.5833,N,12402.8961,W,1,09,1.0,37.2,M,-21.8,M,,*62
2021-08-13T16:48:30.0915903Z, 6cda8203-a249-e411-b0cc-f8bc1246af59, $GPGGA,164829.00,4437.5829,N,12402.8963,W,1,09,1.0,37.0,M,-21.8,M,,*67
2021-08-13T16:48:31.6209163Z, 6cda8203-a249-e411-b0cc-f8bc1246af59, $GPGGA,164830.00,4437.5828,N,12402.8964,W,1,09,1.0,36.9,M,-21.8,M,,*61
2021-08-13T16:48:33.0914724Z, 6cda8203-a249-e411-b0cc-f8bc1246af59, $GPGGA,164832.00,4437.5826,N,12402.8962,W,1,09,1.0,36.6,M,-21.8,M,,*64
2021-08-13T16:48:34.6218039Z, 6cda8203-a249-e411-b0cc-f8bc1246af59, $GPGGA,164833.00,4437.5826,N,12402.8961,W,1,09,1.0,36.5,M,-21.8,M,,*65
2021-08-13T16:48:36.0913904Z, 6cda8203-a249-e411-b0cc-f8bc1246af59, $GPGGA,164835.00,4437.5824,N,12402.8962,W,1,09,1.0,36.1,M,-21.8,M,,*66
2021-08-13T16:48:37.6216845Z, 6cda8203-a249-e411-b0cc-f8bc1246af59, $GPGGA,164836.00,4437.5823,N,12402.8963,W,1,09,1.0,36.0,M,-21.8,M,,*62
2021-08-13T16:48:39.0913015Z, 6cda8203-a249-e411-b0cc-f8bc1246af59, $GPGGA,164838.00,4437.5824,N,12402.8960,W,1,09,1.0,35.7,M,-21.8,M,,*6C
2021-08-13T16:48:40.6216053Z, 6cda8203-a249-e411-b0cc-f8bc1246af59, $GPGGA,164839.00,4437.5827,N,12402.8961,W,1,08,1.0,35.6,M,-21.8,M,,*6F
2021-08-13T16:48:42.0911856Z, 6cda8203-a249-e411-b0cc-f8bc1246af59, $GPGGA,164841.00,4437.5826,N,12402.8960,W,1,09,1.0,35.6,M,-21.8,M,,*61
2021-08-13T16:48:43.6215421Z, 6cda8203-a249-e411-b0cc-f8bc1246af59, $GPGGA,164842.00,4437.5826,N,12402.8961,W,1,09,1.0,35.6,M,-21.8,M,,*63
2021-08-13T16:48:45.0921799Z, 6cda8203-a249-e411-b0cc-f8bc1246af59, $GPGGA,164844.00,4437.5825,N,12402.8960,W,1,09,1.0,35.6,M,-21.8,M,,*67
2021-08-13T16:48:46.6217144Z, 6cda8203-a249-e411-b0cc-f8bc1246af59, $GPGGA,164845.00,4437.5825,N,12402.8960,W,1,09,1.0,35.6,M,-21.8,M,,*66
2021-08-13T16:48:48.0922971Z, 6cda8203-a249-e411-b0cc-f8bc1246af59, $GPGGA,164847.00,4437.5824,N,12402.8958,W,1,09,1.0,35.5,M,-21.8,M,,*6D
2021-08-13T16:48:49.6216193Z, 6cda8203-a249-e411-b0cc-f8bc1246af59, $GPGGA,164848.00,4437.5824,N,12402.8957,W,1,09,1.0,35.5,M,-21.8,M,,*6D
2021-08-13T16:48:51.0921935Z, 6cda8203-a249-e411-b0cc-f8bc1246af59, $GPGGA,164850.00,4437.5823,N,12402.8956,W,1,09,1.0,35.5,M,-21.8,M,,*62
2021-08-13T16:48:52.6214946Z, 6cda8203-a249-e411-b0cc-f8bc1246af59, $GPGGA,164851.00,4437.5822,N,12402.8955,W,1,09,1.0,35.5,M,-21.8,M,,*61
2021-08-13T16:48:54.0921023Z, 6cda8203-a249-e411-b0cc-f8bc1246af59, $GPGGA,164853.00,4437.5822,N,12402.8953,W,1,09,1.0,35.5,M,-21.8,M,,*65
2021-08-13T16:48:55.6223930Z, 6cda8203-a249-e411-b0cc-f8bc1246af59, $GPGGA,164854.00,4437.5821,N,12402.8952,W,1,09,1.0,35.5,M,-21.8,M,,*60
2021-08-13T16:48:57.0920130Z, 6cda8203-a249-e411-b0cc-f8bc1246af59, $GPGGA,164856.00,4437.5820,N,12402.8950,W,1,09,1.0,35.5,M,-21.8,M,,*61
2021-08-13T16:48:58.6223052Z, 6cda8203-a249-e411-b0cc-f8bc1246af59, $GPGGA,164857.00,4437.5820,N,12402.8949,W,1,09,1.0,35.5,M,-21.8,M,,*68
2021-08-13T16:49:00.0920621Z, 6cda8203-a249-e411-b0cc-f8bc1246af59, $GPGGA,164859.00,4437.5820,N,12402.8947,W,1,09,1.0,35.5,M,-21.8,M,,*68
2021-08-13T16:49:01.6223738Z, 6cda8203-a249-e411-b0cc-f8bc1246af59, $GPGGA,164900.00,4437.5820,N,12402.8946,W,1,09,1.0,35.5,M,-21.8,M,,*64
2021-08-13T16:49:03.0919563Z, 6cda8203-a249-e411-b0cc-f8bc1246af59, $GPGGA,164902.00,4437.5828,N,12402.8931,W,1,09,1.0,35.3,M,-21.8,M,,*68
2021-08-13T16:49:04.6223086Z, 6cda8203-a249-e411-b0cc-f8bc1246af59, $GPGGA,164903.00,4437.5834,N,12402.8916,W,1,09,1.0,35.4,M,-21.8,M,,*66
2021-08-13T16:49:06.0929039Z, 6cda8203-a249-e411-b0cc-f8bc1246af59, $GPGGA,164905.00,4437.5835,N,12402.8918,W,1,09,1.0,35.3,M,-21.8,M,,*68
2021-08-13T16:49:07.6223280Z, 6cda8203-a249-e411-b0cc-f8bc1246af59, $GPGGA,164906.00,4437.5835,N,12402.8919,W,1,09,1.0,35.1,M,-21.8,M,,*68
2021-08-13T16:49:09.0928945Z, 6cda8203-a249-e411-b0cc-f8bc1246af59, $GPGGA,164908.00,4437.5836,N,12402.8920,W,1,09,1.0,34.9,M,-21.8,M,,*66
2021-08-13T16:49:10.6223585Z, 6cda8203-a249-e411-b0cc-f8bc1246af59, $GPGGA,164909.00,4437.5838,N,12402.8921,W,1,09,1.0,35.0,M,-21.8,M,,*60
2021-08-13T16:49:12.0929472Z, 6cda8203-a249-e411-b0cc-f8bc1246af59, $GPGGA,164911.00,4437.5839,N,12402.8920,W,1,09,1.0,35.1,M,-21.8,M,,*68
2021-08-13T16:49:13.6223068Z, 6cda8203-a249-e411-b0cc-f8bc1246af59, $GPGGA,164912.00,4437.5840,N,12402.8918,W,1,09,1.0,35.0,M,-21.8,M,,*6F
2021-08-13T16:49:15.0929084Z, 6cda8203-a249-e411-b0cc-f8bc1246af59, $GPGGA,164914.00,4437.5841,N,12402.8913,W,1,09,1.0,34.7,M,-21.8,M,,*65
2021-08-13T16:49:16.6232134Z, 6cda8203-a249-e411-b0cc-f8bc1246af59, $GPGGA,164915.00,4437.5841,N,12402.8910,W,1,09,1.0,34.6,M,-21.8,M,,*66
2021-08-13T16:49:18.0928161Z, 6cda8203-a249-e411-b0cc-f8bc1246af59, $GPGGA,164917.00,4437.5840,N,12402.8908,W,1,09,1.0,34.4,M,-21.8,M,,*6E
2021-08-13T16:49:19.6231215Z, 6cda8203-a249-e411-b0cc-f8bc1246af59, $GPGGA,164918.00,4437.5840,N,12402.8907,W,1,09,1.0,34.4,M,-21.8,M,,*6E
2021-08-13T16:49:21.0927148Z, 6cda8203-a249-e411-b0cc-f8bc1246af59, $GPGGA,164920.00,4437.5841,N,12402.8906,W,1,09,1.0,34.3,M,-21.8,M,,*62
2021-08-13T16:49:22.6231193Z, 6cda8203-a249-e411-b0cc-f8bc1246af59, $GPGGA,164921.00,4437.5842,N,12402.8905,W,1,09,1.0,34.4,M,-21.8,M,,*64
2021-08-13T16:49:24.0927697Z, 6cda8203-a249-e411-b0cc-f8bc1246af59, $GPGGA,164923.00,4437.5843,N,12402.8902,W,1,09,1.0,34.5,M,-21.8,M,,*61
2021-08-13T16:49:25.6231888Z, 6cda8203-a249-e411-b0cc-f8bc1246af59, $GPGGA,164924.00,4437.5843,N,12402.8903,W,1,09,1.0,34.6,M,-21.8,M,,*64
2021-08-13T16:49:26.3032442Z, 6cda8203-a249-e411-b0cc-f8bc1246af59, $GPGGA,164925.00,4437.5843,N,12402.8901,W,1,09,1.0,34.5,M,-21.8,M,,*64
2021-08-13T16:49:27.5736461Z, 6cda8203-a249-e411-b0cc-f8bc1246af59, $GPGGA,164926.00,4437.5844,N,12402.8900,W,1,09,1.0,34.4,M,-21.8,M,,*60
2021-08-13T16:49:29.0653216Z, 6cda8203-a249-e411-b0cc-f8bc1246af59, $GPGGA,164927.00,4437.5843,N,12402.8899,W,1,09,1.0,34.3,M,-21.8,M,,*60
2021-08-13T16:49:29.4338322Z, 6cda8203-a249-e411-b0cc-f8bc1246af59, $GPGGA,164928.00,4437.5845,N,12402.8897,W,1,09,1.0,34.2,M,-21.8,M,,*66
2021-08-13T16:49:30.9133712Z, 6cda8203-a249-e411-b0cc-f8bc1246af59, $GPGGA,164929.00,4437.5845,N,12402.8895,W,1,09,1.0,34.2,M,-21.8,M,,*65
2021-08-13T16:49:32.1937721Z, 6cda8203-a249-e411-b0cc-f8bc1246af59, $GPGGA,164931.00,4437.5846,N,12402.8895,W,1,09,1.0,34.1,M,-21.8,M,,*6C
2021-08-13T16:49:33.6633683Z, 6cda8203-a249-e411-b0cc-f8bc1246af59, $GPGGA,164932.00,4437.5846,N,12402.8894,W,1,09,1.0,34.0,M,-21.8,M,,*6F
2021-08-13T16:49:35.0941050Z, 6cda8203-a249-e411-b0cc-f8bc1246af59, $GPGGA,164934.00,4437.5848,N,12402.8891,W,1,09,1.0,33.7,M,-21.8,M,,*62
2021-08-13T16:49:36.6234382Z, 6cda8203-a249-e411-b0cc-f8bc1246af59, $GPGGA,164935.00,4437.5849,N,12402.8890,W,1,09,1.0,33.7,M,-21.8,M,,*63
2021-08-13T16:49:38.0939962Z, 6cda8203-a249-e411-b0cc-f8bc1246af59, $GPGGA,164937.00,4437.5849,N,12402.8875,W,1,09,1.0,33.6,M,-21.8,M,,*6B
2021-08-13T16:49:39.6233344Z, 6cda8203-a249-e411-b0cc-f8bc1246af59, $GPGGA,164938.00,4437.5849,N,12402.8874,W,1,09,1.0,33.5,M,-21.8,M,,*66
2021-08-13T16:49:41.0939261Z, 6cda8203-a249-e411-b0cc-f8bc1246af59, $GPGGA,164940.00,4437.5848,N,12402.8874,W,1,09,1.0,33.3,M,-21.8,M,,*6E
2021-08-13T16:49:42.6242102Z, 6cda8203-a249-e411-b0cc-f8bc1246af59, $GPGGA,164941.00,4437.5848,N,12402.8874,W,1,09,1.0,33.3,M,-21.8,M,,*6F
2021-08-13T16:49:44.0938084Z, 6cda8203-a249-e411-b0cc-f8bc1246af59, $GPGGA,164943.00,4437.5848,N,12402.8874,W,1,09,1.0,33.3,M,-21.8,M,,*6D
2021-08-13T16:49:45.6241996Z, 6cda8203-a249-e411-b0cc-f8bc1246af59, $GPGGA,164944.00,4437.5848,N,12402.8874,W,1,09,1.0,33.4,M,-21.8,M,,*6D
2021-08-13T16:49:47.0976051Z, 6cda8203-a249-e411-b0cc-f8bc1246af59, $GPGGA,164946.00,4437.5848,N,12402.8874,W,1,09,1.0,33.4,M,-21.8,M,,*6F
2021-08-13T16:49:48.6241514Z, 6cda8203-a249-e411-b0cc-f8bc1246af59, $GPGGA,164947.00,4437.5848,N,12402.8874,W,1,09,1.0,33.4,M,-21.8,M,,*6E
2021-08-13T16:49:50.0938505Z, 6cda8203-a249-e411-b0cc-f8bc1246af59, $GPGGA,164949.00,4437.5851,N,12402.8867,W,1,09,1.0,33.4,M,-21.8,M,,*6A
2021-08-13T16:49:51.6241491Z, 6cda8203-a249-e411-b0cc-f8bc1246af59, $GPGGA,164950.00,4437.5852,N,12402.8864,W,1,09,1.0,33.5,M,-21.8,M,,*63
2021-08-13T16:49:53.0947308Z, 6cda8203-a249-e411-b0cc-f8bc1246af59, $GPGGA,164952.00,4437.5852,N,12402.8864,W,1,09,1.0,33.3,M,-21.8,M,,*67
2021-08-13T16:49:54.6240591Z, 6cda8203-a249-e411-b0cc-f8bc1246af59, $GPGGA,164953.00,4437.5853,N,12402.8863,W,1,09,1.0,33.3,M,-21.8,M,,*60
2021-08-13T16:49:56.0946461Z, 6cda8203-a249-e411-b0cc-f8bc1246af59, $GPGGA,164955.00,4437.5856,N,12402.8862,W,1,09,1.0,33.2,M,-21.8,M,,*63
2021-08-13T16:49:57.6249582Z, 6cda8203-a249-e411-b0cc-f8bc1246af59, $GPGGA,164956.00,4437.5858,N,12402.8862,W,1,09,1.0,33.0,M,-21.8,M,,*6C
2021-08-13T16:49:59.0945456Z, 6cda8203-a249-e411-b0cc-f8bc1246af59, $GPGGA,164958.00,4437.5861,N,12402.8855,W,1,09,1.0,33.3,M,-21.8,M,,*6F
2021-08-13T16:50:00.6248324Z, 6cda8203-a249-e411-b0cc-f8bc1246af59, $GPGGA,164959.00,4437.5862,N,12402.8854,W,1,09,1.0,33.3,M,-21.8,M,,*6C
2021-08-13T16:50:02.0944450Z, 6cda8203-a249-e411-b0cc-f8bc1246af59, $GPGGA,165001.00,4437.5862,N,12402.8855,W,1,09,1.0,33.2,M,-21.8,M,,*69
2021-08-13T16:50:03.6250174Z, 6cda8203-a249-e411-b0cc-f8bc1246af59, $GPGGA,165002.00,4437.5863,N,12402.8855,W,1,09,1.0,33.1,M,-21.8,M,,*68
2021-08-13T16:50:05.0946283Z, 6cda8203-a249-e411-b0cc-f8bc1246af59, $GPGGA,165004.00,4437.5864,N,12402.8855,W,1,09,1.0,32.8,M,-21.8,M,,*61
2021-08-13T16:50:06.6249303Z, 6cda8203-a249-e411-b0cc-f8bc1246af59, $GPGGA,165005.00,4437.5871,N,12402.8854,W,1,09,1.0,32.8,M,-21.8,M,,*65
2021-08-13T16:50:08.0952371Z, 6cda8203-a249-e411-b0cc-f8bc1246af59, $GPGGA,165007.00,4437.5874,N,12402.8854,W,1,09,1.0,32.6,M,-21.8,M,,*6C
2021-08-13T16:50:09.6245736Z, 6cda8203-a249-e411-b0cc-f8bc1246af59, $GPGGA,165008.00,4437.5874,N,12402.8854,W,1,09,1.0,32.4,M,-21.8,M,,*61
2021-08-13T16:50:11.0951609Z, 6cda8203-a249-e411-b0cc-f8bc1246af59, $GPGGA,165010.00,4437.5875,N,12402.8852,W,1,09,1.0,32.2,M,-21.8,M,,*69
2021-08-13T16:50:12.6254631Z, 6cda8203-a249-e411-b0cc-f8bc1246af59, $GPGGA,165011.00,4437.5875,N,12402.8851,W,1,09,1.0,32.2,M,-21.8,M,,*6B
2021-08-13T16:50:14.0950510Z, 6cda8203-a249-e411-b0cc-f8bc1246af59, $GPGGA,165013.00,4437.5874,N,12402.8853,W,1,09,1.0,32.3,M,-21.8,M,,*6B
2021-08-13T16:50:15.6253583Z, 6cda8203-a249-e411-b0cc-f8bc1246af59, $GPGGA,165014.00,4437.5870,N,12402.8858,W,1,09,1.0,32.6,M,-21.8,M,,*66
2021-08-13T16:50:17.0949516Z, 6cda8203-a249-e411-b0cc-f8bc1246af59, $GPGGA,165016.00,4437.5874,N,12402.8854,W,1,09,1.0,32.7,M,-21.8,M,,*6D
2021-08-13T16:50:18.6252550Z, 6cda8203-a249-e411-b0cc-f8bc1246af59, $GPGGA,165017.00,4437.5874,N,12402.8854,W,1,09,1.0,32.8,M,-21.8,M,,*63
2021-08-13T16:50:20.0958409Z, 6cda8203-a249-e411-b0cc-f8bc1246af59, $GPGGA,165019.00,4437.5874,N,12402.8855,W,1,09,1.0,32.8,M,-21.8,M,,*6C
2021-08-13T16:50:21.6252843Z, 6cda8203-a249-e411-b0cc-f8bc1246af59, $GPGGA,165020.00,4437.5875,N,12402.8854,W,1,09,1.0,32.8,M,-21.8,M,,*66
2021-08-13T16:50:23.0958417Z, 6cda8203-a249-e411-b0cc-f8bc1246af59, $GPGGA,165022.00,4437.5874,N,12402.8853,W,1,09,1.0,32.9,M,-21.8,M,,*63
2021-08-13T16:50:24.6252214Z, 6cda8203-a249-e411-b0cc-f8bc1246af59, $GPGGA,165023.00,4437.5875,N,12402.8852,W,1,09,1.0,32.9,M,-21.8,M,,*62
2021-08-13T16:50:26.0957886Z, 6cda8203-a249-e411-b0cc-f8bc1246af59, $GPGGA,165025.00,4437.5872,N,12402.8851,W,1,09,1.0,32.8,M,-21.8,M,,*61
2021-08-13T16:50:27.6261120Z, 6cda8203-a249-e411-b0cc-f8bc1246af59, $GPGGA,165026.00,4437.5871,N,12402.8850,W,1,09,1.0,32.7,M,-21.8,M,,*6F
2021-08-13T16:50:29.0958116Z, 6cda8203-a249-e411-b0cc-f8bc1246af59, $GPGGA,165028.00,4437.5870,N,12402.8848,W,1,09,1.0,32.5,M,-21.8,M,,*6B
2021-08-13T16:50:30.6260963Z, 6cda8203-a249-e411-b0cc-f8bc1246af59, $GPGGA,165029.00,4437.5869,N,12402.8846,W,1,09,1.0,32.5,M,-21.8,M,,*6C
2021-08-13T16:50:32.0956959Z, 6cda8203-a249-e411-b0cc-f8bc1246af59, $GPGGA,165031.00,4437.5864,N,12402.8843,W,1,09,1.0,32.5,M,-21.8,M,,*6D
2021-08-13T16:50:33.6262677Z, 6cda8203-a249-e411-b0cc-f8bc1246af59, $GPGGA,165032.00,4437.5863,N,12402.8842,W,1,09,1.0,32.4,M,-21.8,M,,*69
2021-08-13T16:50:35.0958552Z, 6cda8203-a249-e411-b0cc-f8bc1246af59, $GPGGA,165034.00,4437.5861,N,12402.8840,W,1,09,1.0,32.2,M,-21.8,M,,*69
2021-08-13T16:50:36.6261634Z, 6cda8203-a249-e411-b0cc-f8bc1246af59, $GPGGA,165035.00,4437.5859,N,12402.8840,W,1,09,1.0,32.2,M,-21.8,M,,*63
2021-08-13T16:50:38.0957624Z, 6cda8203-a249-e411-b0cc-f8bc1246af59, $GPGGA,165037.00,4437.5857,N,12402.8840,W,1,09,1.0,32.1,M,-21.8,M,,*6C
2021-08-13T16:50:39.6260486Z, 6cda8203-a249-e411-b0cc-f8bc1246af59, $GPGGA,165038.00,4437.5855,N,12402.8840,W,1,09,1.0,32.0,M,-21.8,M,,*60
2021-08-13T16:50:41.0966406Z, 6cda8203-a249-e411-b0cc-f8bc1246af59, $GPGGA,165040.00,4437.5851,N,12402.8840,W,1,09,1.0,32.0,M,-21.8,M,,*6B
2021-08-13T16:50:42.6259535Z, 6cda8203-a249-e411-b0cc-f8bc1246af59, $GPGGA,165041.00,4437.5849,N,12402.8839,W,1,09,1.0,32.0,M,-21.8,M,,*6D
2021-08-13T16:50:44.0965181Z, 6cda8203-a249-e411-b0cc-f8bc1246af59, $GPGGA,165043.00,4437.5849,N,12402.8839,W,1,09,1.0,32.0,M,-21.8,M,,*6F
2021-08-13T16:50:45.6258510Z, 6cda8203-a249-e411-b0cc-f8bc1246af59, $GPGGA,165044.00,4437.5848,N,12402.8839,W,1,09,1.0,32.0,M,-21.8,M,,*69
2021-08-13T16:50:47.0965190Z, 6cda8203-a249-e411-b0cc-f8bc1246af59, $GPGGA,165046.00,4437.5847,N,12402.8839,W,1,09,1.0,31.9,M,-21.8,M,,*6E
2021-08-13T16:50:48.6269150Z, 6cda8203-a249-e411-b0cc-f8bc1246af59, $GPGGA,165047.00,4437.5847,N,12402.8839,W,1,08,1.0,31.9,M,-21.8,M,,*6E
2021-08-13T16:50:50.0965112Z, 6cda8203-a249-e411-b0cc-f8bc1246af59, $GPGGA,165049.00,4437.5846,N,12402.8840,W,1,08,1.0,31.9,M,-21.8,M,,*6F
2021-08-13T16:50:51.6268152Z, 6cda8203-a249-e411-b0cc-f8bc1246af59, $GPGGA,165050.00,4437.5846,N,12402.8840,W,1,09,1.0,31.9,M,-21.8,M,,*66
2021-08-13T16:50:53.0964167Z, 6cda8203-a249-e411-b0cc-f8bc1246af59, $GPGGA,165052.00,4437.5846,N,12402.8840,W,1,08,1.0,31.9,M,-21.8,M,,*65
2021-08-13T16:50:54.6267207Z, 6cda8203-a249-e411-b0cc-f8bc1246af59, $GPGGA,165053.00,4437.5846,N,12402.8841,W,1,09,1.0,31.9,M,-21.8,M,,*64
2021-08-13T16:50:56.0963178Z, 6cda8203-a249-e411-b0cc-f8bc1246af59, $GPGGA,165055.00,4437.5846,N,12402.8842,W,1,09,1.0,31.8,M,-21.8,M,,*60
2021-08-13T16:50:57.6266099Z, 6cda8203-a249-e411-b0cc-f8bc1246af59, $GPGGA,165056.00,4437.5846,N,12402.8842,W,1,09,1.0,31.9,M,-21.8,M,,*62
2021-08-13T16:50:59.0971753Z, 6cda8203-a249-e411-b0cc-f8bc1246af59, $GPGGA,165058.00,4437.5846,N,12402.8844,W,1,09,1.0,31.8,M,-21.8,M,,*6B
2021-08-13T16:51:00.6265065Z, 6cda8203-a249-e411-b0cc-f8bc1246af59, $GPGGA,165059.00,4437.5847,N,12402.8845,W,1,09,1.0,31.8,M,-21.8,M,,*6A
2021-08-13T16:51:02.0971129Z, 6cda8203-a249-e411-b0cc-f8bc1246af59, $GPGGA,165101.00,4437.5847,N,12402.8847,W,1,09,1.0,31.8,M,-21.8,M,,*64
2021-08-13T16:51:03.6273876Z, 6cda8203-a249-e411-b0cc-f8bc1246af59, $GPGGA,165102.00,4437.5848,N,12402.8847,W,1,09,1.0,31.8,M,-21.8,M,,*68
2021-08-13T16:51:05.0969969Z, 6cda8203-a249-e411-b0cc-f8bc1246af59, $GPGGA,165104.00,4437.5848,N,12402.8848,W,1,09,1.0,31.8,M,-21.8,M,,*61
2021-08-13T16:51:06.6272886Z, 6cda8203-a249-e411-b0cc-f8bc1246af59, $GPGGA,165105.00,4437.5848,N,12402.8849,W,1,09,1.0,31.8,M,-21.8,M,,*61
2021-08-13T16:51:08.0968909Z, 6cda8203-a249-e411-b0cc-f8bc1246af59, $GPGGA,165107.00,4437.5848,N,12402.8850,W,1,09,1.0,31.8,M,-21.8,M,,*6B
2021-08-13T16:51:09.6272074Z, 6cda8203-a249-e411-b0cc-f8bc1246af59, $GPGGA,165108.00,4437.5848,N,12402.8850,W,1,09,1.0,31.8,M,-21.8,M,,*64
2021-08-13T16:51:11.0977718Z, 6cda8203-a249-e411-b0cc-f8bc1246af59, $GPGGA,165110.00,4437.5848,N,12402.8850,W,1,09,1.0,31.8,M,-21.8,M,,*6D
2021-08-13T16:51:12.6270992Z, 6cda8203-a249-e411-b0cc-f8bc1246af59, $GPGGA,165111.00,4437.5847,N,12402.8851,W,1,09,1.0,31.8,M,-21.8,M,,*62
2021-08-13T16:51:14.0969381Z, 6cda8203-a249-e411-b0cc-f8bc1246af59, $GPGGA,165113.00,4437.5847,N,12402.8850,W,1,09,1.0,31.8,M,-21.8,M,,*61
2021-08-13T16:51:15.6272519Z, 6cda8203-a249-e411-b0cc-f8bc1246af59, $GPGGA,165114.00,4437.5824,N,12402.8837,W,1,09,1.0,31.0,M,-21.8,M,,*6A
2021-08-13T16:51:17.0955593Z, 6cda8203-a249-e411-b0cc-f8bc1246af59, $GPGGA,165116.00,4437.5813,N,12402.8838,W,1,09,1.0,30.5,M,-21.8,M,,*67
2021-08-13T16:51:18.6138767Z, 6cda8203-a249-e411-b0cc-f8bc1246af59, $GPGGA,165117.00,4437.5806,N,12402.8841,W,1,09,1.0,29.9,M,-21.8,M,,*68
2021-08-13T16:51:20.0834472Z, 6cda8203-a249-e411-b0cc-f8bc1246af59, $GPGGA,165119.00,4437.5804,N,12402.8846,W,1,09,1.0,29.8,M,-21.8,M,,*62
2021-08-13T16:51:21.6129059Z, 6cda8203-a249-e411-b0cc-f8bc1246af59, $GPGGA,165120.00,4437.5805,N,12402.8849,W,1,09,1.0,29.7,M,-21.8,M,,*69
2021-08-13T16:51:23.0835497Z, 6cda8203-a249-e411-b0cc-f8bc1246af59, $GPGGA,165122.00,4437.5807,N,12402.8849,W,1,09,1.0,29.5,M,-21.8,M,,*6B
2021-08-13T16:51:24.6128728Z, 6cda8203-a249-e411-b0cc-f8bc1246af59, $GPGGA,165123.00,4437.5808,N,12402.8850,W,1,09,1.0,29.3,M,-21.8,M,,*6B
2021-08-13T16:51:26.0834836Z, 6cda8203-a249-e411-b0cc-f8bc1246af59, $GPGGA,165125.00,4437.5809,N,12402.8854,W,1,09,1.0,29.1,M,-21.8,M,,*6A
2021-08-13T16:51:27.6137704Z, 6cda8203-a249-e411-b0cc-f8bc1246af59, $GPGGA,165126.00,4437.5811,N,12402.8854,W,1,09,1.0,29.1,M,-21.8,M,,*60
2021-08-13T16:51:29.0833651Z, 6cda8203-a249-e411-b0cc-f8bc1246af59, $GPGGA,165128.00,4437.5814,N,12402.8859,W,1,09,1.0,28.7,M,-21.8,M,,*61
2021-08-13T16:51:30.6136732Z, 6cda8203-a249-e411-b0cc-f8bc1246af59, $GPGGA,165129.00,4437.5814,N,12402.8861,W,1,09,1.0,28.5,M,-21.8,M,,*69
2021-08-13T16:51:31.5735041Z, 6cda8203-a249-e411-b0cc-f8bc1246af59, $GPGGA,165130.00,4437.5816,N,12402.8862,W,1,09,1.0,28.6,M,-21.8,M,,*63
2021-08-13T16:51:32.5641300Z, 6cda8203-a249-e411-b0cc-f8bc1246af59, $GPGGA,165131.00,4437.5818,N,12402.8865,W,1,09,1.0,28.5,M,-21.8,M,,*68
2021-08-13T16:51:33.4433022Z, 6cda8203-a249-e411-b0cc-f8bc1246af59, $GPGGA,165132.00,4437.5819,N,12402.8865,W,1,09,1.0,28.9,M,-21.8,M,,*66
2021-08-13T16:51:34.6540193Z, 6cda8203-a249-e411-b0cc-f8bc1246af59, $GPGGA,165133.00,4437.5818,N,12402.8866,W,1,09,1.0,29.1,M,-21.8,M,,*6C
2021-08-13T16:51:35.9035590Z, 6cda8203-a249-e411-b0cc-f8bc1246af59, $GPGGA,165134.00,4437.5818,N,12402.8866,W,1,09,1.0,29.4,M,-21.8,M,,*6E
2021-08-13T16:51:37.3134222Z, 6cda8203-a249-e411-b0cc-f8bc1246af59, $GPGGA,165136.00,4437.5820,N,12402.8869,W,1,09,1.0,29.8,M,-21.8,M,,*64
2021-08-13T16:51:38.6536420Z, 6cda8203-a249-e411-b0cc-f8bc1246af59, $GPGGA,165137.00,4437.5820,N,12402.8869,W,1,09,1.0,29.9,M,-21.8,M,,*64
2021-08-13T16:51:40.2138660Z, 6cda8203-a249-e411-b0cc-f8bc1246af59, $GPGGA,165139.00,4437.5822,N,12402.8867,W,1,09,1.0,29.9,M,-21.8,M,,*66
2021-08-13T16:51:41.6138708Z, 6cda8203-a249-e411-b0cc-f8bc1246af59, $GPGGA,165140.00,4437.5823,N,12402.8866,W,1,09,1.0,29.8,M,-21.8,M,,*69
2021-08-13T16:51:43.2138898Z, 6cda8203-a249-e411-b0cc-f8bc1246af59, $GPGGA,165142.00,4437.5826,N,12402.8864,W,1,09,1.0,29.6,M,-21.8,M,,*62
2021-08-13T16:51:44.6137673Z, 6cda8203-a249-e411-b0cc-f8bc1246af59, $GPGGA,165143.00,4437.5827,N,12402.8865,W,1,09,1.0,29.5,M,-21.8,M,,*60
2021-08-13T16:51:46.2137805Z, 6cda8203-a249-e411-b0cc-f8bc1246af59, $GPGGA,165145.00,4437.5830,N,12402.8861,W,1,09,1.0,29.4,M,-21.8,M,,*65
2021-08-13T16:51:47.6146882Z, 6cda8203-a249-e411-b0cc-f8bc1246af59, $GPGGA,165146.00,4437.5830,N,12402.8861,W,1,09,1.0,29.4,M,-21.8,M,,*66
2021-08-13T16:51:49.2146854Z, 6cda8203-a249-e411-b0cc-f8bc1246af59, $GPGGA,165148.00,4437.5831,N,12402.8859,W,1,09,1.0,29.2,M,-21.8,M,,*64
2021-08-13T16:51:50.6145522Z, 6cda8203-a249-e411-b0cc-f8bc1246af59, $GPGGA,165149.00,4437.5831,N,12402.8857,W,1,09,1.0,29.1,M,-21.8,M,,*68
2021-08-13T16:51:52.2145846Z, 6cda8203-a249-e411-b0cc-f8bc1246af59, $GPGGA,165151.00,4437.5830,N,12402.8858,W,1,09,1.0,29.1,M,-21.8,M,,*6F
2021-08-13T16:51:53.6144734Z, 6cda8203-a249-e411-b0cc-f8bc1246af59, $GPGGA,165152.00,4437.5828,N,12402.8855,W,1,09,1.0,29.0,M,-21.8,M,,*69
2021-08-13T16:51:55.2144769Z, 6cda8203-a249-e411-b0cc-f8bc1246af59, $GPGGA,165154.00,4437.5825,N,12402.8854,W,1,09,1.0,29.0,M,-21.8,M,,*63
2021-08-13T16:51:56.6143674Z, 6cda8203-a249-e411-b0cc-f8bc1246af59, $GPGGA,165155.00,4437.5828,N,12402.8857,W,1,09,1.0,28.2,M,-21.8,M,,*6F
2021-08-13T16:51:58.2143800Z, 6cda8203-a249-e411-b0cc-f8bc1246af59, $GPGGA,165157.00,4437.5828,N,12402.8855,W,1,09,1.0,28.1,M,-21.8,M,,*6C
2021-08-13T16:51:59.6142465Z, 6cda8203-a249-e411-b0cc-f8bc1246af59, $GPGGA,165158.00,4437.5827,N,12402.8852,W,1,09,1.0,28.1,M,-21.8,M,,*6B
2021-08-13T16:52:01.2142577Z, 6cda8203-a249-e411-b0cc-f8bc1246af59, $GPGGA,165200.00,4437.5828,N,12402.8846,W,1,09,1.0,28.0,M,-21.8,M,,*6E
2021-08-13T16:52:02.6151466Z, 6cda8203-a249-e411-b0cc-f8bc1246af59, $GPGGA,165201.00,4437.5827,N,12402.8844,W,1,09,1.0,27.9,M,-21.8,M,,*64
2021-08-13T16:52:04.2151548Z, 6cda8203-a249-e411-b0cc-f8bc1246af59, $GPGGA,165203.00,4437.5826,N,12402.8843,W,1,09,1.0,27.8,M,-21.8,M,,*61
2021-08-13T16:52:05.6150617Z, 6cda8203-a249-e411-b0cc-f8bc1246af59, $GPGGA,165204.00,4437.5827,N,12402.8843,W,1,09,1.0,27.8,M,-21.8,M,,*67
2021-08-13T16:52:07.1752248Z, 6cda8203-a249-e411-b0cc-f8bc1246af59, $GPGGA,165206.00,4437.5831,N,12402.8853,W,1,09,1.0,27.4,M,-21.8,M,,*6F
2021-08-13T16:52:08.6149341Z, 6cda8203-a249-e411-b0cc-f8bc1246af59, $GPGGA,165207.00,4437.5832,N,12402.8855,W,1,09,1.0,27.3,M,-21.8,M,,*6C
2021-08-13T16:52:10.2149475Z, 6cda8203-a249-e411-b0cc-f8bc1246af59, $GPGGA,165209.00,4437.5834,N,12402.8860,W,1,09,1.0,27.3,M,-21.8,M,,*62
2021-08-13T16:52:11.6148401Z, 6cda8203-a249-e411-b0cc-f8bc1246af59, $GPGGA,165210.00,4437.5834,N,12402.8860,W,1,08,1.0,27.2,M,-21.8,M,,*6A
2021-08-13T16:52:13.2149246Z, 6cda8203-a249-e411-b0cc-f8bc1246af59, $GPGGA,165212.00,4437.5833,N,12402.8860,W,1,09,1.0,27.2,M,-21.8,M,,*6E
2021-08-13T16:52:14.6148677Z, 6cda8203-a249-e411-b0cc-f8bc1246af59, $GPGGA,165213.00,4437.5833,N,12402.8860,W,1,09,1.0,27.2,M,-21.8,M,,*6F
2021-08-13T16:52:16.2149820Z, 6cda8203-a249-e411-b0cc-f8bc1246af59, $GPGGA,165215.00,4437.5833,N,12402.8861,W,1,09,1.0,27.2,M,-21.8,M,,*68
2021-08-13T16:52:17.6149285Z, 6cda8203-a249-e411-b0cc-f8bc1246af59, $GPGGA,165216.00,4437.5833,N,12402.8861,W,1,09,1.0,27.2,M,-21.8,M,,*6B
2021-08-13T16:52:19.1850654Z, 6cda8203-a249-e411-b0cc-f8bc1246af59, $GPGGA,165218.00,4437.5830,N,12402.8861,W,1,09,1.0,27.3,M,-21.8,M,,*67
2021-08-13T16:52:20.6158255Z, 6cda8203-a249-e411-b0cc-f8bc1246af59, $GPGGA,165219.00,4437.5828,N,12402.8864,W,1,09,1.0,27.2,M,-21.8,M,,*6B
2021-08-13T16:52:22.2160624Z, 6cda8203-a249-e411-b0cc-f8bc1246af59, $GPGGA,165221.00,4437.5828,N,12402.8869,W,1,09,1.0,27.1,M,-21.8,M,,*6E
2021-08-13T16:52:23.6159286Z, 6cda8203-a249-e411-b0cc-f8bc1246af59, $GPGGA,165222.00,4437.5829,N,12402.8871,W,1,09,1.0,27.0,M,-21.8,M,,*64
2021-08-13T16:52:25.2159403Z, 6cda8203-a249-e411-b0cc-f8bc1246af59, $GPGGA,165224.00,4437.5830,N,12402.8875,W,1,09,1.0,26.8,M,-21.8,M,,*67
2021-08-13T16:52:26.6158163Z, 6cda8203-a249-e411-b0cc-f8bc1246af59, $GPGGA,165225.00,4437.5831,N,12402.8878,W,1,09,1.0,26.8,M,-21.8,M,,*6A
2021-08-13T16:52:28.2162783Z, 6cda8203-a249-e411-b0cc-f8bc1246af59, $GPGGA,165227.00,4437.5835,N,12402.8880,W,1,09,1.0,26.9,M,-21.8,M,,*6A
2021-08-13T16:52:29.6161691Z, 6cda8203-a249-e411-b0cc-f8bc1246af59, $GPGGA,165228.00,4437.5836,N,12402.8880,W,1,09,1.0,26.9,M,-21.8,M,,*66
2021-08-13T16:52:31.2162543Z, 6cda8203-a249-e411-b0cc-f8bc1246af59, $GPGGA,165230.00,4437.5836,N,12402.8883,W,1,09,1.0,26.6,M,-21.8,M,,*63
2021-08-13T16:52:32.6168002Z, 6cda8203-a249-e411-b0cc-f8bc1246af59, $GPGGA,165231.00,4437.5835,N,12402.8885,W,1,09,1.0,26.4,M,-21.8,M,,*65
2021-08-13T16:52:34.2161666Z, 6cda8203-a249-e411-b0cc-f8bc1246af59, $GPGGA,165233.00,4437.5835,N,12402.8884,W,1,09,1.0,26.0,M,-21.8,M,,*62
2021-08-13T16:52:35.6195257Z, 6cda8203-a249-e411-b0cc-f8bc1246af59, $GPGGA,165234.00,4437.5836,N,12402.8883,W,1,09,1.0,25.8,M,-21.8,M,,*6A
2021-08-13T16:52:37.2161844Z, 6cda8203-a249-e411-b0cc-f8bc1246af59, $GPGGA,165236.00,4437.5837,N,12402.8885,W,1,09,1.0,25.7,M,-21.8,M,,*60
2021-08-13T16:52:38.6160846Z, 6cda8203-a249-e411-b0cc-f8bc1246af59, $GPGGA,165237.00,4437.5838,N,12402.8887,W,1,09,1.0,25.6,M,-21.8,M,,*6D
2021-08-13T16:52:40.2160946Z, 6cda8203-a249-e411-b0cc-f8bc1246af59, $GPGGA,165239.00,4437.5841,N,12402.8891,W,1,09,1.0,25.5,M,-21.8,M,,*69
2021-08-13T16:52:41.6159516Z, 6cda8203-a249-e411-b0cc-f8bc1246af59, $GPGGA,165240.00,4437.5842,N,12402.8895,W,1,09,1.0,25.4,M,-21.8,M,,*61
2021-08-13T16:52:43.2159692Z, 6cda8203-a249-e411-b0cc-f8bc1246af59, $GPGGA,165242.00,4437.5843,N,12402.8898,W,1,09,1.0,25.4,M,-21.8,M,,*6F
2021-08-13T16:52:44.6168494Z, 6cda8203-a249-e411-b0cc-f8bc1246af59, $GPGGA,165243.00,4437.5843,N,12402.8901,W,1,09,1.0,25.3,M,-21.8,M,,*68
2021-08-13T16:52:46.2168608Z, 6cda8203-a249-e411-b0cc-f8bc1246af59, $GPGGA,165245.00,4437.5843,N,12402.8901,W,1,09,1.0,25.4,M,-21.8,M,,*69
2021-08-13T16:52:47.6167429Z, 6cda8203-a249-e411-b0cc-f8bc1246af59, $GPGGA,165246.00,4437.5844,N,12402.8900,W,1,09,1.0,25.3,M,-21.8,M,,*6B
2021-08-13T16:52:49.2167731Z, 6cda8203-a249-e411-b0cc-f8bc1246af59, $GPGGA,165248.00,4437.5845,N,12402.8901,W,1,09,1.0,25.2,M,-21.8,M,,*64
2021-08-13T16:52:50.6166403Z, 6cda8203-a249-e411-b0cc-f8bc1246af59, $GPGGA,165249.00,4437.5844,N,12402.8903,W,1,09,1.0,25.2,M,-21.8,M,,*66
2021-08-13T16:52:52.1769658Z, 6cda8203-a249-e411-b0cc-f8bc1246af59, $GPGGA,165251.00,4437.5843,N,12402.8904,W,1,09,1.0,24.9,M,-21.8,M,,*65
2021-08-13T16:52:53.6166730Z, 6cda8203-a249-e411-b0cc-f8bc1246af59, $GPGGA,165252.00,4437.5841,N,12402.8904,W,1,09,1.0,24.8,M,-21.8,M,,*65
2021-08-13T16:52:55.2167137Z, 6cda8203-a249-e411-b0cc-f8bc1246af59, $GPGGA,165254.00,4437.5838,N,12402.8903,W,1,09,1.0,24.7,M,-21.8,M,,*65
2021-08-13T16:52:56.6165798Z, 6cda8203-a249-e411-b0cc-f8bc1246af59, $GPGGA,165255.00,4437.5837,N,12402.8904,W,1,09,1.0,24.6,M,-21.8,M,,*6D
2021-08-13T16:52:58.2165886Z, 6cda8203-a249-e411-b0cc-f8bc1246af59, $GPGGA,165257.00,4437.5836,N,12402.8905,W,1,09,1.0,24.5,M,-21.8,M,,*6C
2021-08-13T16:52:59.6174703Z, 6cda8203-a249-e411-b0cc-f8bc1246af59, $GPGGA,165258.00,4437.5837,N,12402.8906,W,1,09,1.0,24.5,M,-21.8,M,,*61
2021-08-13T16:53:01.2175328Z, 6cda8203-a249-e411-b0cc-f8bc1246af59, $GPGGA,165300.00,4437.5837,N,12402.8908,W,1,09,1.0,24.3,M,-21.8,M,,*65
2021-08-13T16:53:02.6174136Z, 6cda8203-a249-e411-b0cc-f8bc1246af59, $GPGGA,165301.00,4437.5838,N,12402.8909,W,1,09,1.0,24.3,M,-21.8,M,,*6A
2021-08-13T16:53:04.2174334Z, 6cda8203-a249-e411-b0cc-f8bc1246af59, $GPGGA,165303.00,4437.5836,N,12402.8911,W,1,09,1.0,24.4,M,-21.8,M,,*68
2021-08-13T16:53:05.6173141Z, 6cda8203-a249-e411-b0cc-f8bc1246af59, $GPGGA,165304.00,4437.5835,N,12402.8911,W,1,09,1.0,24.4,M,-21.8,M,,*6C
2021-08-13T16:53:07.1775045Z, 6cda8203-a249-e411-b0cc-f8bc1246af59, $GPGGA,165306.00,4437.5834,N,12402.8914,W,1,09,1.0,24.3,M,-21.8,M,,*6D
2021-08-13T16:53:08.6172227Z, 6cda8203-a249-e411-b0cc-f8bc1246af59, $GPGGA,165307.00,4437.5834,N,12402.8914,W,1,09,1.0,24.2,M,-21.8,M,,*6D
2021-08-13T16:53:10.2172279Z, 6cda8203-a249-e411-b0cc-f8bc1246af59, $GPGGA,165309.00,4437.5833,N,12402.8915,W,1,09,1.0,24.1,M,-21.8,M,,*66
2021-08-13T16:53:11.6171279Z, 6cda8203-a249-e411-b0cc-f8bc1246af59, $GPGGA,165310.00,4437.5833,N,12402.8916,W,1,09,1.0,24.0,M,-21.8,M,,*6C
2021-08-13T16:53:13.2172947Z, 6cda8203-a249-e411-b0cc-f8bc1246af59, $GPGGA,165312.00,4437.5831,N,12402.8918,W,1,09,1.0,23.9,M,-21.8,M,,*6C
2021-08-13T16:53:14.6172690Z, 6cda8203-a249-e411-b0cc-f8bc1246af59, $GPGGA,165313.00,4437.5832,N,12402.8919,W,1,09,1.0,23.8,M,-21.8,M,,*6E
2021-08-13T16:53:16.2172923Z, 6cda8203-a249-e411-b0cc-f8bc1246af59, $GPGGA,165315.00,4437.5833,N,12402.8916,W,1,09,1.0,23.8,M,-21.8,M,,*66
2021-08-13T16:53:17.6181776Z, 6cda8203-a249-e411-b0cc-f8bc1246af59, $GPGGA,165316.00,4437.5832,N,12402.8916,W,1,09,1.0,23.8,M,-21.8,M,,*64
2021-08-13T16:53:19.2181941Z, 6cda8203-a249-e411-b0cc-f8bc1246af59, $GPGGA,165318.00,4437.5832,N,12402.8915,W,1,09,1.0,23.8,M,-21.8,M,,*69
2021-08-13T16:53:20.6180662Z, 6cda8203-a249-e411-b0cc-f8bc1246af59, $GPGGA,165319.00,4437.5832,N,12402.8914,W,1,09,1.0,23.8,M,-21.8,M,,*69
2021-08-13T16:53:22.2180690Z, 6cda8203-a249-e411-b0cc-f8bc1246af59, $GPGGA,165321.00,4437.5834,N,12402.8911,W,1,09,1.0,23.7,M,-21.8,M,,*6E
2021-08-13T16:53:23.6179752Z, 6cda8203-a249-e411-b0cc-f8bc1246af59, $GPGGA,165322.00,4437.5834,N,12402.8907,W,1,09,1.0,23.5,M,-21.8,M,,*68
2021-08-13T16:53:25.2179711Z, 6cda8203-a249-e411-b0cc-f8bc1246af59, $GPGGA,165324.00,4437.5840,N,12402.8904,W,1,09,1.0,23.5,M,-21.8,M,,*6E
2021-08-13T16:53:26.6178703Z, 6cda8203-a249-e411-b0cc-f8bc1246af59, $GPGGA,165325.00,4437.5842,N,12402.8905,W,1,09,1.0,23.5,M,-21.8,M,,*6C
2021-08-13T16:53:28.2179241Z, 6cda8203-a249-e411-b0cc-f8bc1246af59, $GPGGA,165327.00,4437.5848,N,12402.8903,W,1,09,1.0,23.4,M,-21.8,M,,*63
2021-08-13T16:53:29.6177752Z, 6cda8203-a249-e411-b0cc-f8bc1246af59, $GPGGA,165328.00,4437.5850,N,12402.8902,W,1,09,1.0,23.4,M,-21.8,M,,*64
2021-08-13T16:53:31.2177787Z, 6cda8203-a249-e411-b0cc-f8bc1246af59, $GPGGA,165330.00,4437.5852,N,12402.8902,W,1,09,1.0,23.4,M,-21.8,M,,*6F
2021-08-13T16:53:32.6186483Z, 6cda8203-a249-e411-b0cc-f8bc1246af59, $GPGGA,165331.00,4437.5853,N,12402.8902,W,1,09,1.0,23.3,M,-21.8,M,,*68
2021-08-13T16:53:34.2188122Z, 6cda8203-a249-e411-b0cc-f8bc1246af59, $GPGGA,165333.00,4437.5854,N,12402.8905,W,1,09,1.0,23.1,M,-21.8,M,,*68
2021-08-13T16:53:35.5380408Z, 6cda8203-a249-e411-b0cc-f8bc1246af59, $GPGGA,165334.00,4437.5855,N,12402.8906,W,1,09,1.0,23.2,M,-21.8,M,,*6E
2021-08-13T16:53:36.1284964Z, 6cda8203-a249-e411-b0cc-f8bc1246af59, $GPGGA,165335.00,4437.5858,N,12402.8907,W,1,09,1.0,23.2,M,-21.8,M,,*63
2021-08-13T16:53:37.7583579Z, 6cda8203-a249-e411-b0cc-f8bc1246af59, $GPGGA,165336.00,4437.5860,N,12402.8908,W,1,09,1.0,23.1,M,-21.8,M,,*67
2021-08-13T16:53:38.6384967Z, 6cda8203-a249-e411-b0cc-f8bc1246af59, $GPGGA,165337.00,4437.5863,N,12402.8908,W,1,09,1.0,23.1,M,-21.8,M,,*65
2021-08-13T16:53:40.1190475Z, 6cda8203-a249-e411-b0cc-f8bc1246af59, $GPGGA,165338.00,4437.5862,N,12402.8907,W,1,09,1.0,23.1,M,-21.8,M,,*64
2021-08-13T16:53:41.3984545Z, 6cda8203-a249-e411-b0cc-f8bc1246af59, $GPGGA,165340.00,4437.5862,N,12402.8908,W,1,09,1.0,23.2,M,-21.8,M,,*67
2021-08-13T16:53:42.8690171Z, 6cda8203-a249-e411-b0cc-f8bc1246af59, $GPGGA,165341.00,4437.5861,N,12402.8909,W,1,09,1.0,23.1,M,-21.8,M,,*67
2021-08-13T16:53:44.1584177Z, 6cda8203-a249-e411-b0cc-f8bc1246af59, $GPGGA,165343.00,4437.5858,N,12402.8914,W,1,09,1.0,23.1,M,-21.8,M,,*63
2021-08-13T16:53:46.6186430Z, 6cda8203-a249-e411-b0cc-f8bc1246af59, $GPGGA,165344.00,4437.5860,N,12402.8916,W,1,09,1.0,23.1,M,-21.8,M,,*6D
2021-08-13T16:53:47.8992313Z, 6cda8203-a249-e411-b0cc-f8bc1246af59, $GPGGA,165346.00,4437.5860,N,12402.8916,W,1,09,1.0,23.2,M,-21.8,M,,*6C
2021-08-13T16:53:49.3788227Z, 6cda8203-a249-e411-b0cc-f8bc1246af59, $GPGGA,165347.00,4437.5858,N,12402.8919,W,1,09,1.0,23.3,M,-21.8,M,,*68
2021-08-13T16:53:50.6592553Z, 6cda8203-a249-e411-b0cc-f8bc1246af59, $GPGGA,165349.00,4437.5856,N,12402.8918,W,1,09,1.0,23.2,M,-21.8,M,,*68
2021-08-13T16:53:52.1288489Z, 6cda8203-a249-e411-b0cc-f8bc1246af59, $GPGGA,165350.00,4437.5855,N,12402.8918,W,1,09,1.0,23.1,M,-21.8,M,,*60
2021-08-13T16:53:53.4092503Z, 6cda8203-a249-e411-b0cc-f8bc1246af59, $GPGGA,165352.00,4437.5854,N,12402.8917,W,1,09,1.0,22.9,M,-21.8,M,,*65
