ACQ Timestamp (Server Time in UTC), MessageID, Data Value For: GNSS-6452-$GPGGA
2021-07-20 16:36:08Z, 6cda8203-a249-e411-b0cc-f8bc1246af59, $GPGGA,163607.00,4437.5847,N,12402.8887,W,1,09,1.0,23.2,M,-21.8,M,,*66
2021-07-20 16:36:10Z, 6cda8203-a249-e411-b0cc-f8bc1246af59, $GPGGA,163609.00,4437.5839,N,12402.8873,W,1,09,1.0,23.8,M,-21.8,M,,*60
2021-07-20 16:36:11Z, 6cda8203-a249-e411-b0cc-f8bc1246af59, $GPGGA,163610.00,4437.5839,N,12402.8872,W,1,09,1.0,23.9,M,-21.8,M,,*68
2021-07-20 16:36:13Z, 6cda8203-a249-e411-b0cc-f8bc1246af59, $GPGGA,163612.00,4437.5839,N,12402.8872,W,1,09,1.0,24.1,M,-21.8,M,,*65
2021-07-20 16:36:14Z, 6cda8203-a249-e411-b0cc-f8bc1246af59, $GPGGA,163613.00,4437.5840,N,12402.8873,W,1,09,1.0,24.2,M,-21.8,M,,*68
2021-07-20 16:36:15Z, 6cda8203-a249-e411-b0cc-f8bc1246af59, $GPGGA,163615.00,4437.5841,N,12402.8874,W,1,09,1.0,24.4,M,-21.8,M,,*6E
2021-07-20 16:36:17Z, 6cda8203-a249-e411-b0cc-f8bc1246af59, $GPGGA,163616.00,4437.5843,N,12402.8875,W,1,09,1.0,24.6,M,-21.8,M,,*6C
2021-07-20 16:36:18Z, 6cda8203-a249-e411-b0cc-f8bc1246af59, $GPGGA,163617.00,4437.5844,N,12402.8875,W,1,09,1.0,24.7,M,-21.8,M,,*6B
2021-07-20 16:36:19Z, 6cda8203-a249-e411-b0cc-f8bc1246af59, $GPGGA,163618.00,4437.5844,N,12402.8875,W,1,09,1.0,24.9,M,-21.8,M,,*6A
2021-07-20 16:36:20Z, 6cda8203-a249-e411-b0cc-f8bc1246af59, $GPGGA,163619.00,4437.5845,N,12402.8876,W,1,09,1.0,25.0,M,-21.8,M,,*61
2021-07-20 16:36:22Z, 6cda8203-a249-e411-b0cc-f8bc1246af59, $GPGGA,163621.00,4437.5846,N,12402.8877,W,1,09,1.0,25.0,M,-21.8,M,,*68
2021-07-20 16:36:24Z, 6cda8203-a249-e411-b0cc-f8bc1246af59, $GPGGA,163622.00,4437.5845,N,12402.8879,W,1,09,1.0,25.0,M,-21.8,M,,*66
2021-07-20 16:36:26Z, 6cda8203-a249-e411-b0cc-f8bc1246af59, $GPGGA,163624.00,4437.5852,N,12402.8885,W,1,09,1.0,24.7,M,-21.8,M,,*63
2021-07-20 16:36:27Z, 6cda8203-a249-e411-b0cc-f8bc1246af59, $GPGGA,163625.00,4437.5853,N,12402.8885,W,1,09,1.0,24.6,M,-21.8,M,,*62
2021-07-20 16:36:29Z, 6cda8203-a249-e411-b0cc-f8bc1246af59, $GPGGA,163627.00,4437.5860,N,12402.8889,W,1,09,1.0,24.0,M,-21.8,M,,*6A
2021-07-20 16:36:30Z, 6cda8203-a249-e411-b0cc-f8bc1246af59, $GPGGA,163628.00,4437.5861,N,12402.8889,W,1,09,1.0,23.9,M,-21.8,M,,*6A
2021-07-20 16:36:31Z, 6cda8203-a249-e411-b0cc-f8bc1246af59, $GPGGA,163630.00,4437.5864,N,12402.8899,W,1,09,1.0,23.5,M,-21.8,M,,*6B
2021-07-20 16:36:32Z, 6cda8203-a249-e411-b0cc-f8bc1246af59, $GPGGA,163631.00,4437.5863,N,12402.8901,W,1,09,1.0,23.1,M,-21.8,M,,*69
2021-07-20 16:36:34Z, 6cda8203-a249-e411-b0cc-f8bc1246af59, $GPGGA,163633.00,4437.5862,N,12402.8901,W,1,09,1.0,23.1,M,-21.8,M,,*6A
2021-07-20 16:36:35Z, 6cda8203-a249-e411-b0cc-f8bc1246af59, $GPGGA,163634.00,4437.5862,N,12402.8900,W,1,09,1.0,23.1,M,-21.8,M,,*6C
2021-07-20 16:36:37Z, 6cda8203-a249-e411-b0cc-f8bc1246af59, $GPGGA,163636.00,4437.5862,N,12402.8900,W,1,09,1.0,23.1,M,-21.8,M,,*6E
2021-07-20 16:36:38Z, 6cda8203-a249-e411-b0cc-f8bc1246af59, $GPGGA,163637.00,4437.5862,N,12402.8901,W,1,09,1.0,23.1,M,-21.8,M,,*6E
2021-07-20 16:36:40Z, 6cda8203-a249-e411-b0cc-f8bc1246af59, $GPGGA,163639.00,4437.5866,N,12402.8915,W,1,09,1.0,22.7,M,-21.8,M,,*66
2021-07-20 16:36:41Z, 6cda8203-a249-e411-b0cc-f8bc1246af59, $GPGGA,163640.00,4437.5866,N,12402.8918,W,1,09,1.0,22.6,M,-21.8,M,,*64
2021-07-20 16:36:43Z, 6cda8203-a249-e411-b0cc-f8bc1246af59, $GPGGA,163642.00,4437.5868,N,12402.8914,W,1,09,1.0,21.6,M,-21.8,M,,*67
2021-07-20 16:36:44Z, 6cda8203-a249-e411-b0cc-f8bc1246af59, $GPGGA,163643.00,4437.5868,N,12402.8913,W,1,09,1.0,21.5,M,-21.8,M,,*62
2021-07-20 16:36:46Z, 6cda8203-a249-e411-b0cc-f8bc1246af59, $GPGGA,163645.00,4437.5865,N,12402.8911,W,1,09,1.0,21.3,M,-21.8,M,,*6D
2021-07-20 16:36:47Z, 6cda8203-a249-e411-b0cc-f8bc1246af59, $GPGGA,163646.00,4437.5865,N,12402.8912,W,1,09,1.0,21.3,M,-21.8,M,,*6D
2021-07-20 16:36:49Z, 6cda8203-a249-e411-b0cc-f8bc1246af59, $GPGGA,163648.00,4437.5861,N,12402.8913,W,1,09,1.0,21.4,M,-21.8,M,,*61
2021-07-20 16:36:50Z, 6cda8203-a249-e411-b0cc-f8bc1246af59, $GPGGA,163649.00,4437.5857,N,12402.8909,W,1,09,1.0,21.6,M,-21.8,M,,*6C
2021-07-20 16:36:52Z, 6cda8203-a249-e411-b0cc-f8bc1246af59, $GPGGA,163651.00,4437.5856,N,12402.8907,W,1,09,1.0,21.7,M,-21.8,M,,*6B
2021-07-20 16:36:53Z, 6cda8203-a249-e411-b0cc-f8bc1246af59, $GPGGA,163652.00,4437.5855,N,12402.8907,W,1,09,1.0,21.8,M,-21.8,M,,*64
2021-07-20 16:36:55Z, 6cda8203-a249-e411-b0cc-f8bc1246af59, $GPGGA,163654.00,4437.5852,N,12402.8908,W,1,09,1.0,22.0,M,-21.8,M,,*61
2021-07-20 16:36:56Z, 6cda8203-a249-e411-b0cc-f8bc1246af59, $GPGGA,163655.00,4437.5851,N,12402.8908,W,1,09,1.0,22.0,M,-21.8,M,,*63
2021-07-20 16:36:58Z, 6cda8203-a249-e411-b0cc-f8bc1246af59, $GPGGA,163657.00,4437.5847,N,12402.8911,W,1,09,1.0,22.1,M,-21.8,M,,*6F
2021-07-20 16:36:59Z, 6cda8203-a249-e411-b0cc-f8bc1246af59, $GPGGA,163658.00,4437.5842,N,12402.8903,W,1,09,1.0,22.4,M,-21.8,M,,*63
2021-07-20 16:37:01Z, 6cda8203-a249-e411-b0cc-f8bc1246af59, $GPGGA,163700.00,4437.5839,N,12402.8898,W,1,09,1.0,22.0,M,-21.8,M,,*64
2021-07-20 16:37:02Z, 6cda8203-a249-e411-b0cc-f8bc1246af59, $GPGGA,163701.00,4437.5837,N,12402.8892,W,1,09,1.0,22.0,M,-21.8,M,,*61
2021-07-20 16:37:04Z, 6cda8203-a249-e411-b0cc-f8bc1246af59, $GPGGA,163703.00,4437.5834,N,12402.8888,W,1,09,1.0,21.8,M,-21.8,M,,*60
2021-07-20 16:37:05Z, 6cda8203-a249-e411-b0cc-f8bc1246af59, $GPGGA,163704.00,4437.5835,N,12402.8890,W,1,09,1.0,21.8,M,-21.8,M,,*6F
2021-07-20 16:37:07Z, 6cda8203-a249-e411-b0cc-f8bc1246af59, $GPGGA,163706.00,4437.5837,N,12402.8890,W,1,09,1.0,21.6,M,-21.8,M,,*61
2021-07-20 16:37:08Z, 6cda8203-a249-e411-b0cc-f8bc1246af59, $GPGGA,163707.00,4437.5836,N,12402.8891,W,1,09,1.0,21.4,M,-21.8,M,,*62
2021-07-20 16:37:10Z, 6cda8203-a249-e411-b0cc-f8bc1246af59, $GPGGA,163709.00,4437.5834,N,12402.8888,W,1,09,1.0,21.3,M,-21.8,M,,*61
2021-07-20 16:37:11Z, 6cda8203-a249-e411-b0cc-f8bc1246af59, $GPGGA,163710.00,4437.5834,N,12402.8887,W,1,09,1.0,21.3,M,-21.8,M,,*66
2021-07-20 16:37:13Z, 6cda8203-a249-e411-b0cc-f8bc1246af59, $GPGGA,163712.00,4437.5835,N,12402.8886,W,1,09,1.0,21.2,M,-21.8,M,,*65
2021-07-20 16:37:14Z, 6cda8203-a249-e411-b0cc-f8bc1246af59, $GPGGA,163713.00,4437.5834,N,12402.8887,W,1,09,1.0,21.1,M,-21.8,M,,*67
2021-07-20 16:37:16Z, 6cda8203-a249-e411-b0cc-f8bc1246af59, $GPGGA,163715.00,4437.5836,N,12402.8886,W,1,09,1.0,21.2,M,-21.8,M,,*61
2021-07-20 16:37:17Z, 6cda8203-a249-e411-b0cc-f8bc1246af59, $GPGGA,163716.00,4437.5838,N,12402.8884,W,1,09,1.0,21.2,M,-21.8,M,,*6E
2021-07-20 16:37:19Z, 6cda8203-a249-e411-b0cc-f8bc1246af59, $GPGGA,163718.00,4437.5840,N,12402.8885,W,1,09,1.0,21.3,M,-21.8,M,,*6F
2021-07-20 16:37:20Z, 6cda8203-a249-e411-b0cc-f8bc1246af59, $GPGGA,163719.00,4437.5840,N,12402.8888,W,1,09,1.0,21.4,M,-21.8,M,,*64
2021-07-20 16:37:22Z, 6cda8203-a249-e411-b0cc-f8bc1246af59, $GPGGA,163721.00,4437.5842,N,12402.8892,W,1,09,1.0,21.5,M,-21.8,M,,*67
2021-07-20 16:37:23Z, 6cda8203-a249-e411-b0cc-f8bc1246af59, $GPGGA,163722.00,4437.5841,N,12402.8891,W,1,09,1.0,21.5,M,-21.8,M,,*64
2021-07-20 16:37:25Z, 6cda8203-a249-e411-b0cc-f8bc1246af59, $GPGGA,163724.00,4437.5843,N,12402.8888,W,1,09,1.0,21.4,M,-21.8,M,,*69
2021-07-20 16:37:26Z, 6cda8203-a249-e411-b0cc-f8bc1246af59, $GPGGA,163725.00,4437.5844,N,12402.8887,W,1,09,1.0,21.4,M,-21.8,M,,*60
2021-07-20 16:37:28Z, 6cda8203-a249-e411-b0cc-f8bc1246af59, $GPGGA,163727.00,4437.5846,N,12402.8887,W,1,09,1.0,21.5,M,-21.8,M,,*61
2021-07-20 16:37:29Z, 6cda8203-a249-e411-b0cc-f8bc1246af59, $GPGGA,163728.00,4437.5847,N,12402.8887,W,1,09,1.0,21.5,M,-21.8,M,,*6F
2021-07-20 16:37:31Z, 6cda8203-a249-e411-b0cc-f8bc1246af59, $GPGGA,163730.00,4437.5849,N,12402.8886,W,1,09,1.0,21.5,M,-21.8,M,,*69
2021-07-20 16:37:32Z, 6cda8203-a249-e411-b0cc-f8bc1246af59, $GPGGA,163731.00,4437.5849,N,12402.8886,W,1,09,1.0,21.7,M,-21.8,M,,*6A
2021-07-20 16:37:34Z, 6cda8203-a249-e411-b0cc-f8bc1246af59, $GPGGA,163733.00,4437.5849,N,12402.8883,W,1,09,1.0,21.8,M,-21.8,M,,*62
2021-07-20 16:37:35Z, 6cda8203-a249-e411-b0cc-f8bc1246af59, $GPGGA,163734.00,4437.5849,N,12402.8881,W,1,09,1.0,21.9,M,-21.8,M,,*66
2021-07-20 16:37:37Z, 6cda8203-a249-e411-b0cc-f8bc1246af59, $GPGGA,163736.00,4437.5849,N,12402.8883,W,1,09,1.0,21.9,M,-21.8,M,,*66
2021-07-20 16:37:38Z, 6cda8203-a249-e411-b0cc-f8bc1246af59, $GPGGA,163737.00,4437.5848,N,12402.8883,W,1,09,1.0,21.9,M,-21.8,M,,*66
2021-07-20 16:37:40Z, 6cda8203-a249-e411-b0cc-f8bc1246af59, $GPGGA,163739.00,4437.5848,N,12402.8880,W,1,09,1.0,21.9,M,-21.8,M,,*6B
2021-07-20 16:37:41Z, 6cda8203-a249-e411-b0cc-f8bc1246af59, $GPGGA,163740.00,4437.5849,N,12402.8879,W,1,09,1.0,22.0,M,-21.8,M,,*68
2021-07-20 16:37:43Z, 6cda8203-a249-e411-b0cc-f8bc1246af59, $GPGGA,163742.00,4437.5848,N,12402.8880,W,1,09,1.0,22.0,M,-21.8,M,,*6D
2021-07-20 16:37:44Z, 6cda8203-a249-e411-b0cc-f8bc1246af59, $GPGGA,163743.00,4437.5847,N,12402.8881,W,1,09,1.0,22.2,M,-21.8,M,,*60
2021-07-20 16:37:46Z, 6cda8203-a249-e411-b0cc-f8bc1246af59, $GPGGA,163745.00,4437.5848,N,12402.8882,W,1,09,1.0,22.1,M,-21.8,M,,*69
2021-07-20 16:37:47Z, 6cda8203-a249-e411-b0cc-f8bc1246af59, $GPGGA,163746.00,4437.5848,N,12402.8884,W,1,09,1.0,22.0,M,-21.8,M,,*6D
2021-07-20 16:37:49Z, 6cda8203-a249-e411-b0cc-f8bc1246af59, $GPGGA,163748.00,4437.5846,N,12402.8888,W,1,09,1.0,21.8,M,-21.8,M,,*6A
2021-07-20 16:37:50Z, 6cda8203-a249-e411-b0cc-f8bc1246af59, $GPGGA,163749.00,4437.5846,N,12402.8890,W,1,09,1.0,21.8,M,-21.8,M,,*62
2021-07-20 16:37:52Z, 6cda8203-a249-e411-b0cc-f8bc1246af59, $GPGGA,163751.00,4437.5844,N,12402.8891,W,1,09,1.0,21.8,M,-21.8,M,,*68
2021-07-20 16:37:53Z, 6cda8203-a249-e411-b0cc-f8bc1246af59, $GPGGA,163752.00,4437.5844,N,12402.8892,W,1,09,1.0,21.8,M,-21.8,M,,*68
2021-07-20 16:37:55Z, 6cda8203-a249-e411-b0cc-f8bc1246af59, $GPGGA,163754.00,4437.5843,N,12402.8903,W,1,09,1.0,22.1,M,-21.8,M,,*6A
2021-07-20 16:37:56Z, 6cda8203-a249-e411-b0cc-f8bc1246af59, $GPGGA,163755.00,4437.5843,N,12402.8905,W,1,09,1.0,22.1,M,-21.8,M,,*6D
2021-07-20 16:37:58Z, 6cda8203-a249-e411-b0cc-f8bc1246af59, $GPGGA,163757.00,4437.5846,N,12402.8907,W,1,09,1.0,22.3,M,-21.8,M,,*6A
2021-07-20 16:37:59Z, 6cda8203-a249-e411-b0cc-f8bc1246af59, $GPGGA,163758.00,4437.5847,N,12402.8907,W,1,09,1.0,22.5,M,-21.8,M,,*62
2021-07-20 16:38:01Z, 6cda8203-a249-e411-b0cc-f8bc1246af59, $GPGGA,163800.00,4437.5847,N,12402.8908,W,1,09,1.0,22.6,M,-21.8,M,,*6C
2021-07-20 16:38:02Z, 6cda8203-a249-e411-b0cc-f8bc1246af59, $GPGGA,163801.00,4437.5849,N,12402.8907,W,1,09,1.0,22.7,M,-21.8,M,,*6D
2021-07-20 16:38:04Z, 6cda8203-a249-e411-b0cc-f8bc1246af59, $GPGGA,163803.00,4437.5852,N,12402.8903,W,1,09,1.0,22.8,M,-21.8,M,,*6E
2021-07-20 16:38:05Z, 6cda8203-a249-e411-b0cc-f8bc1246af59, $GPGGA,163804.00,4437.5853,N,12402.8901,W,1,09,1.0,22.8,M,-21.8,M,,*6A
2021-07-20 16:38:07Z, 6cda8203-a249-e411-b0cc-f8bc1246af59, $GPGGA,163806.00,4437.5855,N,12402.8898,W,1,09,1.0,22.8,M,-21.8,M,,*6F
2021-07-20 16:38:08Z, 6cda8203-a249-e411-b0cc-f8bc1246af59, $GPGGA,163807.00,4437.5855,N,12402.8895,W,1,09,1.0,23.0,M,-21.8,M,,*6A
2021-07-20 16:38:10Z, 6cda8203-a249-e411-b0cc-f8bc1246af59, $GPGGA,163809.00,4437.5854,N,12402.8893,W,1,09,1.0,23.0,M,-21.8,M,,*63
2021-07-20 16:38:11Z, 6cda8203-a249-e411-b0cc-f8bc1246af59, $GPGGA,163810.00,4437.5854,N,12402.8891,W,1,09,1.0,23.1,M,-21.8,M,,*68
2021-07-20 16:38:13Z, 6cda8203-a249-e411-b0cc-f8bc1246af59, $GPGGA,163812.00,4437.5853,N,12402.8884,W,1,09,1.0,23.1,M,-21.8,M,,*69
2021-07-20 16:38:14Z, 6cda8203-a249-e411-b0cc-f8bc1246af59, $GPGGA,163813.00,4437.5854,N,12402.8881,W,1,09,1.0,23.1,M,-21.8,M,,*6A
2021-07-20 16:38:16Z, 6cda8203-a249-e411-b0cc-f8bc1246af59, $GPGGA,163815.00,4437.5850,N,12402.8876,W,1,09,1.0,23.1,M,-21.8,M,,*60
2021-07-20 16:38:17Z, 6cda8203-a249-e411-b0cc-f8bc1246af59, $GPGGA,163816.00,4437.5849,N,12402.8876,W,1,09,1.0,23.3,M,-21.8,M,,*69
2021-07-20 16:38:19Z, 6cda8203-a249-e411-b0cc-f8bc1246af59, $GPGGA,163818.00,4437.5849,N,12402.8879,W,1,09,1.0,23.3,M,-21.8,M,,*68
2021-07-20 16:38:20Z, 6cda8203-a249-e411-b0cc-f8bc1246af59, $GPGGA,163819.00,4437.5847,N,12402.8879,W,1,09,1.0,23.3,M,-21.8,M,,*67
2021-07-20 16:38:20Z, 6cda8203-a249-e411-b0cc-f8bc1246af59, $GPGGA,163820.00,4437.5847,N,12402.8878,W,1,09,1.0,23.2,M,-21.8,M,,*6D
2021-07-20 16:38:22Z, 6cda8203-a249-e411-b0cc-f8bc1246af59, $GPGGA,163821.00,4437.5846,N,12402.8879,W,1,09,1.0,23.1,M,-21.8,M,,*6F
2021-07-20 16:38:23Z, 6cda8203-a249-e411-b0cc-f8bc1246af59, $GPGGA,163822.00,4437.5845,N,12402.8883,W,1,09,1.0,23.1,M,-21.8,M,,*6A
2021-07-20 16:38:24Z, 6cda8203-a249-e411-b0cc-f8bc1246af59, $GPGGA,163823.00,4437.5845,N,12402.8883,W,1,09,1.0,23.2,M,-21.8,M,,*68
2021-07-20 16:38:25Z, 6cda8203-a249-e411-b0cc-f8bc1246af59, $GPGGA,163824.00,4437.5846,N,12402.8883,W,1,09,1.0,23.2,M,-21.8,M,,*6C
2021-07-20 16:38:27Z, 6cda8203-a249-e411-b0cc-f8bc1246af59, $GPGGA,163826.00,4437.5845,N,12402.8880,W,1,09,1.0,23.3,M,-21.8,M,,*6F
2021-07-20 16:38:28Z, 6cda8203-a249-e411-b0cc-f8bc1246af59, $GPGGA,163827.00,4437.5843,N,12402.8880,W,1,09,1.0,23.5,M,-21.8,M,,*6E
2021-07-20 16:38:30Z, 6cda8203-a249-e411-b0cc-f8bc1246af59, $GPGGA,163829.00,4437.5844,N,12402.8879,W,1,09,1.0,23.7,M,-21.8,M,,*63
2021-07-20 16:38:31Z, 6cda8203-a249-e411-b0cc-f8bc1246af59, $GPGGA,163830.00,4437.5843,N,12402.8879,W,1,09,1.0,23.8,M,-21.8,M,,*63
2021-07-20 16:38:33Z, 6cda8203-a249-e411-b0cc-f8bc1246af59, $GPGGA,163832.00,4437.5842,N,12402.8879,W,1,09,1.0,23.8,M,-21.8,M,,*60
2021-07-20 16:38:34Z, 6cda8203-a249-e411-b0cc-f8bc1246af59, $GPGGA,163833.00,4437.5842,N,12402.8878,W,1,09,1.0,23.7,M,-21.8,M,,*6F
2021-07-20 16:38:36Z, 6cda8203-a249-e411-b0cc-f8bc1246af59, $GPGGA,163835.00,4437.5842,N,12402.8877,W,1,09,1.0,23.7,M,-21.8,M,,*66
2021-07-20 16:38:37Z, 6cda8203-a249-e411-b0cc-f8bc1246af59, $GPGGA,163836.00,4437.5843,N,12402.8876,W,1,09,1.0,23.9,M,-21.8,M,,*6B
2021-07-20 16:38:39Z, 6cda8203-a249-e411-b0cc-f8bc1246af59, $GPGGA,163838.00,4437.5843,N,12402.8876,W,1,09,1.0,24.0,M,-21.8,M,,*6B
2021-07-20 16:38:40Z, 6cda8203-a249-e411-b0cc-f8bc1246af59, $GPGGA,163839.00,4437.5843,N,12402.8875,W,1,09,1.0,24.0,M,-21.8,M,,*69
2021-07-20 16:38:42Z, 6cda8203-a249-e411-b0cc-f8bc1246af59, $GPGGA,163841.00,4437.5843,N,12402.8871,W,1,09,1.0,24.0,M,-21.8,M,,*62
2021-07-20 16:38:43Z, 6cda8203-a249-e411-b0cc-f8bc1246af59, $GPGGA,163842.00,4437.5842,N,12402.8869,W,1,09,1.0,24.0,M,-21.8,M,,*69
2021-07-20 16:38:45Z, 6cda8203-a249-e411-b0cc-f8bc1246af59, $GPGGA,163844.00,4437.5840,N,12402.8863,W,1,09,1.0,23.9,M,-21.8,M,,*69
2021-07-20 16:38:46Z, 6cda8203-a249-e411-b0cc-f8bc1246af59, $GPGGA,163845.00,4437.5841,N,12402.8862,W,1,09,1.0,23.9,M,-21.8,M,,*68
2021-07-20 16:38:48Z, 6cda8203-a249-e411-b0cc-f8bc1246af59, $GPGGA,163847.00,4437.5843,N,12402.8857,W,1,09,1.0,23.9,M,-21.8,M,,*6E
2021-07-20 16:38:49Z, 6cda8203-a249-e411-b0cc-f8bc1246af59, $GPGGA,163848.00,4437.5843,N,12402.8856,W,1,09,1.0,23.9,M,-21.8,M,,*60
2021-07-20 16:38:51Z, 6cda8203-a249-e411-b0cc-f8bc1246af59, $GPGGA,163850.00,4437.5845,N,12402.8850,W,1,09,1.0,23.9,M,-21.8,M,,*69
2021-07-20 16:38:52Z, 6cda8203-a249-e411-b0cc-f8bc1246af59, $GPGGA,163851.00,4437.5846,N,12402.8848,W,1,09,1.0,23.9,M,-21.8,M,,*62
2021-07-20 16:38:54Z, 6cda8203-a249-e411-b0cc-f8bc1246af59, $GPGGA,163853.00,4437.5850,N,12402.8844,W,1,09,1.0,24.0,M,-21.8,M,,*65
2021-07-20 16:38:55Z, 6cda8203-a249-e411-b0cc-f8bc1246af59, $GPGGA,163854.00,4437.5850,N,12402.8842,W,1,09,1.0,24.2,M,-21.8,M,,*66
2021-07-20 16:38:57Z, 6cda8203-a249-e411-b0cc-f8bc1246af59, $GPGGA,163856.00,4437.5847,N,12402.8839,W,1,09,1.0,24.2,M,-21.8,M,,*6E
2021-07-20 16:38:58Z, 6cda8203-a249-e411-b0cc-f8bc1246af59, $GPGGA,163857.00,4437.5845,N,12402.8838,W,1,09,1.0,24.3,M,-21.8,M,,*6D
2021-07-20 16:39:00Z, 6cda8203-a249-e411-b0cc-f8bc1246af59, $GPGGA,163859.00,4437.5842,N,12402.8841,W,1,09,1.0,24.4,M,-21.8,M,,*6D
2021-07-20 16:39:01Z, 6cda8203-a249-e411-b0cc-f8bc1246af59, $GPGGA,163900.00,4437.5842,N,12402.8843,W,1,09,1.0,24.4,M,-21.8,M,,*62
2021-07-20 16:39:03Z, 6cda8203-a249-e411-b0cc-f8bc1246af59, $GPGGA,163902.00,4437.5842,N,12402.8844,W,1,09,1.0,24.5,M,-21.8,M,,*66
2021-07-20 16:39:04Z, 6cda8203-a249-e411-b0cc-f8bc1246af59, $GPGGA,163903.00,4437.5843,N,12402.8844,W,1,09,1.0,24.5,M,-21.8,M,,*66
2021-07-20 16:39:06Z, 6cda8203-a249-e411-b0cc-f8bc1246af59, $GPGGA,163905.00,4437.5841,N,12402.8845,W,1,09,1.0,24.5,M,-21.8,M,,*63
2021-07-20 16:39:07Z, 6cda8203-a249-e411-b0cc-f8bc1246af59, $GPGGA,163906.00,4437.5839,N,12402.8849,W,1,09,1.0,24.6,M,-21.8,M,,*60
2021-07-20 16:39:09Z, 6cda8203-a249-e411-b0cc-f8bc1246af59, $GPGGA,163908.00,4437.5839,N,12402.8852,W,1,09,1.0,24.7,M,-21.8,M,,*65
2021-07-20 16:39:10Z, 6cda8203-a249-e411-b0cc-f8bc1246af59, $GPGGA,163909.00,4437.5838,N,12402.8852,W,1,09,1.0,24.8,M,-21.8,M,,*6A
2021-07-20 16:39:12Z, 6cda8203-a249-e411-b0cc-f8bc1246af59, $GPGGA,163911.00,4437.5837,N,12402.8852,W,1,09,1.0,24.8,M,-21.8,M,,*6C
2021-07-20 16:39:13Z, 6cda8203-a249-e411-b0cc-f8bc1246af59, $GPGGA,163912.00,4437.5837,N,12402.8851,W,1,09,1.0,24.7,M,-21.8,M,,*63
2021-07-20 16:39:15Z, 6cda8203-a249-e411-b0cc-f8bc1246af59, $GPGGA,163914.00,4437.5839,N,12402.8853,W,1,09,1.0,24.7,M,-21.8,M,,*69
2021-07-20 16:39:16Z, 6cda8203-a249-e411-b0cc-f8bc1246af59, $GPGGA,163915.00,4437.5838,N,12402.8855,W,1,09,1.0,24.8,M,-21.8,M,,*60
2021-07-20 16:39:18Z, 6cda8203-a249-e411-b0cc-f8bc1246af59, $GPGGA,163917.00,4437.5841,N,12402.8859,W,1,09,1.0,24.9,M,-21.8,M,,*61
2021-07-20 16:39:19Z, 6cda8203-a249-e411-b0cc-f8bc1246af59, $GPGGA,163918.00,4437.5842,N,12402.8858,W,1,09,1.0,24.9,M,-21.8,M,,*6C
2021-07-20 16:39:21Z, 6cda8203-a249-e411-b0cc-f8bc1246af59, $GPGGA,163920.00,4437.5845,N,12402.8858,W,1,09,1.0,24.8,M,-21.8,M,,*61
2021-07-20 16:39:22Z, 6cda8203-a249-e411-b0cc-f8bc1246af59, $GPGGA,163921.00,4437.5846,N,12402.8858,W,1,09,1.0,24.6,M,-21.8,M,,*6D
2021-07-20 16:39:24Z, 6cda8203-a249-e411-b0cc-f8bc1246af59, $GPGGA,163923.00,4437.5847,N,12402.8860,W,1,09,1.0,24.3,M,-21.8,M,,*60
2021-07-20 16:39:25Z, 6cda8203-a249-e411-b0cc-f8bc1246af59, $GPGGA,163924.00,4437.5848,N,12402.8861,W,1,09,1.0,24.3,M,-21.8,M,,*69
2021-07-20 16:39:27Z, 6cda8203-a249-e411-b0cc-f8bc1246af59, $GPGGA,163926.00,4437.5848,N,12402.8863,W,1,09,1.0,24.2,M,-21.8,M,,*68
2021-07-20 16:39:28Z, 6cda8203-a249-e411-b0cc-f8bc1246af59, $GPGGA,163927.00,4437.5849,N,12402.8864,W,1,09,1.0,24.0,M,-21.8,M,,*6D
2021-07-20 16:39:30Z, 6cda8203-a249-e411-b0cc-f8bc1246af59, $GPGGA,163929.00,4437.5848,N,12402.8862,W,1,09,1.0,23.9,M,-21.8,M,,*6A
2021-07-20 16:39:31Z, 6cda8203-a249-e411-b0cc-f8bc1246af59, $GPGGA,163930.00,4437.5848,N,12402.8864,W,1,09,1.0,24.0,M,-21.8,M,,*6A
2021-07-20 16:39:33Z, 6cda8203-a249-e411-b0cc-f8bc1246af59, $GPGGA,163932.00,4437.5847,N,12402.8862,W,1,09,1.0,24.1,M,-21.8,M,,*60
2021-07-20 16:39:34Z, 6cda8203-a249-e411-b0cc-f8bc1246af59, $GPGGA,163933.00,4437.5845,N,12402.8862,W,1,09,1.0,24.1,M,-21.8,M,,*63
2021-07-20 16:39:36Z, 6cda8203-a249-e411-b0cc-f8bc1246af59, $GPGGA,163935.00,4437.5843,N,12402.8860,W,1,09,1.0,24.1,M,-21.8,M,,*61
2021-07-20 16:39:37Z, 6cda8203-a249-e411-b0cc-f8bc1246af59, $GPGGA,163936.00,4437.5842,N,12402.8860,W,1,09,1.0,24.2,M,-21.8,M,,*60
2021-07-20 16:39:39Z, 6cda8203-a249-e411-b0cc-f8bc1246af59, $GPGGA,163938.00,4437.5841,N,12402.8862,W,1,09,1.0,24.3,M,-21.8,M,,*6E
2021-07-20 16:39:40Z, 6cda8203-a249-e411-b0cc-f8bc1246af59, $GPGGA,163939.00,4437.5842,N,12402.8862,W,1,09,1.0,24.5,M,-21.8,M,,*6A
2021-07-20 16:39:42Z, 6cda8203-a249-e411-b0cc-f8bc1246af59, $GPGGA,163941.00,4437.5843,N,12402.8866,W,1,09,1.0,24.6,M,-21.8,M,,*63
2021-07-20 16:39:43Z, 6cda8203-a249-e411-b0cc-f8bc1246af59, $GPGGA,163942.00,4437.5843,N,12402.8867,W,1,09,1.0,24.7,M,-21.8,M,,*60
2021-07-20 16:39:45Z, 6cda8203-a249-e411-b0cc-f8bc1246af59, $GPGGA,163944.00,4437.5843,N,12402.8866,W,1,09,1.0,24.9,M,-21.8,M,,*69
2021-07-20 16:39:46Z, 6cda8203-a249-e411-b0cc-f8bc1246af59, $GPGGA,163945.00,4437.5844,N,12402.8867,W,1,09,1.0,25.0,M,-21.8,M,,*66
2021-07-20 16:39:48Z, 6cda8203-a249-e411-b0cc-f8bc1246af59, $GPGGA,163947.00,4437.5845,N,12402.8869,W,1,09,1.0,25.1,M,-21.8,M,,*6A
2021-07-20 16:39:49Z, 6cda8203-a249-e411-b0cc-f8bc1246af59, $GPGGA,163948.00,4437.5846,N,12402.8871,W,1,09,1.0,25.2,M,-21.8,M,,*6C
2021-07-20 16:39:51Z, 6cda8203-a249-e411-b0cc-f8bc1246af59, $GPGGA,163950.00,4437.5848,N,12402.8871,W,1,09,1.0,25.3,M,-21.8,M,,*6A
2021-07-20 16:39:52Z, 6cda8203-a249-e411-b0cc-f8bc1246af59, $GPGGA,163951.00,4437.5849,N,12402.8872,W,1,09,1.0,25.3,M,-21.8,M,,*69
2021-07-20 16:39:54Z, 6cda8203-a249-e411-b0cc-f8bc1246af59, $GPGGA,163953.00,4437.5847,N,12402.8873,W,1,09,1.0,25.2,M,-21.8,M,,*65
2021-07-20 16:39:55Z, 6cda8203-a249-e411-b0cc-f8bc1246af59, $GPGGA,163954.00,4437.5846,N,12402.8875,W,1,09,1.0,25.3,M,-21.8,M,,*64
2021-07-20 16:39:57Z, 6cda8203-a249-e411-b0cc-f8bc1246af59, $GPGGA,163956.00,4437.5845,N,12402.8877,W,1,09,1.0,25.3,M,-21.8,M,,*67
2021-07-20 16:39:58Z, 6cda8203-a249-e411-b0cc-f8bc1246af59, $GPGGA,163957.00,4437.5845,N,12402.8877,W,1,09,1.0,25.4,M,-21.8,M,,*61
2021-07-20 16:40:00Z, 6cda8203-a249-e411-b0cc-f8bc1246af59, $GPGGA,163959.00,4437.5844,N,12402.8879,W,1,09,1.0,25.4,M,-21.8,M,,*60
2021-07-20 16:40:01Z, 6cda8203-a249-e411-b0cc-f8bc1246af59, $GPGGA,164000.00,4437.5843,N,12402.8879,W,1,09,1.0,25.5,M,-21.8,M,,*64
2021-07-20 16:40:03Z, 6cda8203-a249-e411-b0cc-f8bc1246af59, $GPGGA,164002.00,4437.5843,N,12402.8880,W,1,09,1.0,25.5,M,-21.8,M,,*60
2021-07-20 16:40:04Z, 6cda8203-a249-e411-b0cc-f8bc1246af59, $GPGGA,164003.00,4437.5842,N,12402.8881,W,1,09,1.0,25.5,M,-21.8,M,,*61
2021-07-20 16:40:06Z, 6cda8203-a249-e411-b0cc-f8bc1246af59, $GPGGA,164005.00,4437.5845,N,12402.8884,W,1,09,1.0,25.5,M,-21.8,M,,*65
2021-07-20 16:40:07Z, 6cda8203-a249-e411-b0cc-f8bc1246af59, $GPGGA,164006.00,4437.5845,N,12402.8883,W,1,09,1.0,25.4,M,-21.8,M,,*60
2021-07-20 16:40:09Z, 6cda8203-a249-e411-b0cc-f8bc1246af59, $GPGGA,164008.00,4437.5845,N,12402.8881,W,1,09,1.0,25.5,M,-21.8,M,,*6D
2021-07-20 16:40:10Z, 6cda8203-a249-e411-b0cc-f8bc1246af59, $GPGGA,164009.00,4437.5845,N,12402.8880,W,1,09,1.0,25.5,M,-21.8,M,,*6D
2021-07-20 16:40:12Z, 6cda8203-a249-e411-b0cc-f8bc1246af59, $GPGGA,164011.00,4437.5849,N,12402.8880,W,1,09,1.0,25.5,M,-21.8,M,,*68
2021-07-20 16:40:13Z, 6cda8203-a249-e411-b0cc-f8bc1246af59, $GPGGA,164012.00,4437.5849,N,12402.8880,W,1,09,1.0,25.5,M,-21.8,M,,*6B
2021-07-20 16:40:15Z, 6cda8203-a249-e411-b0cc-f8bc1246af59, $GPGGA,164014.00,4437.5849,N,12402.8880,W,1,09,1.0,25.5,M,-21.8,M,,*6D
2021-07-20 16:40:16Z, 6cda8203-a249-e411-b0cc-f8bc1246af59, $GPGGA,164015.00,4437.5849,N,12402.8880,W,1,09,1.0,25.5,M,-21.8,M,,*6C
2021-07-20 16:40:18Z, 6cda8203-a249-e411-b0cc-f8bc1246af59, $GPGGA,164017.00,4437.5850,N,12402.8880,W,1,09,1.0,25.5,M,-21.8,M,,*66
2021-07-20 16:40:19Z, 6cda8203-a249-e411-b0cc-f8bc1246af59, $GPGGA,164018.00,4437.5853,N,12402.8878,W,1,09,1.0,25.5,M,-21.8,M,,*6D
2021-07-20 16:40:21Z, 6cda8203-a249-e411-b0cc-f8bc1246af59, $GPGGA,164020.00,4437.5856,N,12402.8878,W,1,09,1.0,25.4,M,-21.8,M,,*62
2021-07-20 16:40:22Z, 6cda8203-a249-e411-b0cc-f8bc1246af59, $GPGGA,164021.00,4437.5856,N,12402.8879,W,1,09,1.0,25.4,M,-21.8,M,,*62
2021-07-20 16:40:24Z, 6cda8203-a249-e411-b0cc-f8bc1246af59, $GPGGA,164023.00,4437.5858,N,12402.8878,W,1,09,1.0,25.3,M,-21.8,M,,*68
2021-07-20 16:40:25Z, 6cda8203-a249-e411-b0cc-f8bc1246af59, $GPGGA,164024.00,4437.5858,N,12402.8877,W,1,09,1.0,25.1,M,-21.8,M,,*62
2021-07-20 16:40:25Z, 6cda8203-a249-e411-b0cc-f8bc1246af59, $GPGGA,164025.00,4437.5856,N,12402.8879,W,1,09,1.0,24.9,M,-21.8,M,,*6A
2021-07-20 16:40:27Z, 6cda8203-a249-e411-b0cc-f8bc1246af59, $GPGGA,164026.00,4437.5856,N,12402.8878,W,1,09,1.0,24.8,M,-21.8,M,,*69
2021-07-20 16:40:28Z, 6cda8203-a249-e411-b0cc-f8bc1246af59, $GPGGA,164027.00,4437.5856,N,12402.8877,W,1,09,1.0,24.7,M,-21.8,M,,*68
2021-07-20 16:40:29Z, 6cda8203-a249-e411-b0cc-f8bc1246af59, $GPGGA,164028.00,4437.5855,N,12402.8876,W,1,09,1.0,24.6,M,-21.8,M,,*64
2021-07-20 16:40:31Z, 6cda8203-a249-e411-b0cc-f8bc1246af59, $GPGGA,164029.00,4437.5856,N,12402.8876,W,1,09,1.0,24.6,M,-21.8,M,,*66
2021-07-20 16:40:32Z, 6cda8203-a249-e411-b0cc-f8bc1246af59, $GPGGA,164031.00,4437.5858,N,12402.8876,W,1,09,1.0,24.5,M,-21.8,M,,*62
2021-07-20 16:40:33Z, 6cda8203-a249-e411-b0cc-f8bc1246af59, $GPGGA,164032.00,4437.5860,N,12402.8875,W,1,09,1.0,24.3,M,-21.8,M,,*6F
2021-07-20 16:40:35Z, 6cda8203-a249-e411-b0cc-f8bc1246af59, $GPGGA,164034.00,4437.5862,N,12402.8873,W,1,09,1.0,24.2,M,-21.8,M,,*6C
2021-07-20 16:40:36Z, 6cda8203-a249-e411-b0cc-f8bc1246af59, $GPGGA,164035.00,4437.5863,N,12402.8873,W,1,09,1.0,24.0,M,-21.8,M,,*6E
2021-07-20 16:40:38Z, 6cda8203-a249-e411-b0cc-f8bc1246af59, $GPGGA,164037.00,4437.5865,N,12402.8871,W,1,10,0.8,23.9,M,-21.8,M,,*67
2021-07-20 16:40:39Z, 6cda8203-a249-e411-b0cc-f8bc1246af59, $GPGGA,164038.00,4437.5867,N,12402.8872,W,1,10,0.8,23.6,M,-21.8,M,,*66
2021-07-20 16:40:41Z, 6cda8203-a249-e411-b0cc-f8bc1246af59, $GPGGA,164040.00,4437.5871,N,12402.8872,W,1,10,0.8,23.3,M,-21.8,M,,*6B
2021-07-20 16:40:42Z, 6cda8203-a249-e411-b0cc-f8bc1246af59, $GPGGA,164041.00,4437.5871,N,12402.8872,W,1,10,0.8,23.1,M,-21.8,M,,*68
2021-07-20 16:40:44Z, 6cda8203-a249-e411-b0cc-f8bc1246af59, $GPGGA,164043.00,4437.5874,N,12402.8873,W,1,10,0.8,22.9,M,-21.8,M,,*67
2021-07-20 16:40:45Z, 6cda8203-a249-e411-b0cc-f8bc1246af59, $GPGGA,164044.00,4437.5874,N,12402.8874,W,1,10,0.8,23.0,M,-21.8,M,,*6F
2021-07-20 16:40:47Z, 6cda8203-a249-e411-b0cc-f8bc1246af59, $GPGGA,164046.00,4437.5874,N,12402.8873,W,1,10,0.8,23.2,M,-21.8,M,,*68
2021-07-20 16:40:48Z, 6cda8203-a249-e411-b0cc-f8bc1246af59, $GPGGA,164047.00,4437.5874,N,12402.8874,W,1,10,0.8,23.3,M,-21.8,M,,*6F
2021-07-20 16:40:50Z, 6cda8203-a249-e411-b0cc-f8bc1246af59, $GPGGA,164049.00,4437.5871,N,12402.8877,W,1,10,0.8,23.8,M,-21.8,M,,*6C
2021-07-20 16:40:51Z, 6cda8203-a249-e411-b0cc-f8bc1246af59, $GPGGA,164050.00,4437.5870,N,12402.8879,W,1,10,0.8,24.0,M,-21.8,M,,*64
2021-07-20 16:40:53Z, 6cda8203-a249-e411-b0cc-f8bc1246af59, $GPGGA,164052.00,4437.5870,N,12402.8881,W,1,10,0.8,24.2,M,-21.8,M,,*63
2021-07-20 16:40:54Z, 6cda8203-a249-e411-b0cc-f8bc1246af59, $GPGGA,164053.00,4437.5869,N,12402.8882,W,1,10,0.8,24.3,M,-21.8,M,,*68
2021-07-20 16:40:56Z, 6cda8203-a249-e411-b0cc-f8bc1246af59, $GPGGA,164055.00,4437.5867,N,12402.8882,W,1,10,0.8,24.5,M,-21.8,M,,*66
2021-07-20 16:40:57Z, 6cda8203-a249-e411-b0cc-f8bc1246af59, $GPGGA,164056.00,4437.5866,N,12402.8882,W,1,10,0.8,24.5,M,-21.8,M,,*64
2021-07-20 16:40:59Z, 6cda8203-a249-e411-b0cc-f8bc1246af59, $GPGGA,164058.00,4437.5865,N,12402.8880,W,1,10,0.8,24.8,M,-21.8,M,,*66
2021-07-20 16:41:00Z, 6cda8203-a249-e411-b0cc-f8bc1246af59, $GPGGA,164059.00,4437.5863,N,12402.8879,W,1,10,0.8,24.9,M,-21.8,M,,*66
2021-07-20 16:41:02Z, 6cda8203-a249-e411-b0cc-f8bc1246af59, $GPGGA,164101.00,4437.5858,N,12402.8875,W,1,10,0.8,25.1,M,-21.8,M,,*67
2021-07-20 16:41:03Z, 6cda8203-a249-e411-b0cc-f8bc1246af59, $GPGGA,164102.00,4437.5857,N,12402.8873,W,1,10,0.8,25.2,M,-21.8,M,,*6E
2021-07-20 16:41:05Z, 6cda8203-a249-e411-b0cc-f8bc1246af59, $GPGGA,164104.00,4437.5857,N,12402.8868,W,1,10,0.8,25.9,M,-21.8,M,,*69
2021-07-20 16:41:06Z, 6cda8203-a249-e411-b0cc-f8bc1246af59, $GPGGA,164105.00,4437.5856,N,12402.8865,W,1,10,0.8,26.0,M,-21.8,M,,*6E
2021-07-20 16:41:08Z, 6cda8203-a249-e411-b0cc-f8bc1246af59, $GPGGA,164107.00,4437.5855,N,12402.8863,W,1,10,0.8,26.3,M,-21.8,M,,*6A
2021-07-20 16:41:09Z, 6cda8203-a249-e411-b0cc-f8bc1246af59, $GPGGA,164108.00,4437.5854,N,12402.8863,W,1,10,0.8,26.3,M,-21.8,M,,*64
2021-07-20 16:41:11Z, 6cda8203-a249-e411-b0cc-f8bc1246af59, $GPGGA,164110.00,4437.5853,N,12402.8862,W,1,10,0.8,26.5,M,-21.8,M,,*6D
2021-07-20 16:41:12Z, 6cda8203-a249-e411-b0cc-f8bc1246af59, $GPGGA,164111.00,4437.5851,N,12402.8862,W,1,10,0.8,26.6,M,-21.8,M,,*6D
2021-07-20 16:41:14Z, 6cda8203-a249-e411-b0cc-f8bc1246af59, $GPGGA,164113.00,4437.5850,N,12402.8865,W,1,10,0.8,26.8,M,-21.8,M,,*67
2021-07-20 16:41:15Z, 6cda8203-a249-e411-b0cc-f8bc1246af59, $GPGGA,164114.00,4437.5849,N,12402.8867,W,1,10,0.8,26.8,M,-21.8,M,,*6A
2021-07-20 16:41:17Z, 6cda8203-a249-e411-b0cc-f8bc1246af59, $GPGGA,164116.00,4437.5849,N,12402.8872,W,1,10,0.8,27.1,M,-21.8,M,,*64
2021-07-20 16:41:18Z, 6cda8203-a249-e411-b0cc-f8bc1246af59, $GPGGA,164117.00,4437.5849,N,12402.8872,W,1,10,0.8,27.1,M,-21.8,M,,*65
2021-07-20 16:41:20Z, 6cda8203-a249-e411-b0cc-f8bc1246af59, $GPGGA,164119.00,4437.5851,N,12402.8873,W,1,10,0.8,27.2,M,-21.8,M,,*60
2021-07-20 16:41:21Z, 6cda8203-a249-e411-b0cc-f8bc1246af59, $GPGGA,164120.00,4437.5852,N,12402.8873,W,1,10,0.8,27.3,M,-21.8,M,,*68
2021-07-20 16:41:23Z, 6cda8203-a249-e411-b0cc-f8bc1246af59, $GPGGA,164122.00,4437.5853,N,12402.8874,W,1,10,0.8,27.3,M,-21.8,M,,*6C
2021-07-20 16:41:24Z, 6cda8203-a249-e411-b0cc-f8bc1246af59, $GPGGA,164123.00,4437.5853,N,12402.8875,W,1,10,0.8,27.3,M,-21.8,M,,*6C
2021-07-20 16:41:26Z, 6cda8203-a249-e411-b0cc-f8bc1246af59, $GPGGA,164125.00,4437.5855,N,12402.8872,W,1,10,0.8,27.4,M,-21.8,M,,*6C
2021-07-20 16:41:27Z, 6cda8203-a249-e411-b0cc-f8bc1246af59, $GPGGA,164126.00,4437.5854,N,12402.8871,W,1,10,0.8,27.5,M,-21.8,M,,*6C
2021-07-20 16:41:29Z, 6cda8203-a249-e411-b0cc-f8bc1246af59, $GPGGA,164128.00,4437.5855,N,12402.8872,W,1,10,0.8,27.8,M,-21.8,M,,*6D
2021-07-20 16:41:30Z, 6cda8203-a249-e411-b0cc-f8bc1246af59, $GPGGA,164129.00,4437.5853,N,12402.8873,W,1,10,0.8,27.9,M,-21.8,M,,*6A
2021-07-20 16:41:32Z, 6cda8203-a249-e411-b0cc-f8bc1246af59, $GPGGA,164131.00,4437.5854,N,12402.8874,W,1,10,0.8,28.1,M,-21.8,M,,*64
2021-07-20 16:41:33Z, 6cda8203-a249-e411-b0cc-f8bc1246af59, $GPGGA,164132.00,4437.5855,N,12402.8871,W,1,10,0.8,28.2,M,-21.8,M,,*60
2021-07-20 16:41:35Z, 6cda8203-a249-e411-b0cc-f8bc1246af59, $GPGGA,164134.00,4437.5856,N,12402.8866,W,1,10,0.8,28.2,M,-21.8,M,,*63
2021-07-20 16:41:36Z, 6cda8203-a249-e411-b0cc-f8bc1246af59, $GPGGA,164135.00,4437.5857,N,12402.8863,W,1,10,0.8,28.2,M,-21.8,M,,*66
2021-07-20 16:41:38Z, 6cda8203-a249-e411-b0cc-f8bc1246af59, $GPGGA,164137.00,4437.5857,N,12402.8859,W,1,10,0.8,28.3,M,-21.8,M,,*6C
2021-07-20 16:41:39Z, 6cda8203-a249-e411-b0cc-f8bc1246af59, $GPGGA,164138.00,4437.5858,N,12402.8858,W,1,10,0.8,28.3,M,-21.8,M,,*6D
2021-07-20 16:41:41Z, 6cda8203-a249-e411-b0cc-f8bc1246af59, $GPGGA,164140.00,4437.5856,N,12402.8857,W,1,10,0.8,28.4,M,-21.8,M,,*64
2021-07-20 16:41:42Z, 6cda8203-a249-e411-b0cc-f8bc1246af59, $GPGGA,164141.00,4437.5855,N,12402.8858,W,1,10,0.8,28.3,M,-21.8,M,,*6E
2021-07-20 16:41:44Z, 6cda8203-a249-e411-b0cc-f8bc1246af59, $GPGGA,164143.00,4437.5855,N,12402.8854,W,1,10,0.8,28.3,M,-21.8,M,,*60
2021-07-20 16:41:45Z, 6cda8203-a249-e411-b0cc-f8bc1246af59, $GPGGA,164144.00,4437.5855,N,12402.8852,W,1,10,0.8,28.3,M,-21.8,M,,*61
2021-07-20 16:41:47Z, 6cda8203-a249-e411-b0cc-f8bc1246af59, $GPGGA,164146.00,4437.5855,N,12402.8851,W,1,10,0.8,28.3,M,-21.8,M,,*60
2021-07-20 16:41:48Z, 6cda8203-a249-e411-b0cc-f8bc1246af59, $GPGGA,164147.00,4437.5854,N,12402.8851,W,1,10,0.8,28.4,M,-21.8,M,,*67
2021-07-20 16:41:50Z, 6cda8203-a249-e411-b0cc-f8bc1246af59, $GPGGA,164149.00,4437.5852,N,12402.8850,W,1,10,0.8,28.6,M,-21.8,M,,*6C
2021-07-20 16:41:51Z, 6cda8203-a249-e411-b0cc-f8bc1246af59, $GPGGA,164150.00,4437.5851,N,12402.8852,W,1,10,0.8,28.8,M,-21.8,M,,*6B
2021-07-20 16:41:53Z, 6cda8203-a249-e411-b0cc-f8bc1246af59, $GPGGA,164152.00,4437.5850,N,12402.8853,W,1,10,0.8,29.1,M,-21.8,M,,*61
2021-07-20 16:41:54Z, 6cda8203-a249-e411-b0cc-f8bc1246af59, $GPGGA,164153.00,4437.5849,N,12402.8854,W,1,09,0.8,29.2,M,-21.8,M,,*64
2021-07-20 16:41:56Z, 6cda8203-a249-e411-b0cc-f8bc1246af59, $GPGGA,164155.00,4437.5848,N,12402.8852,W,1,10,0.8,29.5,M,-21.8,M,,*6A
2021-07-20 16:41:57Z, 6cda8203-a249-e411-b0cc-f8bc1246af59, $GPGGA,164156.00,4437.5848,N,12402.8851,W,1,10,0.8,29.7,M,-21.8,M,,*68
2021-07-20 16:41:59Z, 6cda8203-a249-e411-b0cc-f8bc1246af59, $GPGGA,164158.00,4437.5846,N,12402.8849,W,1,10,0.8,29.9,M,-21.8,M,,*6F
2021-07-20 16:42:00Z, 6cda8203-a249-e411-b0cc-f8bc1246af59, $GPGGA,164159.00,4437.5844,N,12402.8847,W,1,10,0.8,30.0,M,-21.8,M,,*63
2021-07-20 16:42:02Z, 6cda8203-a249-e411-b0cc-f8bc1246af59, $GPGGA,164201.00,4437.5844,N,12402.8850,W,1,10,0.8,29.8,M,-21.8,M,,*6B
2021-07-20 16:42:03Z, 6cda8203-a249-e411-b0cc-f8bc1246af59, $GPGGA,164202.00,4437.5844,N,12402.8851,W,1,10,0.8,29.9,M,-21.8,M,,*68
2021-07-20 16:42:05Z, 6cda8203-a249-e411-b0cc-f8bc1246af59, $GPGGA,164204.00,4437.5842,N,12402.8854,W,1,10,0.8,30.0,M,-21.8,M,,*6C
2021-07-20 16:42:06Z, 6cda8203-a249-e411-b0cc-f8bc1246af59, $GPGGA,164205.00,4437.5842,N,12402.8853,W,1,10,0.8,30.0,M,-21.8,M,,*6A
2021-07-20 16:42:08Z, 6cda8203-a249-e411-b0cc-f8bc1246af59, $GPGGA,164207.00,4437.5844,N,12402.8855,W,1,10,0.8,29.9,M,-21.8,M,,*69
2021-07-20 16:42:09Z, 6cda8203-a249-e411-b0cc-f8bc1246af59, $GPGGA,164208.00,4437.5846,N,12402.8856,W,1,10,0.8,29.9,M,-21.8,M,,*67
2021-07-20 16:42:11Z, 6cda8203-a249-e411-b0cc-f8bc1246af59, $GPGGA,164210.00,4437.5849,N,12402.8857,W,1,10,0.8,29.9,M,-21.8,M,,*60
2021-07-20 16:42:12Z, 6cda8203-a249-e411-b0cc-f8bc1246af59, $GPGGA,164211.00,4437.5850,N,12402.8858,W,1,10,0.8,29.8,M,-21.8,M,,*67
2021-07-20 16:42:14Z, 6cda8203-a249-e411-b0cc-f8bc1246af59, $GPGGA,164213.00,4437.5851,N,12402.8858,W,1,10,0.8,29.8,M,-21.8,M,,*64
2021-07-20 16:42:15Z, 6cda8203-a249-e411-b0cc-f8bc1246af59, $GPGGA,164214.00,4437.5852,N,12402.8859,W,1,10,0.8,29.8,M,-21.8,M,,*61
2021-07-20 16:42:17Z, 6cda8203-a249-e411-b0cc-f8bc1246af59, $GPGGA,164216.00,4437.5848,N,12402.8860,W,1,10,0.8,29.7,M,-21.8,M,,*6D
2021-07-20 16:42:18Z, 6cda8203-a249-e411-b0cc-f8bc1246af59, $GPGGA,164217.00,4437.5845,N,12402.8860,W,1,10,0.8,29.6,M,-21.8,M,,*60
2021-07-20 16:42:20Z, 6cda8203-a249-e411-b0cc-f8bc1246af59, $GPGGA,164219.00,4437.5842,N,12402.8861,W,1,10,0.8,29.5,M,-21.8,M,,*6B
2021-07-20 16:42:21Z, 6cda8203-a249-e411-b0cc-f8bc1246af59, $GPGGA,164220.00,4437.5841,N,12402.8860,W,1,10,0.8,29.5,M,-21.8,M,,*63
2021-07-20 16:42:23Z, 6cda8203-a249-e411-b0cc-f8bc1246af59, $GPGGA,164222.00,4437.5843,N,12402.8859,W,1,10,0.8,29.3,M,-21.8,M,,*6F
2021-07-20 16:42:24Z, 6cda8203-a249-e411-b0cc-f8bc1246af59, $GPGGA,164223.00,4437.5844,N,12402.8857,W,1,10,0.8,29.4,M,-21.8,M,,*60
2021-07-20 16:42:26Z, 6cda8203-a249-e411-b0cc-f8bc1246af59, $GPGGA,164225.00,4437.5844,N,12402.8858,W,1,10,0.8,29.3,M,-21.8,M,,*6E
2021-07-20 16:42:27Z, 6cda8203-a249-e411-b0cc-f8bc1246af59, $GPGGA,164226.00,4437.5848,N,12402.8862,W,1,10,0.8,29.0,M,-21.8,M,,*6B
2021-07-20 16:42:29Z, 6cda8203-a249-e411-b0cc-f8bc1246af59, $GPGGA,164228.00,4437.5847,N,12402.8863,W,1,10,0.8,28.9,M,-21.8,M,,*63
2021-07-20 16:42:30Z, 6cda8203-a249-e411-b0cc-f8bc1246af59, $GPGGA,164229.00,4437.5848,N,12402.8864,W,1,10,0.8,28.8,M,-21.8,M,,*6B
2021-07-20 16:42:30Z, 6cda8203-a249-e411-b0cc-f8bc1246af59, $GPGGA,164230.00,4437.5848,N,12402.8864,W,1,10,0.8,28.8,M,-21.8,M,,*63
2021-07-20 16:42:32Z, 6cda8203-a249-e411-b0cc-f8bc1246af59, $GPGGA,164231.00,4437.5847,N,12402.8865,W,1,10,0.8,28.8,M,-21.8,M,,*6C
2021-07-20 16:42:33Z, 6cda8203-a249-e411-b0cc-f8bc1246af59, $GPGGA,164232.00,4437.5847,N,12402.8865,W,1,10,0.8,28.7,M,-21.8,M,,*60
2021-07-20 16:42:34Z, 6cda8203-a249-e411-b0cc-f8bc1246af59, $GPGGA,164233.00,4437.5846,N,12402.8866,W,1,10,0.8,28.7,M,-21.8,M,,*63
2021-07-20 16:42:35Z, 6cda8203-a249-e411-b0cc-f8bc1246af59, $GPGGA,164234.00,4437.5848,N,12402.8866,W,1,10,0.8,28.6,M,-21.8,M,,*6B
2021-07-20 16:42:37Z, 6cda8203-a249-e411-b0cc-f8bc1246af59, $GPGGA,164236.00,4437.5849,N,12402.8863,W,1,10,0.8,28.3,M,-21.8,M,,*68
2021-07-20 16:42:38Z, 6cda8203-a249-e411-b0cc-f8bc1246af59, $GPGGA,164237.00,4437.5848,N,12402.8862,W,1,10,0.8,28.3,M,-21.8,M,,*69
2021-07-20 16:42:40Z, 6cda8203-a249-e411-b0cc-f8bc1246af59, $GPGGA,164239.00,4437.5847,N,12402.8862,W,1,10,0.8,28.2,M,-21.8,M,,*69
2021-07-20 16:42:41Z, 6cda8203-a249-e411-b0cc-f8bc1246af59, $GPGGA,164240.00,4437.5847,N,12402.8863,W,1,10,0.8,28.1,M,-21.8,M,,*65
2021-07-20 16:42:43Z, 6cda8203-a249-e411-b0cc-f8bc1246af59, $GPGGA,164242.00,4437.5847,N,12402.8859,W,1,10,0.8,27.9,M,-21.8,M,,*69
2021-07-20 16:42:44Z, 6cda8203-a249-e411-b0cc-f8bc1246af59, $GPGGA,164243.00,4437.5846,N,12402.8858,W,1,10,0.8,28.0,M,-21.8,M,,*6E
2021-07-20 16:42:46Z, 6cda8203-a249-e411-b0cc-f8bc1246af59, $GPGGA,164245.00,4437.5846,N,12402.8862,W,1,10,0.8,28.1,M,-21.8,M,,*60
2021-07-20 16:42:47Z, 6cda8203-a249-e411-b0cc-f8bc1246af59, $GPGGA,164246.00,4437.5848,N,12402.8864,W,1,10,0.8,28.1,M,-21.8,M,,*6B
2021-07-20 16:42:49Z, 6cda8203-a249-e411-b0cc-f8bc1246af59, $GPGGA,164248.00,4437.5850,N,12402.8864,W,1,10,0.8,28.0,M,-21.8,M,,*6D
2021-07-20 16:42:50Z, 6cda8203-a249-e411-b0cc-f8bc1246af59, $GPGGA,164249.00,4437.5851,N,12402.8864,W,1,10,0.8,27.8,M,-21.8,M,,*6A
2021-07-20 16:42:52Z, 6cda8203-a249-e411-b0cc-f8bc1246af59, $GPGGA,164251.00,4437.5854,N,12402.8866,W,1,10,0.8,27.7,M,-21.8,M,,*6B
2021-07-20 16:42:53Z, 6cda8203-a249-e411-b0cc-f8bc1246af59, $GPGGA,164252.00,4437.5855,N,12402.8866,W,1,10,0.8,27.6,M,-21.8,M,,*68
2021-07-20 16:42:55Z, 6cda8203-a249-e411-b0cc-f8bc1246af59, $GPGGA,164254.00,4437.5855,N,12402.8867,W,1,10,0.8,27.5,M,-21.8,M,,*6C
2021-07-20 16:42:56Z, 6cda8203-a249-e411-b0cc-f8bc1246af59, $GPGGA,164255.00,4437.5855,N,12402.8869,W,1,10,0.8,27.5,M,-21.8,M,,*63
2021-07-20 16:42:58Z, 6cda8203-a249-e411-b0cc-f8bc1246af59, $GPGGA,164257.00,4437.5853,N,12402.8870,W,1,10,0.8,27.4,M,-21.8,M,,*6E
2021-07-20 16:42:59Z, 6cda8203-a249-e411-b0cc-f8bc1246af59, $GPGGA,164258.00,4437.5854,N,12402.8871,W,1,10,0.8,27.4,M,-21.8,M,,*67
2021-07-20 16:43:01Z, 6cda8203-a249-e411-b0cc-f8bc1246af59, $GPGGA,164300.00,4437.5851,N,12402.8873,W,1,10,0.8,27.4,M,-21.8,M,,*6C
2021-07-20 16:43:02Z, 6cda8203-a249-e411-b0cc-f8bc1246af59, $GPGGA,164301.00,4437.5851,N,12402.8871,W,1,10,0.8,27.4,M,-21.8,M,,*6F
2021-07-20 16:43:04Z, 6cda8203-a249-e411-b0cc-f8bc1246af59, $GPGGA,164303.00,4437.5851,N,12402.8871,W,1,10,0.8,27.3,M,-21.8,M,,*6A
2021-07-20 16:43:05Z, 6cda8203-a249-e411-b0cc-f8bc1246af59, $GPGGA,164304.00,4437.5853,N,12402.8870,W,1,10,0.8,27.2,M,-21.8,M,,*6F
2021-07-20 16:43:07Z, 6cda8203-a249-e411-b0cc-f8bc1246af59, $GPGGA,164306.00,4437.5853,N,12402.8871,W,1,10,0.8,27.2,M,-21.8,M,,*6C
2021-07-20 16:43:08Z, 6cda8203-a249-e411-b0cc-f8bc1246af59, $GPGGA,164307.00,4437.5854,N,12402.8872,W,1,10,0.8,27.2,M,-21.8,M,,*69
2021-07-20 16:43:10Z, 6cda8203-a249-e411-b0cc-f8bc1246af59, $GPGGA,164309.00,4437.5857,N,12402.8873,W,1,10,0.8,27.1,M,-21.8,M,,*66
2021-07-20 16:43:11Z, 6cda8203-a249-e411-b0cc-f8bc1246af59, $GPGGA,164310.00,4437.5858,N,12402.8873,W,1,10,0.8,27.1,M,-21.8,M,,*61
2021-07-20 16:43:13Z, 6cda8203-a249-e411-b0cc-f8bc1246af59, $GPGGA,164312.00,4437.5858,N,12402.8873,W,1,10,0.8,26.9,M,-21.8,M,,*6A
2021-07-20 16:43:14Z, 6cda8203-a249-e411-b0cc-f8bc1246af59, $GPGGA,164313.00,4437.5861,N,12402.8876,W,1,10,0.8,26.6,M,-21.8,M,,*6B
2021-07-20 16:43:16Z, 6cda8203-a249-e411-b0cc-f8bc1246af59, $GPGGA,164315.00,4437.5862,N,12402.8879,W,1,10,0.8,26.5,M,-21.8,M,,*62
2021-07-20 16:43:17Z, 6cda8203-a249-e411-b0cc-f8bc1246af59, $GPGGA,164316.00,4437.5864,N,12402.8878,W,1,10,0.8,26.4,M,-21.8,M,,*67
2021-07-20 16:43:19Z, 6cda8203-a249-e411-b0cc-f8bc1246af59, $GPGGA,164318.00,4437.5867,N,12402.8879,W,1,10,0.8,26.1,M,-21.8,M,,*6E
2021-07-20 16:43:20Z, 6cda8203-a249-e411-b0cc-f8bc1246af59, $GPGGA,164319.00,4437.5866,N,12402.8879,W,1,10,0.8,26.1,M,-21.8,M,,*6E
2021-07-20 16:43:22Z, 6cda8203-a249-e411-b0cc-f8bc1246af59, $GPGGA,164321.00,4437.5866,N,12402.8879,W,1,10,0.8,26.1,M,-21.8,M,,*65
2021-07-20 16:43:23Z, 6cda8203-a249-e411-b0cc-f8bc1246af59, $GPGGA,164322.00,4437.5866,N,12402.8878,W,1,10,0.8,26.0,M,-21.8,M,,*66
2021-07-20 16:43:25Z, 6cda8203-a249-e411-b0cc-f8bc1246af59, $GPGGA,164324.00,4437.5868,N,12402.8879,W,1,10,0.8,25.8,M,-21.8,M,,*64
2021-07-20 16:43:26Z, 6cda8203-a249-e411-b0cc-f8bc1246af59, $GPGGA,164325.00,4437.5868,N,12402.8877,W,1,10,0.8,25.7,M,-21.8,M,,*64
2021-07-20 16:43:28Z, 6cda8203-a249-e411-b0cc-f8bc1246af59, $GPGGA,164327.00,4437.5867,N,12402.8877,W,1,10,0.8,25.5,M,-21.8,M,,*6B
2021-07-20 16:43:29Z, 6cda8203-a249-e411-b0cc-f8bc1246af59, $GPGGA,164328.00,4437.5867,N,12402.8877,W,1,10,0.8,25.4,M,-21.8,M,,*65
2021-07-20 16:43:31Z, 6cda8203-a249-e411-b0cc-f8bc1246af59, $GPGGA,164330.00,4437.5866,N,12402.8876,W,1,10,0.8,25.3,M,-21.8,M,,*6B
2021-07-20 16:43:32Z, 6cda8203-a249-e411-b0cc-f8bc1246af59, $GPGGA,164331.00,4437.5865,N,12402.8876,W,1,10,0.8,25.3,M,-21.8,M,,*69
2021-07-20 16:43:34Z, 6cda8203-a249-e411-b0cc-f8bc1246af59, $GPGGA,164333.00,4437.5862,N,12402.8880,W,1,10,0.8,25.1,M,-21.8,M,,*67
2021-07-20 16:43:35Z, 6cda8203-a249-e411-b0cc-f8bc1246af59, $GPGGA,164334.00,4437.5862,N,12402.8881,W,1,10,0.8,25.1,M,-21.8,M,,*61
2021-07-20 16:43:37Z, 6cda8203-a249-e411-b0cc-f8bc1246af59, $GPGGA,164336.00,4437.5863,N,12402.8882,W,1,10,0.8,24.9,M,-21.8,M,,*68
2021-07-20 16:43:38Z, 6cda8203-a249-e411-b0cc-f8bc1246af59, $GPGGA,164337.00,4437.5864,N,12402.8882,W,1,10,0.8,24.9,M,-21.8,M,,*6E
2021-07-20 16:43:40Z, 6cda8203-a249-e411-b0cc-f8bc1246af59, $GPGGA,164339.00,4437.5863,N,12402.8883,W,1,10,0.8,24.8,M,-21.8,M,,*67
2021-07-20 16:43:41Z, 6cda8203-a249-e411-b0cc-f8bc1246af59, $GPGGA,164340.00,4437.5862,N,12402.8885,W,1,10,0.8,24.8,M,-21.8,M,,*6E
2021-07-20 16:43:43Z, 6cda8203-a249-e411-b0cc-f8bc1246af59, $GPGGA,164342.00,4437.5859,N,12402.8888,W,1,10,0.8,24.9,M,-21.8,M,,*68
2021-07-20 16:43:44Z, 6cda8203-a249-e411-b0cc-f8bc1246af59, $GPGGA,164343.00,4437.5859,N,12402.8889,W,1,10,0.8,24.9,M,-21.8,M,,*68
2021-07-20 16:43:46Z, 6cda8203-a249-e411-b0cc-f8bc1246af59, $GPGGA,164345.00,4437.5855,N,12402.8892,W,1,10,0.8,24.9,M,-21.8,M,,*68
2021-07-20 16:43:47Z, 6cda8203-a249-e411-b0cc-f8bc1246af59, $GPGGA,164346.00,4437.5854,N,12402.8893,W,1,10,0.8,24.9,M,-21.8,M,,*6B
2021-07-20 16:43:49Z, 6cda8203-a249-e411-b0cc-f8bc1246af59, $GPGGA,164348.00,4437.5853,N,12402.8894,W,1,10,0.8,25.0,M,-21.8,M,,*6D
2021-07-20 16:43:50Z, 6cda8203-a249-e411-b0cc-f8bc1246af59, $GPGGA,164349.00,4437.5853,N,12402.8895,W,1,10,0.8,25.1,M,-21.8,M,,*6C
2021-07-20 16:43:52Z, 6cda8203-a249-e411-b0cc-f8bc1246af59, $GPGGA,164351.00,4437.5852,N,12402.8894,W,1,10,0.8,24.8,M,-21.8,M,,*6D
2021-07-20 16:43:53Z, 6cda8203-a249-e411-b0cc-f8bc1246af59, $GPGGA,164352.00,4437.5853,N,12402.8895,W,1,10,0.8,24.7,M,-21.8,M,,*61
2021-07-20 16:43:55Z, 6cda8203-a249-e411-b0cc-f8bc1246af59, $GPGGA,164354.00,4437.5852,N,12402.8895,W,1,10,0.8,24.4,M,-21.8,M,,*65
2021-07-20 16:43:56Z, 6cda8203-a249-e411-b0cc-f8bc1246af59, $GPGGA,164355.00,4437.5853,N,12402.8894,W,1,10,0.8,24.3,M,-21.8,M,,*63
2021-07-20 16:43:58Z, 6cda8203-a249-e411-b0cc-f8bc1246af59, $GPGGA,164357.00,4437.5856,N,12402.8898,W,1,10,0.8,23.7,M,-21.8,M,,*6B
2021-07-20 16:43:59Z, 6cda8203-a249-e411-b0cc-f8bc1246af59, $GPGGA,164358.00,4437.5857,N,12402.8897,W,1,10,0.8,23.5,M,-21.8,M,,*68
2021-07-20 16:44:01Z, 6cda8203-a249-e411-b0cc-f8bc1246af59, $GPGGA,164400.00,4437.5858,N,12402.8897,W,1,10,0.8,23.3,M,-21.8,M,,*6B
2021-07-20 16:44:02Z, 6cda8203-a249-e411-b0cc-f8bc1246af59, $GPGGA,164401.00,4437.5859,N,12402.8898,W,1,10,0.8,23.2,M,-21.8,M,,*65
2021-07-20 16:44:04Z, 6cda8203-a249-e411-b0cc-f8bc1246af59, $GPGGA,164403.00,4437.5864,N,12402.8897,W,1,10,0.8,22.8,M,-21.8,M,,*6D
2021-07-20 16:44:05Z, 6cda8203-a249-e411-b0cc-f8bc1246af59, $GPGGA,164404.00,4437.5863,N,12402.8897,W,1,10,0.8,22.7,M,-21.8,M,,*62
2021-07-20 16:44:07Z, 6cda8203-a249-e411-b0cc-f8bc1246af59, $GPGGA,164406.00,4437.5865,N,12402.8894,W,1,10,0.8,22.5,M,-21.8,M,,*67
2021-07-20 16:44:08Z, 6cda8203-a249-e411-b0cc-f8bc1246af59, $GPGGA,164407.00,4437.5867,N,12402.8891,W,1,10,0.8,22.5,M,-21.8,M,,*61
2021-07-20 16:44:10Z, 6cda8203-a249-e411-b0cc-f8bc1246af59, $GPGGA,164409.00,4437.5870,N,12402.8891,W,1,10,0.8,22.5,M,-21.8,M,,*69
2021-07-20 16:44:11Z, 6cda8203-a249-e411-b0cc-f8bc1246af59, $GPGGA,164410.00,4437.5869,N,12402.8889,W,1,10,0.8,22.5,M,-21.8,M,,*60
2021-07-20 16:44:13Z, 6cda8203-a249-e411-b0cc-f8bc1246af59, $GPGGA,164412.00,4437.5871,N,12402.8888,W,1,10,0.8,22.4,M,-21.8,M,,*6B
2021-07-20 16:44:14Z, 6cda8203-a249-e411-b0cc-f8bc1246af59, $GPGGA,164413.00,4437.5870,N,12402.8887,W,1,10,0.8,22.3,M,-21.8,M,,*63
2021-07-20 16:44:16Z, 6cda8203-a249-e411-b0cc-f8bc1246af59, $GPGGA,164415.00,4437.5870,N,12402.8886,W,1,10,0.8,22.1,M,-21.8,M,,*66
2021-07-20 16:44:17Z, 6cda8203-a249-e411-b0cc-f8bc1246af59, $GPGGA,164416.00,4437.5875,N,12402.8880,W,1,10,0.8,21.5,M,-21.8,M,,*61
2021-07-20 16:44:19Z, 6cda8203-a249-e411-b0cc-f8bc1246af59, $GPGGA,164418.00,4437.5876,N,12402.8876,W,1,10,0.8,21.1,M,-21.8,M,,*61
2021-07-20 16:44:20Z, 6cda8203-a249-e411-b0cc-f8bc1246af59, $GPGGA,164419.00,4437.5876,N,12402.8876,W,1,10,0.8,21.1,M,-21.8,M,,*60
2021-07-20 16:44:22Z, 6cda8203-a249-e411-b0cc-f8bc1246af59, $GPGGA,164421.00,4437.5878,N,12402.8878,W,1,10,0.8,21.2,M,-21.8,M,,*68
2021-07-20 16:44:23Z, 6cda8203-a249-e411-b0cc-f8bc1246af59, $GPGGA,164422.00,4437.5878,N,12402.8881,W,1,10,0.8,21.3,M,-21.8,M,,*6C
2021-07-20 16:44:25Z, 6cda8203-a249-e411-b0cc-f8bc1246af59, $GPGGA,164424.00,4437.5877,N,12402.8886,W,1,10,0.8,21.1,M,-21.8,M,,*60
2021-07-20 16:44:26Z, 6cda8203-a249-e411-b0cc-f8bc1246af59, $GPGGA,164425.00,4437.5875,N,12402.8888,W,1,10,0.8,21.1,M,-21.8,M,,*6D
2021-07-20 16:44:28Z, 6cda8203-a249-e411-b0cc-f8bc1246af59, $GPGGA,164427.00,4437.5877,N,12402.8890,W,1,10,0.8,21.0,M,-21.8,M,,*65
2021-07-20 16:44:29Z, 6cda8203-a249-e411-b0cc-f8bc1246af59, $GPGGA,164428.00,4437.5877,N,12402.8891,W,1,10,0.8,21.0,M,-21.8,M,,*6B
2021-07-20 16:44:31Z, 6cda8203-a249-e411-b0cc-f8bc1246af59, $GPGGA,164430.00,4437.5878,N,12402.8894,W,1,10,0.8,20.8,M,-21.8,M,,*61
2021-07-20 16:44:32Z, 6cda8203-a249-e411-b0cc-f8bc1246af59, $GPGGA,164431.00,4437.5879,N,12402.8894,W,1,10,0.8,20.8,M,-21.8,M,,*61
2021-07-20 16:44:34Z, 6cda8203-a249-e411-b0cc-f8bc1246af59, $GPGGA,164433.00,4437.5880,N,12402.8891,W,1,10,0.8,20.6,M,-21.8,M,,*6E
2021-07-20 16:44:35Z, 6cda8203-a249-e411-b0cc-f8bc1246af59, $GPGGA,164434.00,4437.5879,N,12402.8890,W,1,10,0.8,20.6,M,-21.8,M,,*6E
2021-07-20 16:44:35Z, 6cda8203-a249-e411-b0cc-f8bc1246af59, $GPGGA,164435.00,4437.5878,N,12402.8889,W,1,10,0.8,20.5,M,-21.8,M,,*65
2021-07-20 16:44:37Z, 6cda8203-a249-e411-b0cc-f8bc1246af59, $GPGGA,164436.00,4437.5877,N,12402.8888,W,1,10,0.8,20.6,M,-21.8,M,,*6B
2021-07-20 16:44:38Z, 6cda8203-a249-e411-b0cc-f8bc1246af59, $GPGGA,164437.00,4437.5878,N,12402.8889,W,1,10,0.8,20.6,M,-21.8,M,,*64
2021-07-20 16:44:39Z, 6cda8203-a249-e411-b0cc-f8bc1246af59, $GPGGA,164438.00,4437.5879,N,12402.8889,W,1,10,0.8,20.6,M,-21.8,M,,*6A
2021-07-20 16:44:40Z, 6cda8203-a249-e411-b0cc-f8bc1246af59, $GPGGA,164439.00,4437.5880,N,12402.8889,W,1,10,0.8,20.7,M,-21.8,M,,*6C
2021-07-20 16:44:42Z, 6cda8203-a249-e411-b0cc-f8bc1246af59, $GPGGA,164441.00,4437.5882,N,12402.8891,W,1,10,0.8,20.7,M,-21.8,M,,*68
2021-07-20 16:44:43Z, 6cda8203-a249-e411-b0cc-f8bc1246af59, $GPGGA,164442.00,4437.5887,N,12402.8886,W,1,10,0.8,20.6,M,-21.8,M,,*69
2021-07-20 16:44:45Z, 6cda8203-a249-e411-b0cc-f8bc1246af59, $GPGGA,164444.00,4437.5890,N,12402.8886,W,1,10,0.8,20.6,M,-21.8,M,,*69
2021-07-20 16:44:46Z, 6cda8203-a249-e411-b0cc-f8bc1246af59, $GPGGA,164445.00,4437.5889,N,12402.8887,W,1,10,0.8,20.6,M,-21.8,M,,*61
2021-07-20 16:44:48Z, 6cda8203-a249-e411-b0cc-f8bc1246af59, $GPGGA,164447.00,4437.5889,N,12402.8892,W,1,10,0.8,20.4,M,-21.8,M,,*65
2021-07-20 16:44:49Z, 6cda8203-a249-e411-b0cc-f8bc1246af59, $GPGGA,164448.00,4437.5890,N,12402.8892,W,1,10,0.8,20.3,M,-21.8,M,,*65
2021-07-20 16:44:51Z, 6cda8203-a249-e411-b0cc-f8bc1246af59, $GPGGA,164450.00,4437.5894,N,12402.8891,W,1,10,0.8,20.0,M,-21.8,M,,*68
2021-07-20 16:44:52Z, 6cda8203-a249-e411-b0cc-f8bc1246af59, $GPGGA,164451.00,4437.5895,N,12402.8891,W,1,10,0.8,20.0,M,-21.8,M,,*68
2021-07-20 16:44:54Z, 6cda8203-a249-e411-b0cc-f8bc1246af59, $GPGGA,164453.00,4437.5898,N,12402.8890,W,1,10,0.8,20.0,M,-21.8,M,,*66
2021-07-20 16:44:55Z, 6cda8203-a249-e411-b0cc-f8bc1246af59, $GPGGA,164454.00,4437.5900,N,12402.8889,W,1,10,0.8,19.9,M,-21.8,M,,*6A
2021-07-20 16:44:57Z, 6cda8203-a249-e411-b0cc-f8bc1246af59, $GPGGA,164456.00,4437.5901,N,12402.8888,W,1,10,0.8,19.9,M,-21.8,M,,*68
2021-07-20 16:44:58Z, 6cda8203-a249-e411-b0cc-f8bc1246af59, $GPGGA,164457.00,4437.5901,N,12402.8887,W,1,10,0.8,19.9,M,-21.8,M,,*66
2021-07-20 16:45:00Z, 6cda8203-a249-e411-b0cc-f8bc1246af59, $GPGGA,164459.00,4437.5903,N,12402.8880,W,1,10,0.8,19.8,M,-21.8,M,,*6C
2021-07-20 16:45:01Z, 6cda8203-a249-e411-b0cc-f8bc1246af59, $GPGGA,164500.00,4437.5901,N,12402.8880,W,1,10,0.8,19.8,M,-21.8,M,,*63
2021-07-20 16:45:03Z, 6cda8203-a249-e411-b0cc-f8bc1246af59, $GPGGA,164502.00,4437.5900,N,12402.8877,W,1,10,0.8,19.7,M,-21.8,M,,*67
2021-07-20 16:45:04Z, 6cda8203-a249-e411-b0cc-f8bc1246af59, $GPGGA,164503.00,4437.5900,N,12402.8878,W,1,10,0.8,19.7,M,-21.8,M,,*69
2021-07-20 16:45:06Z, 6cda8203-a249-e411-b0cc-f8bc1246af59, $GPGGA,164505.00,4437.5899,N,12402.8878,W,1,10,0.8,19.7,M,-21.8,M,,*6E
2021-07-20 16:45:07Z, 6cda8203-a249-e411-b0cc-f8bc1246af59, $GPGGA,164506.00,4437.5898,N,12402.8876,W,1,10,0.8,19.7,M,-21.8,M,,*62
2021-07-20 16:45:09Z, 6cda8203-a249-e411-b0cc-f8bc1246af59, $GPGGA,164508.00,4437.5900,N,12402.8874,W,1,10,0.8,19.8,M,-21.8,M,,*61
2021-07-20 16:45:10Z, 6cda8203-a249-e411-b0cc-f8bc1246af59, $GPGGA,164509.00,4437.5899,N,12402.8873,W,1,10,0.8,19.8,M,-21.8,M,,*66
2021-07-20 16:45:12Z, 6cda8203-a249-e411-b0cc-f8bc1246af59, $GPGGA,164511.00,4437.5898,N,12402.8873,W,1,10,0.8,20.0,M,-21.8,M,,*6C
2021-07-20 16:45:13Z, 6cda8203-a249-e411-b0cc-f8bc1246af59, $GPGGA,164512.00,4437.5898,N,12402.8874,W,1,10,0.8,20.1,M,-21.8,M,,*69
2021-07-20 16:45:15Z, 6cda8203-a249-e411-b0cc-f8bc1246af59, $GPGGA,164514.00,4437.5897,N,12402.8874,W,1,10,0.8,20.3,M,-21.8,M,,*62
2021-07-20 16:45:16Z, 6cda8203-a249-e411-b0cc-f8bc1246af59, $GPGGA,164515.00,4437.5899,N,12402.8871,W,1,10,0.8,20.4,M,-21.8,M,,*6F
2021-07-20 16:45:18Z, 6cda8203-a249-e411-b0cc-f8bc1246af59, $GPGGA,164517.00,4437.5897,N,12402.8868,W,1,10,0.8,20.7,M,-21.8,M,,*68
2021-07-20 16:45:19Z, 6cda8203-a249-e411-b0cc-f8bc1246af59, $GPGGA,164518.00,4437.5898,N,12402.8868,W,1,10,0.8,20.7,M,-21.8,M,,*68
2021-07-20 16:45:21Z, 6cda8203-a249-e411-b0cc-f8bc1246af59, $GPGGA,164520.00,4437.5900,N,12402.8869,W,1,10,0.8,20.7,M,-21.8,M,,*62
2021-07-20 16:45:22Z, 6cda8203-a249-e411-b0cc-f8bc1246af59, $GPGGA,164521.00,4437.5899,N,12402.8870,W,1,10,0.8,20.7,M,-21.8,M,,*6A
2021-07-20 16:45:24Z, 6cda8203-a249-e411-b0cc-f8bc1246af59, $GPGGA,164523.00,4437.5896,N,12402.8873,W,1,10,0.8,21.1,M,-21.8,M,,*63
2021-07-20 16:45:25Z, 6cda8203-a249-e411-b0cc-f8bc1246af59, $GPGGA,164524.00,4437.5895,N,12402.8875,W,1,10,0.8,21.2,M,-21.8,M,,*62
2021-07-20 16:45:27Z, 6cda8203-a249-e411-b0cc-f8bc1246af59, $GPGGA,164526.00,4437.5893,N,12402.8871,W,1,10,0.8,21.3,M,-21.8,M,,*63
2021-07-20 16:45:28Z, 6cda8203-a249-e411-b0cc-f8bc1246af59, $GPGGA,164527.00,4437.5892,N,12402.8869,W,1,10,0.8,21.4,M,-21.8,M,,*6D
2021-07-20 16:45:30Z, 6cda8203-a249-e411-b0cc-f8bc1246af59, $GPGGA,164529.00,4437.5887,N,12402.8867,W,1,10,0.8,21.5,M,-21.8,M,,*68
2021-07-20 16:45:31Z, 6cda8203-a249-e411-b0cc-f8bc1246af59, $GPGGA,164530.00,4437.5887,N,12402.8867,W,1,10,0.8,21.4,M,-21.8,M,,*61
2021-07-20 16:45:33Z, 6cda8203-a249-e411-b0cc-f8bc1246af59, $GPGGA,164532.00,4437.5885,N,12402.8868,W,1,10,0.8,21.2,M,-21.8,M,,*68
2021-07-20 16:45:34Z, 6cda8203-a249-e411-b0cc-f8bc1246af59, $GPGGA,164533.00,4437.5884,N,12402.8868,W,1,10,0.8,21.1,M,-21.8,M,,*6B
2021-07-20 16:45:36Z, 6cda8203-a249-e411-b0cc-f8bc1246af59, $GPGGA,164535.00,4437.5885,N,12402.8866,W,1,10,0.8,21.0,M,-21.8,M,,*63
2021-07-20 16:45:37Z, 6cda8203-a249-e411-b0cc-f8bc1246af59, $GPGGA,164536.00,4437.5886,N,12402.8865,W,1,10,0.8,20.9,M,-21.8,M,,*68
2021-07-20 16:45:39Z, 6cda8203-a249-e411-b0cc-f8bc1246af59, $GPGGA,164538.00,4437.5885,N,12402.8869,W,1,10,0.8,20.7,M,-21.8,M,,*67
2021-07-20 16:45:40Z, 6cda8203-a249-e411-b0cc-f8bc1246af59, $GPGGA,164539.00,4437.5885,N,12402.8868,W,1,10,0.8,20.5,M,-21.8,M,,*65
2021-07-20 16:45:42Z, 6cda8203-a249-e411-b0cc-f8bc1246af59, $GPGGA,164541.00,4437.5886,N,12402.8866,W,1,10,0.8,20.4,M,-21.8,M,,*66
2021-07-20 16:45:43Z, 6cda8203-a249-e411-b0cc-f8bc1246af59, $GPGGA,164542.00,4437.5885,N,12402.8865,W,1,10,0.8,20.3,M,-21.8,M,,*62
2021-07-20 16:45:45Z, 6cda8203-a249-e411-b0cc-f8bc1246af59, $GPGGA,164544.00,4437.5885,N,12402.8864,W,1,10,0.8,20.3,M,-21.8,M,,*65
2021-07-20 16:45:46Z, 6cda8203-a249-e411-b0cc-f8bc1246af59, $GPGGA,164545.00,4437.5885,N,12402.8861,W,1,10,0.8,20.3,M,-21.8,M,,*61
2021-07-20 16:45:48Z, 6cda8203-a249-e411-b0cc-f8bc1246af59, $GPGGA,164547.00,4437.5886,N,12402.8861,W,1,10,0.8,20.4,M,-21.8,M,,*67
2021-07-20 16:45:49Z, 6cda8203-a249-e411-b0cc-f8bc1246af59, $GPGGA,164548.00,4437.5886,N,12402.8861,W,1,10,0.8,20.6,M,-21.8,M,,*6A
2021-07-20 16:45:51Z, 6cda8203-a249-e411-b0cc-f8bc1246af59, $GPGGA,164550.00,4437.5887,N,12402.8866,W,1,10,0.8,20.9,M,-21.8,M,,*6A
2021-07-20 16:45:52Z, 6cda8203-a249-e411-b0cc-f8bc1246af59, $GPGGA,164551.00,4437.5888,N,12402.8874,W,1,10,0.8,21.0,M,-21.8,M,,*6F
2021-07-20 16:45:54Z, 6cda8203-a249-e411-b0cc-f8bc1246af59, $GPGGA,164553.00,4437.5889,N,12402.8875,W,1,10,0.8,20.9,M,-21.8,M,,*65
2021-07-20 16:45:55Z, 6cda8203-a249-e411-b0cc-f8bc1246af59, $GPGGA,164554.00,4437.5889,N,12402.8875,W,1,10,0.8,20.9,M,-21.8,M,,*62
2021-07-20 16:45:57Z, 6cda8203-a249-e411-b0cc-f8bc1246af59, $GPGGA,164556.00,4437.5892,N,12402.8887,W,1,10,0.8,21.0,M,-21.8,M,,*6F
2021-07-20 16:45:58Z, 6cda8203-a249-e411-b0cc-f8bc1246af59, $GPGGA,164557.00,4437.5891,N,12402.8888,W,1,10,0.8,20.9,M,-21.8,M,,*6A
2021-07-20 16:46:00Z, 6cda8203-a249-e411-b0cc-f8bc1246af59, $GPGGA,164559.00,4437.5890,N,12402.8890,W,1,10,0.8,20.9,M,-21.8,M,,*6C
2021-07-20 16:46:01Z, 6cda8203-a249-e411-b0cc-f8bc1246af59, $GPGGA,164600.00,4437.5889,N,12402.8891,W,1,10,0.8,20.9,M,-21.8,M,,*6A
2021-07-20 16:46:03Z, 6cda8203-a249-e411-b0cc-f8bc1246af59, $GPGGA,164602.00,4437.5887,N,12402.8893,W,1,10,0.8,20.9,M,-21.8,M,,*64
2021-07-20 16:46:04Z, 6cda8203-a249-e411-b0cc-f8bc1246af59, $GPGGA,164603.00,4437.5887,N,12402.8893,W,1,10,0.8,20.8,M,-21.8,M,,*64
2021-07-20 16:46:06Z, 6cda8203-a249-e411-b0cc-f8bc1246af59, $GPGGA,164605.00,4437.5885,N,12402.8892,W,1,10,0.8,21.0,M,-21.8,M,,*68
2021-07-20 16:46:07Z, 6cda8203-a249-e411-b0cc-f8bc1246af59, $GPGGA,164606.00,4437.5884,N,12402.8893,W,1,10,0.8,21.1,M,-21.8,M,,*6A
2021-07-20 16:46:09Z, 6cda8203-a249-e411-b0cc-f8bc1246af59, $GPGGA,164608.00,4437.5881,N,12402.8894,W,1,10,0.8,21.0,M,-21.8,M,,*67
2021-07-20 16:46:10Z, 6cda8203-a249-e411-b0cc-f8bc1246af59, $GPGGA,164609.00,4437.5881,N,12402.8893,W,1,10,0.8,21.0,M,-21.8,M,,*61
2021-07-20 16:46:12Z, 6cda8203-a249-e411-b0cc-f8bc1246af59, $GPGGA,164611.00,4437.5878,N,12402.8893,W,1,10,0.8,21.2,M,-21.8,M,,*6C
2021-07-20 16:46:13Z, 6cda8203-a249-e411-b0cc-f8bc1246af59, $GPGGA,164612.00,4437.5877,N,12402.8894,W,1,10,0.8,21.2,M,-21.8,M,,*67
2021-07-20 16:46:15Z, 6cda8203-a249-e411-b0cc-f8bc1246af59, $GPGGA,164614.00,4437.5872,N,12402.8895,W,1,10,0.8,21.3,M,-21.8,M,,*64
2021-07-20 16:46:16Z, 6cda8203-a249-e411-b0cc-f8bc1246af59, $GPGGA,164615.00,4437.5870,N,12402.8895,W,1,10,0.8,21.3,M,-21.8,M,,*67
2021-07-20 16:46:18Z, 6cda8203-a249-e411-b0cc-f8bc1246af59, $GPGGA,164617.00,4437.5860,N,12402.8886,W,1,10,0.8,21.9,M,-21.8,M,,*6C
2021-07-20 16:46:19Z, 6cda8203-a249-e411-b0cc-f8bc1246af59, $GPGGA,164618.00,4437.5858,N,12402.8884,W,1,10,0.8,21.9,M,-21.8,M,,*6A
2021-07-20 16:46:21Z, 6cda8203-a249-e411-b0cc-f8bc1246af59, $GPGGA,164620.00,4437.5860,N,12402.8880,W,1,10,0.8,21.9,M,-21.8,M,,*6E
2021-07-20 16:46:22Z, 6cda8203-a249-e411-b0cc-f8bc1246af59, $GPGGA,164621.00,4437.5861,N,12402.8879,W,1,10,0.8,22.0,M,-21.8,M,,*62
2021-07-20 16:46:24Z, 6cda8203-a249-e411-b0cc-f8bc1246af59, $GPGGA,164623.00,4437.5862,N,12402.8878,W,1,10,0.8,22.0,M,-21.8,M,,*62
2021-07-20 16:46:25Z, 6cda8203-a249-e411-b0cc-f8bc1246af59, $GPGGA,164624.00,4437.5863,N,12402.8879,W,1,10,0.8,22.0,M,-21.8,M,,*65
2021-07-20 16:46:27Z, 6cda8203-a249-e411-b0cc-f8bc1246af59, $GPGGA,164626.00,4437.5862,N,12402.8881,W,1,10,0.8,22.0,M,-21.8,M,,*61
2021-07-20 16:46:28Z, 6cda8203-a249-e411-b0cc-f8bc1246af59, $GPGGA,164627.00,4437.5860,N,12402.8881,W,1,10,0.8,22.0,M,-21.8,M,,*62
2021-07-20 16:46:30Z, 6cda8203-a249-e411-b0cc-f8bc1246af59, $GPGGA,164629.00,4437.5857,N,12402.8880,W,1,10,0.8,21.9,M,-21.8,M,,*63
2021-07-20 16:46:31Z, 6cda8203-a249-e411-b0cc-f8bc1246af59, $GPGGA,164630.00,4437.5856,N,12402.8880,W,1,10,0.8,21.9,M,-21.8,M,,*6A
2021-07-20 16:46:33Z, 6cda8203-a249-e411-b0cc-f8bc1246af59, $GPGGA,164632.00,4437.5854,N,12402.8881,W,1,10,0.8,22.0,M,-21.8,M,,*61
2021-07-20 16:46:34Z, 6cda8203-a249-e411-b0cc-f8bc1246af59, $GPGGA,164633.00,4437.5853,N,12402.8880,W,1,10,0.8,22.0,M,-21.8,M,,*66
2021-07-20 16:46:36Z, 6cda8203-a249-e411-b0cc-f8bc1246af59, $GPGGA,164635.00,4437.5854,N,12402.8877,W,1,10,0.8,21.8,M,-21.8,M,,*64
2021-07-20 16:46:37Z, 6cda8203-a249-e411-b0cc-f8bc1246af59, $GPGGA,164636.00,4437.5849,N,12402.8881,W,1,10,0.8,22.1,M,-21.8,M,,*68
2021-07-20 16:46:39Z, 6cda8203-a249-e411-b0cc-f8bc1246af59, $GPGGA,164638.00,4437.5846,N,12402.8886,W,1,10,0.8,22.3,M,-21.8,M,,*6C
2021-07-20 16:46:40Z, 6cda8203-a249-e411-b0cc-f8bc1246af59, $GPGGA,164639.00,4437.5846,N,12402.8888,W,1,10,0.8,22.3,M,-21.8,M,,*63
2021-07-20 16:46:41Z, 6cda8203-a249-e411-b0cc-f8bc1246af59, $GPGGA,164640.00,4437.5846,N,12402.8891,W,1,10,0.8,22.3,M,-21.8,M,,*65
2021-07-20 16:46:42Z, 6cda8203-a249-e411-b0cc-f8bc1246af59, $GPGGA,164641.00,4437.5848,N,12402.8889,W,1,10,0.8,22.3,M,-21.8,M,,*63
2021-07-20 16:46:43Z, 6cda8203-a249-e411-b0cc-f8bc1246af59, $GPGGA,164642.00,4437.5849,N,12402.8891,W,1,10,0.8,22.8,M,-21.8,M,,*63
2021-07-20 16:46:44Z, 6cda8203-a249-e411-b0cc-f8bc1246af59, $GPGGA,164643.00,4437.5845,N,12402.8894,W,1,10,0.8,22.9,M,-21.8,M,,*6A
2021-07-20 16:46:45Z, 6cda8203-a249-e411-b0cc-f8bc1246af59, $GPGGA,164644.00,4437.5845,N,12402.8895,W,1,10,0.8,23.0,M,-21.8,M,,*64
2021-07-20 16:46:47Z, 6cda8203-a249-e411-b0cc-f8bc1246af59, $GPGGA,164646.00,4437.5845,N,12402.8893,W,1,10,0.8,23.1,M,-21.8,M,,*61
2021-07-20 16:46:49Z, 6cda8203-a249-e411-b0cc-f8bc1246af59, $GPGGA,164647.00,4437.5845,N,12402.8891,W,1,10,0.8,23.1,M,-21.8,M,,*62
2021-07-20 16:46:50Z, 6cda8203-a249-e411-b0cc-f8bc1246af59, $GPGGA,164649.00,4437.5845,N,12402.8889,W,1,10,0.8,23.2,M,-21.8,M,,*66
2021-07-20 16:46:52Z, 6cda8203-a249-e411-b0cc-f8bc1246af59, $GPGGA,164650.00,4437.5845,N,12402.8889,W,1,10,0.8,23.2,M,-21.8,M,,*6E
2021-07-20 16:46:53Z, 6cda8203-a249-e411-b0cc-f8bc1246af59, $GPGGA,164652.00,4437.5847,N,12402.8891,W,1,10,0.8,23.2,M,-21.8,M,,*67
2021-07-20 16:46:55Z, 6cda8203-a249-e411-b0cc-f8bc1246af59, $GPGGA,164653.00,4437.5848,N,12402.8892,W,1,10,0.8,23.1,M,-21.8,M,,*69
2021-07-20 16:46:56Z, 6cda8203-a249-e411-b0cc-f8bc1246af59, $GPGGA,164655.00,4437.5850,N,12402.8894,W,1,10,0.8,23.1,M,-21.8,M,,*60
2021-07-20 16:46:57Z, 6cda8203-a249-e411-b0cc-f8bc1246af59, $GPGGA,164656.00,4437.5850,N,12402.8895,W,1,10,0.8,23.0,M,-21.8,M,,*63
2021-07-20 16:46:59Z, 6cda8203-a249-e411-b0cc-f8bc1246af59, $GPGGA,164658.00,4437.5850,N,12402.8896,W,1,10,0.8,22.7,M,-21.8,M,,*68
2021-07-20 16:47:00Z, 6cda8203-a249-e411-b0cc-f8bc1246af59, $GPGGA,164659.00,4437.5850,N,12402.8900,W,1,10,0.8,22.7,M,-21.8,M,,*67
2021-07-20 16:47:02Z, 6cda8203-a249-e411-b0cc-f8bc1246af59, $GPGGA,164701.00,4437.5856,N,12402.8907,W,1,10,0.8,22.7,M,-21.8,M,,*6A
2021-07-20 16:47:03Z, 6cda8203-a249-e411-b0cc-f8bc1246af59, $GPGGA,164702.00,4437.5857,N,12402.8909,W,1,10,0.8,22.6,M,-21.8,M,,*67
2021-07-20 16:47:05Z, 6cda8203-a249-e411-b0cc-f8bc1246af59, $GPGGA,164704.00,4437.5860,N,12402.8910,W,1,10,0.8,22.6,M,-21.8,M,,*6D
2021-07-20 16:47:06Z, 6cda8203-a249-e411-b0cc-f8bc1246af59, $GPGGA,164705.00,4437.5860,N,12402.8912,W,1,10,0.8,22.5,M,-21.8,M,,*6D
2021-07-20 16:47:08Z, 6cda8203-a249-e411-b0cc-f8bc1246af59, $GPGGA,164707.00,4437.5862,N,12402.8915,W,1,10,0.8,22.4,M,-21.8,M,,*6B
2021-07-20 16:47:09Z, 6cda8203-a249-e411-b0cc-f8bc1246af59, $GPGGA,164708.00,4437.5862,N,12402.8916,W,1,10,0.8,22.4,M,-21.8,M,,*67
2021-07-20 16:47:11Z, 6cda8203-a249-e411-b0cc-f8bc1246af59, $GPGGA,164710.00,4437.5863,N,12402.8916,W,1,10,0.8,22.4,M,-21.8,M,,*6F
2021-07-20 16:47:12Z, 6cda8203-a249-e411-b0cc-f8bc1246af59, $GPGGA,164711.00,4437.5862,N,12402.8916,W,1,10,0.8,22.4,M,-21.8,M,,*6F
2021-07-20 16:47:14Z, 6cda8203-a249-e411-b0cc-f8bc1246af59, $GPGGA,164713.00,4437.5860,N,12402.8916,W,1,10,0.8,22.4,M,-21.8,M,,*6F
2021-07-20 16:47:15Z, 6cda8203-a249-e411-b0cc-f8bc1246af59, $GPGGA,164714.00,4437.5861,N,12402.8914,W,1,10,0.8,22.5,M,-21.8,M,,*6A
2021-07-20 16:47:17Z, 6cda8203-a249-e411-b0cc-f8bc1246af59, $GPGGA,164716.00,4437.5860,N,12402.8908,W,1,10,0.8,22.4,M,-21.8,M,,*65
2021-07-20 16:47:18Z, 6cda8203-a249-e411-b0cc-f8bc1246af59, $GPGGA,164717.00,4437.5859,N,12402.8906,W,1,10,0.8,22.4,M,-21.8,M,,*60
