ACQ Timestamp (Server Time in UTC), MessageID, Data Value For: GNSS-6452-$GPGGA
2021-06-27 20:06:51Z, 6cda8203-a249-e411-b0cc-f8bc1246af59, $GPGGA,200650.00,4437.5828,N,12402.8887,W,1,09,1.0,21.3,M,-21.8,M,,*68
2021-06-27 20:06:52Z, 6cda8203-a249-e411-b0cc-f8bc1246af59, $GPGGA,200651.00,4437.5828,N,12402.8887,W,1,09,1.0,21.3,M,-21.8,M,,*69
2021-06-27 20:06:54Z, 6cda8203-a249-e411-b0cc-f8bc1246af59, $GPGGA,200653.00,4437.5829,N,12402.8889,W,1,09,1.0,21.4,M,-21.8,M,,*63
2021-06-27 20:06:55Z, 6cda8203-a249-e411-b0cc-f8bc1246af59, $GPGGA,200654.00,4437.5829,N,12402.8890,W,1,09,1.0,21.4,M,-21.8,M,,*6C
2021-06-27 20:06:57Z, 6cda8203-a249-e411-b0cc-f8bc1246af59, $GPGGA,200656.00,4437.5829,N,12402.8891,W,1,09,1.0,21.5,M,-21.8,M,,*6E
2021-06-27 20:06:58Z, 6cda8203-a249-e411-b0cc-f8bc1246af59, $GPGGA,200657.00,4437.5829,N,12402.8891,W,1,09,1.0,21.6,M,-21.8,M,,*6C
2021-06-27 20:07:00Z, 6cda8203-a249-e411-b0cc-f8bc1246af59, $GPGGA,200659.00,4437.5829,N,12402.8893,W,1,09,1.0,21.6,M,-21.8,M,,*60
2021-06-27 20:07:01Z, 6cda8203-a249-e411-b0cc-f8bc1246af59, $GPGGA,200700.00,4437.5829,N,12402.8893,W,1,09,1.0,21.6,M,-21.8,M,,*6D
2021-06-27 20:07:03Z, 6cda8203-a249-e411-b0cc-f8bc1246af59, $GPGGA,200702.00,4437.5829,N,12402.8895,W,1,09,1.0,21.7,M,-21.8,M,,*68
2021-06-27 20:07:04Z, 6cda8203-a249-e411-b0cc-f8bc1246af59, $GPGGA,200703.00,4437.5829,N,12402.8895,W,1,09,1.0,21.7,M,-21.8,M,,*69
2021-06-27 20:07:06Z, 6cda8203-a249-e411-b0cc-f8bc1246af59, $GPGGA,200705.00,4437.5828,N,12402.8895,W,1,09,1.0,21.7,M,-21.8,M,,*6E
2021-06-27 20:07:07Z, 6cda8203-a249-e411-b0cc-f8bc1246af59, $GPGGA,200706.00,4437.5827,N,12402.8895,W,1,09,1.0,21.7,M,-21.8,M,,*62
2021-06-27 20:07:09Z, 6cda8203-a249-e411-b0cc-f8bc1246af59, $GPGGA,200708.00,4437.5825,N,12402.8895,W,1,08,1.0,21.7,M,-21.8,M,,*6F
2021-06-27 20:07:10Z, 6cda8203-a249-e411-b0cc-f8bc1246af59, $GPGGA,200709.00,4437.5824,N,12402.8894,W,1,08,1.0,21.7,M,-21.8,M,,*6E
2021-06-27 20:07:12Z, 6cda8203-a249-e411-b0cc-f8bc1246af59, $GPGGA,200711.00,4437.5823,N,12402.8895,W,1,08,1.0,21.7,M,-21.8,M,,*61
2021-06-27 20:07:13Z, 6cda8203-a249-e411-b0cc-f8bc1246af59, $GPGGA,200712.00,4437.5823,N,12402.8895,W,1,09,1.0,21.7,M,-21.8,M,,*63
2021-06-27 20:07:15Z, 6cda8203-a249-e411-b0cc-f8bc1246af59, $GPGGA,200714.00,4437.5822,N,12402.8895,W,1,09,1.0,21.8,M,-21.8,M,,*6B
2021-06-27 20:07:16Z, 6cda8203-a249-e411-b0cc-f8bc1246af59, $GPGGA,200715.00,4437.5822,N,12402.8895,W,1,09,1.0,21.8,M,-21.8,M,,*6A
2021-06-27 20:07:18Z, 6cda8203-a249-e411-b0cc-f8bc1246af59, $GPGGA,200717.00,4437.5822,N,12402.8896,W,1,09,1.0,21.7,M,-21.8,M,,*64
2021-06-27 20:07:19Z, 6cda8203-a249-e411-b0cc-f8bc1246af59, $GPGGA,200718.00,4437.5822,N,12402.8897,W,1,09,1.0,21.7,M,-21.8,M,,*6A
2021-06-27 20:07:21Z, 6cda8203-a249-e411-b0cc-f8bc1246af59, $GPGGA,200720.00,4437.5821,N,12402.8896,W,1,09,1.0,21.8,M,-21.8,M,,*6C
2021-06-27 20:07:22Z, 6cda8203-a249-e411-b0cc-f8bc1246af59, $GPGGA,200721.00,4437.5821,N,12402.8895,W,1,09,1.0,21.8,M,-21.8,M,,*6E
2021-06-27 20:07:24Z, 6cda8203-a249-e411-b0cc-f8bc1246af59, $GPGGA,200723.00,4437.5819,N,12402.8881,W,1,09,1.0,21.8,M,-21.8,M,,*62
2021-06-27 20:07:25Z, 6cda8203-a249-e411-b0cc-f8bc1246af59, $GPGGA,200724.00,4437.5817,N,12402.8878,W,1,09,1.0,22.0,M,-21.8,M,,*66
2021-06-27 20:07:27Z, 6cda8203-a249-e411-b0cc-f8bc1246af59, $GPGGA,200726.00,4437.5820,N,12402.8873,W,1,09,1.0,21.9,M,-21.8,M,,*61
2021-06-27 20:07:28Z, 6cda8203-a249-e411-b0cc-f8bc1246af59, $GPGGA,200727.00,4437.5821,N,12402.8872,W,1,09,1.0,22.0,M,-21.8,M,,*6A
2021-06-27 20:07:30Z, 6cda8203-a249-e411-b0cc-f8bc1246af59, $GPGGA,200729.00,4437.5823,N,12402.8873,W,1,09,1.0,22.1,M,-21.8,M,,*66
2021-06-27 20:07:31Z, 6cda8203-a249-e411-b0cc-f8bc1246af59, $GPGGA,200730.00,4437.5826,N,12402.8874,W,1,09,1.0,22.4,M,-21.8,M,,*69
2021-06-27 20:07:33Z, 6cda8203-a249-e411-b0cc-f8bc1246af59, $GPGGA,200732.00,4437.5826,N,12402.8872,W,1,09,1.0,22.8,M,-21.8,M,,*61
2021-06-27 20:07:34Z, 6cda8203-a249-e411-b0cc-f8bc1246af59, $GPGGA,200733.00,4437.5826,N,12402.8871,W,1,09,1.0,23.2,M,-21.8,M,,*68
2021-06-27 20:07:36Z, 6cda8203-a249-e411-b0cc-f8bc1246af59, $GPGGA,200735.00,4437.5821,N,12402.8869,W,1,09,1.0,23.5,M,-21.8,M,,*67
2021-06-27 20:07:37Z, 6cda8203-a249-e411-b0cc-f8bc1246af59, $GPGGA,200736.00,4437.5821,N,12402.8869,W,1,08,1.0,23.4,M,-21.8,M,,*64
2021-06-27 20:07:39Z, 6cda8203-a249-e411-b0cc-f8bc1246af59, $GPGGA,200738.00,4437.5822,N,12402.8868,W,1,09,1.0,23.3,M,-21.8,M,,*6E
2021-06-27 20:07:40Z, 6cda8203-a249-e411-b0cc-f8bc1246af59, $GPGGA,200739.00,4437.5823,N,12402.8868,W,1,09,1.0,23.3,M,-21.8,M,,*6E
2021-06-27 20:07:42Z, 6cda8203-a249-e411-b0cc-f8bc1246af59, $GPGGA,200741.00,4437.5827,N,12402.8868,W,1,09,1.0,23.2,M,-21.8,M,,*64
2021-06-27 20:07:43Z, 6cda8203-a249-e411-b0cc-f8bc1246af59, $GPGGA,200742.00,4437.5830,N,12402.8869,W,1,09,1.0,23.1,M,-21.8,M,,*63
2021-06-27 20:07:45Z, 6cda8203-a249-e411-b0cc-f8bc1246af59, $GPGGA,200744.00,4437.5832,N,12402.8869,W,1,09,1.0,23.0,M,-21.8,M,,*66
2021-06-27 20:07:46Z, 6cda8203-a249-e411-b0cc-f8bc1246af59, $GPGGA,200745.00,4437.5831,N,12402.8869,W,1,09,1.0,23.1,M,-21.8,M,,*65
2021-06-27 20:07:48Z, 6cda8203-a249-e411-b0cc-f8bc1246af59, $GPGGA,200747.00,4437.5832,N,12402.8868,W,1,09,1.0,23.1,M,-21.8,M,,*65
2021-06-27 20:07:49Z, 6cda8203-a249-e411-b0cc-f8bc1246af59, $GPGGA,200748.00,4437.5832,N,12402.8866,W,1,09,1.0,23.1,M,-21.8,M,,*64
2021-06-27 20:07:51Z, 6cda8203-a249-e411-b0cc-f8bc1246af59, $GPGGA,200750.00,4437.5837,N,12402.8872,W,1,09,1.0,24.9,M,-21.8,M,,*62
2021-06-27 20:07:52Z, 6cda8203-a249-e411-b0cc-f8bc1246af59, $GPGGA,200751.00,4437.5839,N,12402.8868,W,1,09,1.0,25.0,M,-21.8,M,,*6E
2021-06-27 20:07:54Z, 6cda8203-a249-e411-b0cc-f8bc1246af59, $GPGGA,200753.00,4437.5841,N,12402.8870,W,1,09,1.0,26.2,M,-21.8,M,,*6B
2021-06-27 20:07:55Z, 6cda8203-a249-e411-b0cc-f8bc1246af59, $GPGGA,200754.00,4437.5842,N,12402.8869,W,1,09,1.0,26.3,M,-21.8,M,,*66
2021-06-27 20:07:56Z, 6cda8203-a249-e411-b0cc-f8bc1246af59, $GPGGA,200755.00,4437.5842,N,12402.8868,W,1,09,1.0,26.5,M,-21.8,M,,*60
2021-06-27 20:07:57Z, 6cda8203-a249-e411-b0cc-f8bc1246af59, $GPGGA,200756.00,4437.5843,N,12402.8868,W,1,09,1.0,26.4,M,-21.8,M,,*63
2021-06-27 20:07:58Z, 6cda8203-a249-e411-b0cc-f8bc1246af59, $GPGGA,200757.00,4437.5842,N,12402.8869,W,1,09,1.0,26.4,M,-21.8,M,,*62
2021-06-27 20:08:00Z, 6cda8203-a249-e411-b0cc-f8bc1246af59, $GPGGA,200758.00,4437.5841,N,12402.8870,W,1,09,1.0,26.2,M,-21.8,M,,*60
2021-06-27 20:08:01Z, 6cda8203-a249-e411-b0cc-f8bc1246af59, $GPGGA,200800.00,4437.5842,N,12402.8871,W,1,09,1.0,26.1,M,-21.8,M,,*63
2021-06-27 20:08:02Z, 6cda8203-a249-e411-b0cc-f8bc1246af59, $GPGGA,200801.00,4437.5844,N,12402.8870,W,1,09,1.0,25.9,M,-21.8,M,,*6E
2021-06-27 20:08:04Z, 6cda8203-a249-e411-b0cc-f8bc1246af59, $GPGGA,200803.00,4437.5843,N,12402.8869,W,1,09,1.0,25.6,M,-21.8,M,,*6C
2021-06-27 20:08:05Z, 6cda8203-a249-e411-b0cc-f8bc1246af59, $GPGGA,200804.00,4437.5843,N,12402.8868,W,1,09,1.0,25.5,M,-21.8,M,,*69
2021-06-27 20:08:07Z, 6cda8203-a249-e411-b0cc-f8bc1246af59, $GPGGA,200806.00,4437.5842,N,12402.8865,W,1,09,1.0,25.4,M,-21.8,M,,*66
2021-06-27 20:08:08Z, 6cda8203-a249-e411-b0cc-f8bc1246af59, $GPGGA,200807.00,4437.5843,N,12402.8863,W,1,09,1.0,25.4,M,-21.8,M,,*60
2021-06-27 20:08:10Z, 6cda8203-a249-e411-b0cc-f8bc1246af59, $GPGGA,200809.00,4437.5844,N,12402.8860,W,1,09,1.0,25.4,M,-21.8,M,,*6A
2021-06-27 20:08:11Z, 6cda8203-a249-e411-b0cc-f8bc1246af59, $GPGGA,200810.00,4437.5850,N,12402.8851,W,1,09,1.0,25.2,M,-21.8,M,,*63
2021-06-27 20:08:13Z, 6cda8203-a249-e411-b0cc-f8bc1246af59, $GPGGA,200812.00,4437.5849,N,12402.8845,W,1,09,1.0,25.2,M,-21.8,M,,*6C
2021-06-27 20:08:14Z, 6cda8203-a249-e411-b0cc-f8bc1246af59, $GPGGA,200813.00,4437.5848,N,12402.8841,W,1,09,1.0,25.1,M,-21.8,M,,*6B
2021-06-27 20:08:16Z, 6cda8203-a249-e411-b0cc-f8bc1246af59, $GPGGA,200815.00,4437.5850,N,12402.8840,W,1,09,1.0,25.1,M,-21.8,M,,*65
2021-06-27 20:08:17Z, 6cda8203-a249-e411-b0cc-f8bc1246af59, $GPGGA,200816.00,4437.5850,N,12402.8841,W,1,09,1.0,25.1,M,-21.8,M,,*67
2021-06-27 20:08:19Z, 6cda8203-a249-e411-b0cc-f8bc1246af59, $GPGGA,200818.00,4437.5848,N,12402.8842,W,1,09,1.0,25.0,M,-21.8,M,,*62
2021-06-27 20:08:20Z, 6cda8203-a249-e411-b0cc-f8bc1246af59, $GPGGA,200819.00,4437.5847,N,12402.8846,W,1,09,1.0,24.9,M,-21.8,M,,*60
2021-06-27 20:08:22Z, 6cda8203-a249-e411-b0cc-f8bc1246af59, $GPGGA,200821.00,4437.5849,N,12402.8844,W,1,09,1.0,24.8,M,-21.8,M,,*66
2021-06-27 20:08:23Z, 6cda8203-a249-e411-b0cc-f8bc1246af59, $GPGGA,200822.00,4437.5850,N,12402.8843,W,1,09,1.0,24.9,M,-21.8,M,,*6B
2021-06-27 20:08:25Z, 6cda8203-a249-e411-b0cc-f8bc1246af59, $GPGGA,200824.00,4437.5853,N,12402.8840,W,1,09,1.0,24.7,M,-21.8,M,,*63
2021-06-27 20:08:26Z, 6cda8203-a249-e411-b0cc-f8bc1246af59, $GPGGA,200825.00,4437.5854,N,12402.8839,W,1,09,1.0,24.7,M,-21.8,M,,*6B
2021-06-27 20:08:28Z, 6cda8203-a249-e411-b0cc-f8bc1246af59, $GPGGA,200827.00,4437.5856,N,12402.8838,W,1,09,1.0,24.8,M,-21.8,M,,*65
2021-06-27 20:08:29Z, 6cda8203-a249-e411-b0cc-f8bc1246af59, $GPGGA,200828.00,4437.5856,N,12402.8841,W,1,09,1.0,24.9,M,-21.8,M,,*65
2021-06-27 20:08:31Z, 6cda8203-a249-e411-b0cc-f8bc1246af59, $GPGGA,200830.00,4437.5855,N,12402.8844,W,1,09,1.0,24.8,M,-21.8,M,,*6B
2021-06-27 20:08:32Z, 6cda8203-a249-e411-b0cc-f8bc1246af59, $GPGGA,200831.00,4437.5853,N,12402.8844,W,1,09,1.0,24.9,M,-21.8,M,,*6D
2021-06-27 20:08:34Z, 6cda8203-a249-e411-b0cc-f8bc1246af59, $GPGGA,200833.00,4437.5854,N,12402.8844,W,1,09,1.0,25.0,M,-21.8,M,,*60
2021-06-27 20:08:35Z, 6cda8203-a249-e411-b0cc-f8bc1246af59, $GPGGA,200834.00,4437.5853,N,12402.8843,W,1,09,1.0,25.0,M,-21.8,M,,*67
2021-06-27 20:08:37Z, 6cda8203-a249-e411-b0cc-f8bc1246af59, $GPGGA,200836.00,4437.5851,N,12402.8843,W,1,09,1.0,25.2,M,-21.8,M,,*65
2021-06-27 20:08:38Z, 6cda8203-a249-e411-b0cc-f8bc1246af59, $GPGGA,200837.00,4437.5850,N,12402.8843,W,1,09,1.0,25.3,M,-21.8,M,,*64
2021-06-27 20:08:40Z, 6cda8203-a249-e411-b0cc-f8bc1246af59, $GPGGA,200839.00,4437.5853,N,12402.8849,W,1,09,1.0,25.3,M,-21.8,M,,*63
2021-06-27 20:08:41Z, 6cda8203-a249-e411-b0cc-f8bc1246af59, $GPGGA,200840.00,4437.5853,N,12402.8848,W,1,09,1.0,25.3,M,-21.8,M,,*6C
2021-06-27 20:08:43Z, 6cda8203-a249-e411-b0cc-f8bc1246af59, $GPGGA,200842.00,4437.5851,N,12402.8848,W,1,09,1.0,25.5,M,-21.8,M,,*6A
2021-06-27 20:08:44Z, 6cda8203-a249-e411-b0cc-f8bc1246af59, $GPGGA,200843.00,4437.5851,N,12402.8848,W,1,09,1.0,25.6,M,-21.8,M,,*68
2021-06-27 20:08:46Z, 6cda8203-a249-e411-b0cc-f8bc1246af59, $GPGGA,200845.00,4437.5851,N,12402.8848,W,1,09,1.0,25.5,M,-21.8,M,,*6D
2021-06-27 20:08:47Z, 6cda8203-a249-e411-b0cc-f8bc1246af59, $GPGGA,200846.00,4437.5851,N,12402.8847,W,1,09,1.0,25.5,M,-21.8,M,,*61
2021-06-27 20:08:49Z, 6cda8203-a249-e411-b0cc-f8bc1246af59, $GPGGA,200848.00,4437.5853,N,12402.8844,W,1,09,1.0,25.5,M,-21.8,M,,*6E
2021-06-27 20:08:50Z, 6cda8203-a249-e411-b0cc-f8bc1246af59, $GPGGA,200849.00,4437.5854,N,12402.8842,W,1,09,1.0,25.7,M,-21.8,M,,*6C
2021-06-27 20:08:52Z, 6cda8203-a249-e411-b0cc-f8bc1246af59, $GPGGA,200851.00,4437.5856,N,12402.8841,W,1,09,1.0,25.6,M,-21.8,M,,*65
2021-06-27 20:08:53Z, 6cda8203-a249-e411-b0cc-f8bc1246af59, $GPGGA,200852.00,4437.5856,N,12402.8839,W,1,09,1.0,25.6,M,-21.8,M,,*69
2021-06-27 20:08:55Z, 6cda8203-a249-e411-b0cc-f8bc1246af59, $GPGGA,200854.00,4437.5856,N,12402.8835,W,1,09,1.0,25.5,M,-21.8,M,,*60
2021-06-27 20:08:56Z, 6cda8203-a249-e411-b0cc-f8bc1246af59, $GPGGA,200855.00,4437.5856,N,12402.8834,W,1,09,1.0,25.5,M,-21.8,M,,*60
2021-06-27 20:08:58Z, 6cda8203-a249-e411-b0cc-f8bc1246af59, $GPGGA,200857.00,4437.5858,N,12402.8832,W,1,09,1.0,25.7,M,-21.8,M,,*68
2021-06-27 20:08:59Z, 6cda8203-a249-e411-b0cc-f8bc1246af59, $GPGGA,200858.00,4437.5858,N,12402.8831,W,1,09,1.0,25.7,M,-21.8,M,,*64
2021-06-27 20:09:01Z, 6cda8203-a249-e411-b0cc-f8bc1246af59, $GPGGA,200900.00,4437.5857,N,12402.8832,W,1,09,1.0,25.7,M,-21.8,M,,*64
2021-06-27 20:09:02Z, 6cda8203-a249-e411-b0cc-f8bc1246af59, $GPGGA,200901.00,4437.5858,N,12402.8832,W,1,09,1.0,25.5,M,-21.8,M,,*68
2021-06-27 20:09:04Z, 6cda8203-a249-e411-b0cc-f8bc1246af59, $GPGGA,200903.00,4437.5857,N,12402.8832,W,1,09,1.0,25.4,M,-21.8,M,,*64
2021-06-27 20:09:05Z, 6cda8203-a249-e411-b0cc-f8bc1246af59, $GPGGA,200904.00,4437.5858,N,12402.8831,W,1,09,1.0,25.4,M,-21.8,M,,*6F
2021-06-27 20:09:07Z, 6cda8203-a249-e411-b0cc-f8bc1246af59, $GPGGA,200906.00,4437.5858,N,12402.8831,W,1,09,1.0,25.4,M,-21.8,M,,*6D
2021-06-27 20:09:08Z, 6cda8203-a249-e411-b0cc-f8bc1246af59, $GPGGA,200907.00,4437.5859,N,12402.8831,W,1,09,1.0,25.5,M,-21.8,M,,*6C
2021-06-27 20:09:10Z, 6cda8203-a249-e411-b0cc-f8bc1246af59, $GPGGA,200909.00,4437.5861,N,12402.8835,W,1,09,1.0,25.6,M,-21.8,M,,*6E
2021-06-27 20:09:11Z, 6cda8203-a249-e411-b0cc-f8bc1246af59, $GPGGA,200910.00,4437.5865,N,12402.8839,W,1,09,1.0,25.4,M,-21.8,M,,*6C
2021-06-27 20:09:13Z, 6cda8203-a249-e411-b0cc-f8bc1246af59, $GPGGA,200912.00,4437.5865,N,12402.8843,W,1,09,1.0,25.5,M,-21.8,M,,*62
2021-06-27 20:09:14Z, 6cda8203-a249-e411-b0cc-f8bc1246af59, $GPGGA,200913.00,4437.5866,N,12402.8845,W,1,09,1.0,25.5,M,-21.8,M,,*66
2021-06-27 20:09:16Z, 6cda8203-a249-e411-b0cc-f8bc1246af59, $GPGGA,200915.00,4437.5867,N,12402.8850,W,1,09,1.0,25.6,M,-21.8,M,,*66
2021-06-27 20:09:17Z, 6cda8203-a249-e411-b0cc-f8bc1246af59, $GPGGA,200916.00,4437.5867,N,12402.8849,W,1,09,1.0,25.6,M,-21.8,M,,*6D
2021-06-27 20:09:19Z, 6cda8203-a249-e411-b0cc-f8bc1246af59, $GPGGA,200918.00,4437.5869,N,12402.8849,W,1,09,1.0,25.6,M,-21.8,M,,*6D
2021-06-27 20:09:20Z, 6cda8203-a249-e411-b0cc-f8bc1246af59, $GPGGA,200919.00,4437.5869,N,12402.8847,W,1,09,1.0,25.7,M,-21.8,M,,*63
2021-06-27 20:09:22Z, 6cda8203-a249-e411-b0cc-f8bc1246af59, $GPGGA,200921.00,4437.5870,N,12402.8844,W,1,09,1.0,25.8,M,-21.8,M,,*6C
2021-06-27 20:09:23Z, 6cda8203-a249-e411-b0cc-f8bc1246af59, $GPGGA,200922.00,4437.5870,N,12402.8842,W,1,09,1.0,25.9,M,-21.8,M,,*68
2021-06-27 20:09:25Z, 6cda8203-a249-e411-b0cc-f8bc1246af59, $GPGGA,200924.00,4437.5876,N,12402.8842,W,1,09,1.0,26.5,M,-21.8,M,,*67
2021-06-27 20:09:26Z, 6cda8203-a249-e411-b0cc-f8bc1246af59, $GPGGA,200925.00,4437.5875,N,12402.8844,W,1,09,1.0,26.6,M,-21.8,M,,*60
2021-06-27 20:09:28Z, 6cda8203-a249-e411-b0cc-f8bc1246af59, $GPGGA,200927.00,4437.5875,N,12402.8844,W,1,09,1.0,26.5,M,-21.8,M,,*61
2021-06-27 20:09:29Z, 6cda8203-a249-e411-b0cc-f8bc1246af59, $GPGGA,200928.00,4437.5874,N,12402.8845,W,1,09,1.0,26.5,M,-21.8,M,,*6E
2021-06-27 20:09:31Z, 6cda8203-a249-e411-b0cc-f8bc1246af59, $GPGGA,200930.00,4437.5874,N,12402.8844,W,1,09,1.0,26.5,M,-21.8,M,,*66
2021-06-27 20:09:32Z, 6cda8203-a249-e411-b0cc-f8bc1246af59, $GPGGA,200931.00,4437.5872,N,12402.8846,W,1,09,1.0,26.5,M,-21.8,M,,*63
2021-06-27 20:09:34Z, 6cda8203-a249-e411-b0cc-f8bc1246af59, $GPGGA,200933.00,4437.5868,N,12402.8843,W,1,09,1.0,26.3,M,-21.8,M,,*69
2021-06-27 20:09:35Z, 6cda8203-a249-e411-b0cc-f8bc1246af59, $GPGGA,200934.00,4437.5866,N,12402.8844,W,1,09,1.0,26.2,M,-21.8,M,,*66
2021-06-27 20:09:37Z, 6cda8203-a249-e411-b0cc-f8bc1246af59, $GPGGA,200936.00,4437.5865,N,12402.8843,W,1,09,1.0,26.0,M,-21.8,M,,*62
2021-06-27 20:09:38Z, 6cda8203-a249-e411-b0cc-f8bc1246af59, $GPGGA,200937.00,4437.5865,N,12402.8843,W,1,09,1.0,25.8,M,-21.8,M,,*68
2021-06-27 20:09:40Z, 6cda8203-a249-e411-b0cc-f8bc1246af59, $GPGGA,200939.00,4437.5864,N,12402.8845,W,1,09,1.0,25.8,M,-21.8,M,,*61
2021-06-27 20:09:41Z, 6cda8203-a249-e411-b0cc-f8bc1246af59, $GPGGA,200940.00,4437.5864,N,12402.8844,W,1,09,1.0,25.9,M,-21.8,M,,*6F
2021-06-27 20:09:43Z, 6cda8203-a249-e411-b0cc-f8bc1246af59, $GPGGA,200942.00,4437.5865,N,12402.8851,W,1,09,1.0,26.0,M,-21.8,M,,*62
2021-06-27 20:09:44Z, 6cda8203-a249-e411-b0cc-f8bc1246af59, $GPGGA,200943.00,4437.5863,N,12402.8849,W,1,09,1.0,26.0,M,-21.8,M,,*6C
2021-06-27 20:09:46Z, 6cda8203-a249-e411-b0cc-f8bc1246af59, $GPGGA,200945.00,4437.5863,N,12402.8846,W,1,09,1.0,26.0,M,-21.8,M,,*65
2021-06-27 20:09:47Z, 6cda8203-a249-e411-b0cc-f8bc1246af59, $GPGGA,200946.00,4437.5864,N,12402.8845,W,1,09,1.0,26.1,M,-21.8,M,,*63
2021-06-27 20:09:49Z, 6cda8203-a249-e411-b0cc-f8bc1246af59, $GPGGA,200948.00,4437.5863,N,12402.8845,W,1,09,1.0,26.2,M,-21.8,M,,*69
2021-06-27 20:09:50Z, 6cda8203-a249-e411-b0cc-f8bc1246af59, $GPGGA,200949.00,4437.5864,N,12402.8844,W,1,09,1.0,26.2,M,-21.8,M,,*6E
2021-06-27 20:09:52Z, 6cda8203-a249-e411-b0cc-f8bc1246af59, $GPGGA,200951.00,4437.5865,N,12402.8845,W,1,09,1.0,26.2,M,-21.8,M,,*67
2021-06-27 20:09:53Z, 6cda8203-a249-e411-b0cc-f8bc1246af59, $GPGGA,200952.00,4437.5862,N,12402.8846,W,1,09,1.0,26.2,M,-21.8,M,,*60
2021-06-27 20:09:55Z, 6cda8203-a249-e411-b0cc-f8bc1246af59, $GPGGA,200954.00,4437.5862,N,12402.8847,W,1,09,1.0,26.2,M,-21.8,M,,*67
2021-06-27 20:09:56Z, 6cda8203-a249-e411-b0cc-f8bc1246af59, $GPGGA,200955.00,4437.5861,N,12402.8847,W,1,09,1.0,26.3,M,-21.8,M,,*64
2021-06-27 20:09:58Z, 6cda8203-a249-e411-b0cc-f8bc1246af59, $GPGGA,200957.00,4437.5861,N,12402.8849,W,1,09,1.0,26.2,M,-21.8,M,,*69
2021-06-27 20:09:59Z, 6cda8203-a249-e411-b0cc-f8bc1246af59, $GPGGA,200958.00,4437.5861,N,12402.8848,W,1,09,1.0,26.3,M,-21.8,M,,*66
2021-06-27 20:09:59Z, 6cda8203-a249-e411-b0cc-f8bc1246af59, $GPGGA,200959.00,4437.5860,N,12402.8846,W,1,09,1.0,26.2,M,-21.8,M,,*69
2021-06-27 20:10:01Z, 6cda8203-a249-e411-b0cc-f8bc1246af59, $GPGGA,201000.00,4437.5858,N,12402.8848,W,1,09,1.0,26.1,M,-21.8,M,,*6B
2021-06-27 20:10:02Z, 6cda8203-a249-e411-b0cc-f8bc1246af59, $GPGGA,201001.00,4437.5855,N,12402.8846,W,1,09,1.0,26.0,M,-21.8,M,,*68
2021-06-27 20:10:03Z, 6cda8203-a249-e411-b0cc-f8bc1246af59, $GPGGA,201002.00,4437.5856,N,12402.8844,W,1,09,1.0,26.0,M,-21.8,M,,*6A
2021-06-27 20:10:04Z, 6cda8203-a249-e411-b0cc-f8bc1246af59, $GPGGA,201003.00,4437.5851,N,12402.8847,W,1,09,1.0,26.1,M,-21.8,M,,*6E
2021-06-27 20:10:06Z, 6cda8203-a249-e411-b0cc-f8bc1246af59, $GPGGA,201005.00,4437.5849,N,12402.8845,W,1,09,1.0,26.0,M,-21.8,M,,*62
2021-06-27 20:10:07Z, 6cda8203-a249-e411-b0cc-f8bc1246af59, $GPGGA,201006.00,4437.5847,N,12402.8844,W,1,09,1.0,26.0,M,-21.8,M,,*6E
2021-06-27 20:10:09Z, 6cda8203-a249-e411-b0cc-f8bc1246af59, $GPGGA,201008.00,4437.5844,N,12402.8846,W,1,09,1.0,26.1,M,-21.8,M,,*60
2021-06-27 20:10:10Z, 6cda8203-a249-e411-b0cc-f8bc1246af59, $GPGGA,201009.00,4437.5844,N,12402.8848,W,1,09,1.0,26.2,M,-21.8,M,,*6C
2021-06-27 20:10:12Z, 6cda8203-a249-e411-b0cc-f8bc1246af59, $GPGGA,201011.00,4437.5842,N,12402.8851,W,1,09,1.0,26.3,M,-21.8,M,,*6A
2021-06-27 20:10:13Z, 6cda8203-a249-e411-b0cc-f8bc1246af59, $GPGGA,201012.00,4437.5844,N,12402.8852,W,1,09,1.0,26.4,M,-21.8,M,,*6B
2021-06-27 20:10:15Z, 6cda8203-a249-e411-b0cc-f8bc1246af59, $GPGGA,201014.00,4437.5844,N,12402.8854,W,1,09,1.0,26.6,M,-21.8,M,,*69
2021-06-27 20:10:16Z, 6cda8203-a249-e411-b0cc-f8bc1246af59, $GPGGA,201015.00,4437.5846,N,12402.8855,W,1,09,1.0,26.6,M,-21.8,M,,*6B
2021-06-27 20:10:18Z, 6cda8203-a249-e411-b0cc-f8bc1246af59, $GPGGA,201017.00,4437.5849,N,12402.8859,W,1,09,1.0,26.7,M,-21.8,M,,*6B
2021-06-27 20:10:19Z, 6cda8203-a249-e411-b0cc-f8bc1246af59, $GPGGA,201018.00,4437.5850,N,12402.8862,W,1,09,1.0,26.8,M,-21.8,M,,*6B
2021-06-27 20:10:21Z, 6cda8203-a249-e411-b0cc-f8bc1246af59, $GPGGA,201020.00,4437.5850,N,12402.8867,W,1,09,1.0,26.9,M,-21.8,M,,*64
2021-06-27 20:10:22Z, 6cda8203-a249-e411-b0cc-f8bc1246af59, $GPGGA,201021.00,4437.5850,N,12402.8868,W,1,09,1.0,27.0,M,-21.8,M,,*62
2021-06-27 20:10:24Z, 6cda8203-a249-e411-b0cc-f8bc1246af59, $GPGGA,201023.00,4437.5854,N,12402.8870,W,1,09,1.0,27.0,M,-21.8,M,,*6D
2021-06-27 20:10:25Z, 6cda8203-a249-e411-b0cc-f8bc1246af59, $GPGGA,201024.00,4437.5859,N,12402.8872,W,1,09,1.0,27.1,M,-21.8,M,,*64
2021-06-27 20:10:27Z, 6cda8203-a249-e411-b0cc-f8bc1246af59, $GPGGA,201026.00,4437.5864,N,12402.8870,W,1,09,1.0,27.1,M,-21.8,M,,*6A
2021-06-27 20:10:28Z, 6cda8203-a249-e411-b0cc-f8bc1246af59, $GPGGA,201027.00,4437.5866,N,12402.8871,W,1,09,1.0,27.1,M,-21.8,M,,*68
2021-06-27 20:10:30Z, 6cda8203-a249-e411-b0cc-f8bc1246af59, $GPGGA,201029.00,4437.5872,N,12402.8870,W,1,09,1.0,27.1,M,-21.8,M,,*62
2021-06-27 20:10:31Z, 6cda8203-a249-e411-b0cc-f8bc1246af59, $GPGGA,201030.00,4437.5872,N,12402.8869,W,1,09,1.0,27.2,M,-21.8,M,,*61
2021-06-27 20:10:33Z, 6cda8203-a249-e411-b0cc-f8bc1246af59, $GPGGA,201032.00,4437.5871,N,12402.8868,W,1,09,1.0,27.0,M,-21.8,M,,*63
2021-06-27 20:10:34Z, 6cda8203-a249-e411-b0cc-f8bc1246af59, $GPGGA,201033.00,4437.5870,N,12402.8870,W,1,09,1.0,26.9,M,-21.8,M,,*62
2021-06-27 20:10:36Z, 6cda8203-a249-e411-b0cc-f8bc1246af59, $GPGGA,201035.00,4437.5868,N,12402.8872,W,1,09,1.0,26.8,M,-21.8,M,,*6E
2021-06-27 20:10:37Z, 6cda8203-a249-e411-b0cc-f8bc1246af59, $GPGGA,201036.00,4437.5868,N,12402.8871,W,1,09,1.0,26.8,M,-21.8,M,,*6E
2021-06-27 20:10:39Z, 6cda8203-a249-e411-b0cc-f8bc1246af59, $GPGGA,201038.00,4437.5868,N,12402.8867,W,1,09,1.0,26.7,M,-21.8,M,,*68
2021-06-27 20:10:40Z, 6cda8203-a249-e411-b0cc-f8bc1246af59, $GPGGA,201039.00,4437.5868,N,12402.8867,W,1,09,1.0,26.8,M,-21.8,M,,*66
2021-06-27 20:10:42Z, 6cda8203-a249-e411-b0cc-f8bc1246af59, $GPGGA,201041.00,4437.5869,N,12402.8867,W,1,09,1.0,26.7,M,-21.8,M,,*67
2021-06-27 20:10:43Z, 6cda8203-a249-e411-b0cc-f8bc1246af59, $GPGGA,201042.00,4437.5869,N,12402.8867,W,1,08,1.0,26.7,M,-21.8,M,,*65
2021-06-27 20:10:45Z, 6cda8203-a249-e411-b0cc-f8bc1246af59, $GPGGA,201044.00,4437.5868,N,12402.8869,W,1,09,1.0,26.7,M,-21.8,M,,*6D
2021-06-27 20:10:46Z, 6cda8203-a249-e411-b0cc-f8bc1246af59, $GPGGA,201045.00,4437.5869,N,12402.8868,W,1,09,1.0,26.7,M,-21.8,M,,*6C
2021-06-27 20:10:48Z, 6cda8203-a249-e411-b0cc-f8bc1246af59, $GPGGA,201047.00,4437.5868,N,12402.8869,W,1,09,1.0,26.7,M,-21.8,M,,*6E
2021-06-27 20:10:49Z, 6cda8203-a249-e411-b0cc-f8bc1246af59, $GPGGA,201048.00,4437.5867,N,12402.8869,W,1,09,1.0,26.7,M,-21.8,M,,*6E
2021-06-27 20:10:51Z, 6cda8203-a249-e411-b0cc-f8bc1246af59, $GPGGA,201050.00,4437.5869,N,12402.8863,W,1,09,1.0,26.6,M,-21.8,M,,*62
2021-06-27 20:10:52Z, 6cda8203-a249-e411-b0cc-f8bc1246af59, $GPGGA,201051.00,4437.5869,N,12402.8862,W,1,09,1.0,26.6,M,-21.8,M,,*62
2021-06-27 20:10:54Z, 6cda8203-a249-e411-b0cc-f8bc1246af59, $GPGGA,201053.00,4437.5869,N,12402.8862,W,1,09,1.0,26.5,M,-21.8,M,,*63
2021-06-27 20:10:55Z, 6cda8203-a249-e411-b0cc-f8bc1246af59, $GPGGA,201054.00,4437.5869,N,12402.8862,W,1,09,1.0,26.5,M,-21.8,M,,*64
2021-06-27 20:10:57Z, 6cda8203-a249-e411-b0cc-f8bc1246af59, $GPGGA,201056.00,4437.5868,N,12402.8864,W,1,09,1.0,26.5,M,-21.8,M,,*61
2021-06-27 20:10:58Z, 6cda8203-a249-e411-b0cc-f8bc1246af59, $GPGGA,201057.00,4437.5867,N,12402.8866,W,1,09,1.0,26.6,M,-21.8,M,,*6E
2021-06-27 20:11:00Z, 6cda8203-a249-e411-b0cc-f8bc1246af59, $GPGGA,201059.00,4437.5866,N,12402.8869,W,1,09,1.0,26.7,M,-21.8,M,,*6F
2021-06-27 20:11:01Z, 6cda8203-a249-e411-b0cc-f8bc1246af59, $GPGGA,201100.00,4437.5865,N,12402.8870,W,1,09,1.0,26.8,M,-21.8,M,,*66
2021-06-27 20:11:03Z, 6cda8203-a249-e411-b0cc-f8bc1246af59, $GPGGA,201102.00,4437.5862,N,12402.8871,W,1,09,1.0,26.7,M,-21.8,M,,*6D
2021-06-27 20:11:04Z, 6cda8203-a249-e411-b0cc-f8bc1246af59, $GPGGA,201103.00,4437.5862,N,12402.8871,W,1,09,1.0,26.7,M,-21.8,M,,*6C
2021-06-27 20:11:06Z, 6cda8203-a249-e411-b0cc-f8bc1246af59, $GPGGA,201105.00,4437.5860,N,12402.8873,W,1,09,1.0,26.7,M,-21.8,M,,*6A
2021-06-27 20:11:07Z, 6cda8203-a249-e411-b0cc-f8bc1246af59, $GPGGA,201106.00,4437.5860,N,12402.8874,W,1,09,1.0,26.8,M,-21.8,M,,*61
2021-06-27 20:11:09Z, 6cda8203-a249-e411-b0cc-f8bc1246af59, $GPGGA,201108.00,4437.5859,N,12402.8876,W,1,09,1.0,26.8,M,-21.8,M,,*67
2021-06-27 20:11:10Z, 6cda8203-a249-e411-b0cc-f8bc1246af59, $GPGGA,201109.00,4437.5858,N,12402.8878,W,1,09,1.0,26.8,M,-21.8,M,,*69
2021-06-27 20:11:12Z, 6cda8203-a249-e411-b0cc-f8bc1246af59, $GPGGA,201111.00,4437.5854,N,12402.8880,W,1,09,1.0,26.9,M,-21.8,M,,*6A
2021-06-27 20:11:13Z, 6cda8203-a249-e411-b0cc-f8bc1246af59, $GPGGA,201112.00,4437.5853,N,12402.8881,W,1,09,1.0,26.9,M,-21.8,M,,*6F
2021-06-27 20:11:15Z, 6cda8203-a249-e411-b0cc-f8bc1246af59, $GPGGA,201114.00,4437.5852,N,12402.8884,W,1,09,1.0,27.0,M,-21.8,M,,*65
2021-06-27 20:11:16Z, 6cda8203-a249-e411-b0cc-f8bc1246af59, $GPGGA,201115.00,4437.5852,N,12402.8883,W,1,09,1.0,27.0,M,-21.8,M,,*63
2021-06-27 20:11:18Z, 6cda8203-a249-e411-b0cc-f8bc1246af59, $GPGGA,201117.00,4437.5850,N,12402.8887,W,1,09,1.0,27.0,M,-21.8,M,,*67
2021-06-27 20:11:19Z, 6cda8203-a249-e411-b0cc-f8bc1246af59, $GPGGA,201118.00,4437.5849,N,12402.8885,W,1,09,1.0,27.1,M,-21.8,M,,*63
2021-06-27 20:11:21Z, 6cda8203-a249-e411-b0cc-f8bc1246af59, $GPGGA,201120.00,4437.5847,N,12402.8886,W,1,09,1.0,27.0,M,-21.8,M,,*64
2021-06-27 20:11:22Z, 6cda8203-a249-e411-b0cc-f8bc1246af59, $GPGGA,201121.00,4437.5844,N,12402.8885,W,1,09,1.0,26.8,M,-21.8,M,,*6C
2021-06-27 20:11:24Z, 6cda8203-a249-e411-b0cc-f8bc1246af59, $GPGGA,201123.00,4437.5843,N,12402.8884,W,1,09,1.0,26.9,M,-21.8,M,,*69
2021-06-27 20:11:25Z, 6cda8203-a249-e411-b0cc-f8bc1246af59, $GPGGA,201124.00,4437.5843,N,12402.8883,W,1,09,1.0,26.9,M,-21.8,M,,*69
2021-06-27 20:11:27Z, 6cda8203-a249-e411-b0cc-f8bc1246af59, $GPGGA,201126.00,4437.5843,N,12402.8880,W,1,09,1.0,27.0,M,-21.8,M,,*60
2021-06-27 20:11:28Z, 6cda8203-a249-e411-b0cc-f8bc1246af59, $GPGGA,201127.00,4437.5843,N,12402.8878,W,1,09,1.0,27.0,M,-21.8,M,,*66
2021-06-27 20:11:30Z, 6cda8203-a249-e411-b0cc-f8bc1246af59, $GPGGA,201129.00,4437.5845,N,12402.8875,W,1,09,1.0,27.0,M,-21.8,M,,*63
2021-06-27 20:11:31Z, 6cda8203-a249-e411-b0cc-f8bc1246af59, $GPGGA,201130.00,4437.5846,N,12402.8872,W,1,09,1.0,27.0,M,-21.8,M,,*6F
2021-06-27 20:11:33Z, 6cda8203-a249-e411-b0cc-f8bc1246af59, $GPGGA,201132.00,4437.5846,N,12402.8868,W,1,09,1.0,27.1,M,-21.8,M,,*67
2021-06-27 20:11:34Z, 6cda8203-a249-e411-b0cc-f8bc1246af59, $GPGGA,201133.00,4437.5847,N,12402.8868,W,1,09,1.0,27.2,M,-21.8,M,,*64
2021-06-27 20:11:36Z, 6cda8203-a249-e411-b0cc-f8bc1246af59, $GPGGA,201135.00,4437.5849,N,12402.8868,W,1,09,1.0,27.1,M,-21.8,M,,*6F
2021-06-27 20:11:37Z, 6cda8203-a249-e411-b0cc-f8bc1246af59, $GPGGA,201136.00,4437.5850,N,12402.8868,W,1,09,1.0,27.1,M,-21.8,M,,*64
2021-06-27 20:11:39Z, 6cda8203-a249-e411-b0cc-f8bc1246af59, $GPGGA,201138.00,4437.5848,N,12402.8869,W,1,09,1.0,27.1,M,-21.8,M,,*62
2021-06-27 20:11:40Z, 6cda8203-a249-e411-b0cc-f8bc1246af59, $GPGGA,201139.00,4437.5848,N,12402.8872,W,1,09,1.0,27.1,M,-21.8,M,,*69
2021-06-27 20:11:42Z, 6cda8203-a249-e411-b0cc-f8bc1246af59, $GPGGA,201141.00,4437.5849,N,12402.8878,W,1,09,1.0,27.2,M,-21.8,M,,*6E
2021-06-27 20:11:43Z, 6cda8203-a249-e411-b0cc-f8bc1246af59, $GPGGA,201142.00,4437.5851,N,12402.8882,W,1,09,1.0,27.3,M,-21.8,M,,*60
2021-06-27 20:11:45Z, 6cda8203-a249-e411-b0cc-f8bc1246af59, $GPGGA,201144.00,4437.5851,N,12402.8883,W,1,09,1.0,27.4,M,-21.8,M,,*60
2021-06-27 20:11:46Z, 6cda8203-a249-e411-b0cc-f8bc1246af59, $GPGGA,201145.00,4437.5853,N,12402.8881,W,1,09,1.0,27.5,M,-21.8,M,,*60
2021-06-27 20:11:48Z, 6cda8203-a249-e411-b0cc-f8bc1246af59, $GPGGA,201147.00,4437.5852,N,12402.8880,W,1,09,1.0,27.6,M,-21.8,M,,*61
2021-06-27 20:11:49Z, 6cda8203-a249-e411-b0cc-f8bc1246af59, $GPGGA,201148.00,4437.5852,N,12402.8881,W,1,09,1.0,27.8,M,-21.8,M,,*61
2021-06-27 20:11:51Z, 6cda8203-a249-e411-b0cc-f8bc1246af59, $GPGGA,201150.00,4437.5852,N,12402.8884,W,1,09,1.0,27.9,M,-21.8,M,,*6C
2021-06-27 20:11:52Z, 6cda8203-a249-e411-b0cc-f8bc1246af59, $GPGGA,201151.00,4437.5851,N,12402.8883,W,1,09,1.0,28.0,M,-21.8,M,,*6F
2021-06-27 20:11:54Z, 6cda8203-a249-e411-b0cc-f8bc1246af59, $GPGGA,201153.00,4437.5851,N,12402.8884,W,1,09,1.0,27.9,M,-21.8,M,,*6C
2021-06-27 20:11:55Z, 6cda8203-a249-e411-b0cc-f8bc1246af59, $GPGGA,201154.00,4437.5849,N,12402.8884,W,1,09,1.0,27.8,M,-21.8,M,,*63
2021-06-27 20:11:57Z, 6cda8203-a249-e411-b0cc-f8bc1246af59, $GPGGA,201156.00,4437.5852,N,12402.8884,W,1,09,1.0,27.7,M,-21.8,M,,*64
2021-06-27 20:11:58Z, 6cda8203-a249-e411-b0cc-f8bc1246af59, $GPGGA,201157.00,4437.5853,N,12402.8884,W,1,09,1.0,27.7,M,-21.8,M,,*64
2021-06-27 20:12:00Z, 6cda8203-a249-e411-b0cc-f8bc1246af59, $GPGGA,201159.00,4437.5854,N,12402.8883,W,1,09,1.0,27.7,M,-21.8,M,,*6A
2021-06-27 20:12:01Z, 6cda8203-a249-e411-b0cc-f8bc1246af59, $GPGGA,201200.00,4437.5854,N,12402.8883,W,1,09,1.0,27.8,M,-21.8,M,,*6A
2021-06-27 20:12:03Z, 6cda8203-a249-e411-b0cc-f8bc1246af59, $GPGGA,201202.00,4437.5853,N,12402.8886,W,1,09,1.0,28.0,M,-21.8,M,,*6D
2021-06-27 20:12:04Z, 6cda8203-a249-e411-b0cc-f8bc1246af59, $GPGGA,201203.00,4437.5852,N,12402.8888,W,1,09,1.0,28.1,M,-21.8,M,,*62
2021-06-27 20:12:05Z, 6cda8203-a249-e411-b0cc-f8bc1246af59, $GPGGA,201204.00,4437.5854,N,12402.8890,W,1,09,1.0,28.2,M,-21.8,M,,*69
2021-06-27 20:12:06Z, 6cda8203-a249-e411-b0cc-f8bc1246af59, $GPGGA,201205.00,4437.5854,N,12402.8888,W,1,09,1.0,28.2,M,-21.8,M,,*61
2021-06-27 20:12:08Z, 6cda8203-a249-e411-b0cc-f8bc1246af59, $GPGGA,201206.00,4437.5855,N,12402.8888,W,1,09,1.0,28.1,M,-21.8,M,,*60
2021-06-27 20:12:08Z, 6cda8203-a249-e411-b0cc-f8bc1246af59, $GPGGA,201207.00,4437.5855,N,12402.8889,W,1,09,1.0,28.0,M,-21.8,M,,*61
2021-06-27 20:12:09Z, 6cda8203-a249-e411-b0cc-f8bc1246af59, $GPGGA,201208.00,4437.5855,N,12402.8889,W,1,09,1.0,28.0,M,-21.8,M,,*6E
2021-06-27 20:12:11Z, 6cda8203-a249-e411-b0cc-f8bc1246af59, $GPGGA,201210.00,4437.5857,N,12402.8885,W,1,09,1.0,28.2,M,-21.8,M,,*6B
2021-06-27 20:12:12Z, 6cda8203-a249-e411-b0cc-f8bc1246af59, $GPGGA,201211.00,4437.5856,N,12402.8887,W,1,09,1.0,28.3,M,-21.8,M,,*68
2021-06-27 20:12:14Z, 6cda8203-a249-e411-b0cc-f8bc1246af59, $GPGGA,201213.00,4437.5854,N,12402.8887,W,1,09,1.0,28.3,M,-21.8,M,,*68
2021-06-27 20:12:15Z, 6cda8203-a249-e411-b0cc-f8bc1246af59, $GPGGA,201214.00,4437.5854,N,12402.8888,W,1,09,1.0,28.3,M,-21.8,M,,*60
2021-06-27 20:12:17Z, 6cda8203-a249-e411-b0cc-f8bc1246af59, $GPGGA,201216.00,4437.5858,N,12402.8896,W,1,09,1.0,28.8,M,-21.8,M,,*6A
2021-06-27 20:12:18Z, 6cda8203-a249-e411-b0cc-f8bc1246af59, $GPGGA,201217.00,4437.5859,N,12402.8898,W,1,09,1.0,29.0,M,-21.8,M,,*6D
2021-06-27 20:12:20Z, 6cda8203-a249-e411-b0cc-f8bc1246af59, $GPGGA,201219.00,4437.5859,N,12402.8897,W,1,09,1.0,29.1,M,-21.8,M,,*6D
2021-06-27 20:12:21Z, 6cda8203-a249-e411-b0cc-f8bc1246af59, $GPGGA,201220.00,4437.5860,N,12402.8898,W,1,09,1.0,29.1,M,-21.8,M,,*62
2021-06-27 20:12:23Z, 6cda8203-a249-e411-b0cc-f8bc1246af59, $GPGGA,201222.00,4437.5865,N,12402.8898,W,1,09,1.0,29.3,M,-21.8,M,,*67
2021-06-27 20:12:24Z, 6cda8203-a249-e411-b0cc-f8bc1246af59, $GPGGA,201223.00,4437.5866,N,12402.8898,W,1,09,1.0,29.4,M,-21.8,M,,*62
2021-06-27 20:12:26Z, 6cda8203-a249-e411-b0cc-f8bc1246af59, $GPGGA,201225.00,4437.5867,N,12402.8900,W,1,09,1.0,29.5,M,-21.8,M,,*64
2021-06-27 20:12:27Z, 6cda8203-a249-e411-b0cc-f8bc1246af59, $GPGGA,201226.00,4437.5867,N,12402.8902,W,1,09,1.0,29.6,M,-21.8,M,,*66
2021-06-27 20:12:29Z, 6cda8203-a249-e411-b0cc-f8bc1246af59, $GPGGA,201228.00,4437.5866,N,12402.8904,W,1,09,1.0,29.5,M,-21.8,M,,*6C
2021-06-27 20:12:30Z, 6cda8203-a249-e411-b0cc-f8bc1246af59, $GPGGA,201229.00,4437.5866,N,12402.8903,W,1,09,1.0,29.6,M,-21.8,M,,*69
2021-06-27 20:12:32Z, 6cda8203-a249-e411-b0cc-f8bc1246af59, $GPGGA,201231.00,4437.5865,N,12402.8905,W,1,09,1.0,29.5,M,-21.8,M,,*66
2021-06-27 20:12:33Z, 6cda8203-a249-e411-b0cc-f8bc1246af59, $GPGGA,201232.00,4437.5866,N,12402.8907,W,1,09,1.0,29.5,M,-21.8,M,,*64
2021-06-27 20:12:35Z, 6cda8203-a249-e411-b0cc-f8bc1246af59, $GPGGA,201234.00,4437.5866,N,12402.8908,W,1,09,1.0,29.5,M,-21.8,M,,*6D
2021-06-27 20:12:36Z, 6cda8203-a249-e411-b0cc-f8bc1246af59, $GPGGA,201235.00,4437.5867,N,12402.8906,W,1,09,1.0,29.5,M,-21.8,M,,*63
2021-06-27 20:12:38Z, 6cda8203-a249-e411-b0cc-f8bc1246af59, $GPGGA,201237.00,4437.5865,N,12402.8903,W,1,09,1.0,29.4,M,-21.8,M,,*67
2021-06-27 20:12:39Z, 6cda8203-a249-e411-b0cc-f8bc1246af59, $GPGGA,201238.00,4437.5864,N,12402.8904,W,1,09,1.0,29.4,M,-21.8,M,,*6E
2021-06-27 20:12:41Z, 6cda8203-a249-e411-b0cc-f8bc1246af59, $GPGGA,201240.00,4437.5862,N,12402.8903,W,1,09,1.0,29.5,M,-21.8,M,,*61
2021-06-27 20:12:42Z, 6cda8203-a249-e411-b0cc-f8bc1246af59, $GPGGA,201241.00,4437.5862,N,12402.8905,W,1,09,1.0,29.5,M,-21.8,M,,*66
2021-06-27 20:12:44Z, 6cda8203-a249-e411-b0cc-f8bc1246af59, $GPGGA,201243.00,4437.5862,N,12402.8906,W,1,09,1.0,29.5,M,-21.8,M,,*67
2021-06-27 20:12:45Z, 6cda8203-a249-e411-b0cc-f8bc1246af59, $GPGGA,201244.00,4437.5862,N,12402.8906,W,1,09,1.0,29.4,M,-21.8,M,,*61
2021-06-27 20:12:47Z, 6cda8203-a249-e411-b0cc-f8bc1246af59, $GPGGA,201246.00,4437.5857,N,12402.8909,W,1,09,1.0,29.3,M,-21.8,M,,*6D
2021-06-27 20:12:48Z, 6cda8203-a249-e411-b0cc-f8bc1246af59, $GPGGA,201247.00,4437.5855,N,12402.8911,W,1,09,1.0,29.3,M,-21.8,M,,*67
2021-06-27 20:12:50Z, 6cda8203-a249-e411-b0cc-f8bc1246af59, $GPGGA,201249.00,4437.5856,N,12402.8910,W,1,09,1.0,29.2,M,-21.8,M,,*6A
2021-06-27 20:12:51Z, 6cda8203-a249-e411-b0cc-f8bc1246af59, $GPGGA,201250.00,4437.5857,N,12402.8910,W,1,09,1.0,29.2,M,-21.8,M,,*63
2021-06-27 20:12:53Z, 6cda8203-a249-e411-b0cc-f8bc1246af59, $GPGGA,201252.00,4437.5859,N,12402.8911,W,1,09,1.0,29.0,M,-21.8,M,,*6C
2021-06-27 20:12:54Z, 6cda8203-a249-e411-b0cc-f8bc1246af59, $GPGGA,201253.00,4437.5860,N,12402.8911,W,1,09,1.0,28.8,M,-21.8,M,,*6E
2021-06-27 20:12:56Z, 6cda8203-a249-e411-b0cc-f8bc1246af59, $GPGGA,201255.00,4437.5859,N,12402.8915,W,1,09,1.0,28.7,M,-21.8,M,,*69
2021-06-27 20:12:57Z, 6cda8203-a249-e411-b0cc-f8bc1246af59, $GPGGA,201256.00,4437.5858,N,12402.8916,W,1,09,1.0,28.6,M,-21.8,M,,*69
2021-06-27 20:12:59Z, 6cda8203-a249-e411-b0cc-f8bc1246af59, $GPGGA,201258.00,4437.5855,N,12402.8923,W,1,09,1.0,28.5,M,-21.8,M,,*6F
2021-06-27 20:13:00Z, 6cda8203-a249-e411-b0cc-f8bc1246af59, $GPGGA,201259.00,4437.5851,N,12402.8926,W,1,09,1.0,28.5,M,-21.8,M,,*6F
2021-06-27 20:13:02Z, 6cda8203-a249-e411-b0cc-f8bc1246af59, $GPGGA,201301.00,4437.5851,N,12402.8926,W,1,09,1.0,28.5,M,-21.8,M,,*63
2021-06-27 20:13:03Z, 6cda8203-a249-e411-b0cc-f8bc1246af59, $GPGGA,201302.00,4437.5850,N,12402.8925,W,1,09,1.0,28.4,M,-21.8,M,,*63
2021-06-27 20:13:05Z, 6cda8203-a249-e411-b0cc-f8bc1246af59, $GPGGA,201304.00,4437.5850,N,12402.8926,W,1,09,1.0,28.4,M,-21.8,M,,*66
2021-06-27 20:13:06Z, 6cda8203-a249-e411-b0cc-f8bc1246af59, $GPGGA,201305.00,4437.5851,N,12402.8928,W,1,09,1.0,28.6,M,-21.8,M,,*6A
2021-06-27 20:13:08Z, 6cda8203-a249-e411-b0cc-f8bc1246af59, $GPGGA,201307.00,4437.5853,N,12402.8931,W,1,09,1.0,28.5,M,-21.8,M,,*61
2021-06-27 20:13:09Z, 6cda8203-a249-e411-b0cc-f8bc1246af59, $GPGGA,201308.00,4437.5852,N,12402.8932,W,1,09,1.0,28.4,M,-21.8,M,,*6D
2021-06-27 20:13:11Z, 6cda8203-a249-e411-b0cc-f8bc1246af59, $GPGGA,201310.00,4437.5849,N,12402.8935,W,1,09,1.0,28.5,M,-21.8,M,,*68
2021-06-27 20:13:12Z, 6cda8203-a249-e411-b0cc-f8bc1246af59, $GPGGA,201311.00,4437.5848,N,12402.8934,W,1,09,1.0,28.5,M,-21.8,M,,*69
2021-06-27 20:13:14Z, 6cda8203-a249-e411-b0cc-f8bc1246af59, $GPGGA,201313.00,4437.5846,N,12402.8931,W,1,09,1.0,28.3,M,-21.8,M,,*66
2021-06-27 20:13:15Z, 6cda8203-a249-e411-b0cc-f8bc1246af59, $GPGGA,201314.00,4437.5845,N,12402.8931,W,1,09,1.0,28.4,M,-21.8,M,,*65
2021-06-27 20:13:17Z, 6cda8203-a249-e411-b0cc-f8bc1246af59, $GPGGA,201316.00,4437.5845,N,12402.8931,W,1,09,1.0,28.4,M,-21.8,M,,*67
2021-06-27 20:13:18Z, 6cda8203-a249-e411-b0cc-f8bc1246af59, $GPGGA,201317.00,4437.5847,N,12402.8931,W,1,09,1.0,28.3,M,-21.8,M,,*63
2021-06-27 20:13:20Z, 6cda8203-a249-e411-b0cc-f8bc1246af59, $GPGGA,201319.00,4437.5849,N,12402.8930,W,1,09,1.0,28.1,M,-21.8,M,,*60
2021-06-27 20:13:21Z, 6cda8203-a249-e411-b0cc-f8bc1246af59, $GPGGA,201320.00,4437.5850,N,12402.8931,W,1,09,1.0,28.2,M,-21.8,M,,*60
2021-06-27 20:13:23Z, 6cda8203-a249-e411-b0cc-f8bc1246af59, $GPGGA,201322.00,4437.5852,N,12402.8931,W,1,09,1.0,28.1,M,-21.8,M,,*63
2021-06-27 20:13:24Z, 6cda8203-a249-e411-b0cc-f8bc1246af59, $GPGGA,201323.00,4437.5851,N,12402.8931,W,1,09,1.0,28.3,M,-21.8,M,,*63
2021-06-27 20:13:26Z, 6cda8203-a249-e411-b0cc-f8bc1246af59, $GPGGA,201325.00,4437.5851,N,12402.8931,W,1,09,1.0,28.3,M,-21.8,M,,*65
2021-06-27 20:13:27Z, 6cda8203-a249-e411-b0cc-f8bc1246af59, $GPGGA,201326.00,4437.5851,N,12402.8932,W,1,09,1.0,28.3,M,-21.8,M,,*65
2021-06-27 20:13:29Z, 6cda8203-a249-e411-b0cc-f8bc1246af59, $GPGGA,201328.00,4437.5851,N,12402.8931,W,1,09,1.0,28.4,M,-21.8,M,,*6F
2021-06-27 20:13:30Z, 6cda8203-a249-e411-b0cc-f8bc1246af59, $GPGGA,201329.00,4437.5852,N,12402.8932,W,1,09,1.0,28.4,M,-21.8,M,,*6E
2021-06-27 20:13:32Z, 6cda8203-a249-e411-b0cc-f8bc1246af59, $GPGGA,201331.00,4437.5853,N,12402.8930,W,1,09,1.0,28.5,M,-21.8,M,,*65
2021-06-27 20:13:33Z, 6cda8203-a249-e411-b0cc-f8bc1246af59, $GPGGA,201332.00,4437.5855,N,12402.8931,W,1,09,1.0,28.6,M,-21.8,M,,*62
2021-06-27 20:13:35Z, 6cda8203-a249-e411-b0cc-f8bc1246af59, $GPGGA,201334.00,4437.5854,N,12402.8931,W,1,09,1.0,28.5,M,-21.8,M,,*66
2021-06-27 20:13:36Z, 6cda8203-a249-e411-b0cc-f8bc1246af59, $GPGGA,201335.00,4437.5854,N,12402.8931,W,1,09,1.0,28.6,M,-21.8,M,,*64
2021-06-27 20:13:38Z, 6cda8203-a249-e411-b0cc-f8bc1246af59, $GPGGA,201337.00,4437.5855,N,12402.8931,W,1,09,1.0,28.8,M,-21.8,M,,*69
2021-06-27 20:13:39Z, 6cda8203-a249-e411-b0cc-f8bc1246af59, $GPGGA,201338.00,4437.5854,N,12402.8931,W,1,09,1.0,28.9,M,-21.8,M,,*66
2021-06-27 20:13:41Z, 6cda8203-a249-e411-b0cc-f8bc1246af59, $GPGGA,201340.00,4437.5855,N,12402.8932,W,1,09,1.0,28.9,M,-21.8,M,,*6B
2021-06-27 20:13:42Z, 6cda8203-a249-e411-b0cc-f8bc1246af59, $GPGGA,201341.00,4437.5857,N,12402.8931,W,1,09,1.0,29.0,M,-21.8,M,,*63
2021-06-27 20:13:44Z, 6cda8203-a249-e411-b0cc-f8bc1246af59, $GPGGA,201343.00,4437.5857,N,12402.8928,W,1,09,1.0,29.1,M,-21.8,M,,*68
2021-06-27 20:13:45Z, 6cda8203-a249-e411-b0cc-f8bc1246af59, $GPGGA,201344.00,4437.5856,N,12402.8926,W,1,09,1.0,29.2,M,-21.8,M,,*63
2021-06-27 20:13:47Z, 6cda8203-a249-e411-b0cc-f8bc1246af59, $GPGGA,201346.00,4437.5855,N,12402.8925,W,1,09,1.0,29.1,M,-21.8,M,,*62
2021-06-27 20:13:48Z, 6cda8203-a249-e411-b0cc-f8bc1246af59, $GPGGA,201347.00,4437.5855,N,12402.8922,W,1,09,1.0,29.2,M,-21.8,M,,*67
2021-06-27 20:13:50Z, 6cda8203-a249-e411-b0cc-f8bc1246af59, $GPGGA,201349.00,4437.5855,N,12402.8925,W,1,09,1.0,29.2,M,-21.8,M,,*6E
2021-06-27 20:13:51Z, 6cda8203-a249-e411-b0cc-f8bc1246af59, $GPGGA,201350.00,4437.5854,N,12402.8925,W,1,09,1.0,29.1,M,-21.8,M,,*64
2021-06-27 20:13:53Z, 6cda8203-a249-e411-b0cc-f8bc1246af59, $GPGGA,201352.00,4437.5851,N,12402.8923,W,1,09,1.0,29.1,M,-21.8,M,,*65
2021-06-27 20:13:54Z, 6cda8203-a249-e411-b0cc-f8bc1246af59, $GPGGA,201353.00,4437.5850,N,12402.8922,W,1,08,1.0,29.1,M,-21.8,M,,*65
2021-06-27 20:13:56Z, 6cda8203-a249-e411-b0cc-f8bc1246af59, $GPGGA,201355.00,4437.5847,N,12402.8915,W,1,09,1.0,29.0,M,-21.8,M,,*61
2021-06-27 20:13:57Z, 6cda8203-a249-e411-b0cc-f8bc1246af59, $GPGGA,201356.00,4437.5846,N,12402.8913,W,1,09,1.0,28.9,M,-21.8,M,,*6D
2021-06-27 20:13:59Z, 6cda8203-a249-e411-b0cc-f8bc1246af59, $GPGGA,201358.00,4437.5844,N,12402.8911,W,1,09,1.0,29.0,M,-21.8,M,,*6B
2021-06-27 20:14:00Z, 6cda8203-a249-e411-b0cc-f8bc1246af59, $GPGGA,201359.00,4437.5843,N,12402.8910,W,1,08,1.0,29.0,M,-21.8,M,,*6D
2021-06-27 20:14:02Z, 6cda8203-a249-e411-b0cc-f8bc1246af59, $GPGGA,201401.00,4437.5840,N,12402.8902,W,1,08,1.0,28.8,M,-21.8,M,,*6E
2021-06-27 20:14:03Z, 6cda8203-a249-e411-b0cc-f8bc1246af59, $GPGGA,201402.00,4437.5839,N,12402.8900,W,1,08,1.0,28.7,M,-21.8,M,,*6E
2021-06-27 20:14:05Z, 6cda8203-a249-e411-b0cc-f8bc1246af59, $GPGGA,201404.00,4437.5837,N,12402.8900,W,1,08,1.0,28.6,M,-21.8,M,,*67
2021-06-27 20:14:06Z, 6cda8203-a249-e411-b0cc-f8bc1246af59, $GPGGA,201405.00,4437.5837,N,12402.8899,W,1,08,1.0,28.6,M,-21.8,M,,*67
2021-06-27 20:14:08Z, 6cda8203-a249-e411-b0cc-f8bc1246af59, $GPGGA,201407.00,4437.5835,N,12402.8905,W,1,08,1.0,28.5,M,-21.8,M,,*60
2021-06-27 20:14:09Z, 6cda8203-a249-e411-b0cc-f8bc1246af59, $GPGGA,201408.00,4437.5834,N,12402.8905,W,1,08,1.0,28.4,M,-21.8,M,,*6F
2021-06-27 20:14:10Z, 6cda8203-a249-e411-b0cc-f8bc1246af59, $GPGGA,201409.00,4437.5835,N,12402.8902,W,1,08,1.0,28.4,M,-21.8,M,,*68
2021-06-27 20:14:11Z, 6cda8203-a249-e411-b0cc-f8bc1246af59, $GPGGA,201410.00,4437.5833,N,12402.8903,W,1,08,1.0,28.4,M,-21.8,M,,*67
2021-06-27 20:14:12Z, 6cda8203-a249-e411-b0cc-f8bc1246af59, $GPGGA,201411.00,4437.5835,N,12402.8904,W,1,09,1.0,28.3,M,-21.8,M,,*61
2021-06-27 20:14:13Z, 6cda8203-a249-e411-b0cc-f8bc1246af59, $GPGGA,201412.00,4437.5834,N,12402.8906,W,1,09,1.0,28.3,M,-21.8,M,,*61
2021-06-27 20:14:14Z, 6cda8203-a249-e411-b0cc-f8bc1246af59, $GPGGA,201413.00,4437.5832,N,12402.8909,W,1,09,1.0,28.3,M,-21.8,M,,*69
2021-06-27 20:14:16Z, 6cda8203-a249-e411-b0cc-f8bc1246af59, $GPGGA,201415.00,4437.5831,N,12402.8908,W,1,08,1.0,28.2,M,-21.8,M,,*6D
2021-06-27 20:14:17Z, 6cda8203-a249-e411-b0cc-f8bc1246af59, $GPGGA,201416.00,4437.5830,N,12402.8907,W,1,09,1.0,28.2,M,-21.8,M,,*61
2021-06-27 20:14:19Z, 6cda8203-a249-e411-b0cc-f8bc1246af59, $GPGGA,201418.00,4437.5832,N,12402.8910,W,1,09,1.0,28.0,M,-21.8,M,,*69
2021-06-27 20:14:20Z, 6cda8203-a249-e411-b0cc-f8bc1246af59, $GPGGA,201419.00,4437.5832,N,12402.8910,W,1,09,1.0,28.1,M,-21.8,M,,*69
2021-06-27 20:14:22Z, 6cda8203-a249-e411-b0cc-f8bc1246af59, $GPGGA,201421.00,4437.5833,N,12402.8913,W,1,08,1.0,28.0,M,-21.8,M,,*60
2021-06-27 20:14:23Z, 6cda8203-a249-e411-b0cc-f8bc1246af59, $GPGGA,201422.00,4437.5834,N,12402.8914,W,1,08,1.0,28.0,M,-21.8,M,,*63
2021-06-27 20:14:25Z, 6cda8203-a249-e411-b0cc-f8bc1246af59, $GPGGA,201424.00,4437.5836,N,12402.8909,W,1,08,1.0,27.9,M,-21.8,M,,*6D
2021-06-27 20:14:26Z, 6cda8203-a249-e411-b0cc-f8bc1246af59, $GPGGA,201425.00,4437.5836,N,12402.8909,W,1,08,1.0,27.8,M,-21.8,M,,*6D
2021-06-27 20:14:28Z, 6cda8203-a249-e411-b0cc-f8bc1246af59, $GPGGA,201427.00,4437.5842,N,12402.8900,W,1,08,1.0,27.4,M,-21.8,M,,*69
2021-06-27 20:14:29Z, 6cda8203-a249-e411-b0cc-f8bc1246af59, $GPGGA,201428.00,4437.5842,N,12402.8894,W,1,08,1.0,26.9,M,-21.8,M,,*66
2021-06-27 20:14:31Z, 6cda8203-a249-e411-b0cc-f8bc1246af59, $GPGGA,201430.00,4437.5839,N,12402.8891,W,1,08,1.0,26.6,M,-21.8,M,,*69
2021-06-27 20:14:32Z, 6cda8203-a249-e411-b0cc-f8bc1246af59, $GPGGA,201431.00,4437.5840,N,12402.8893,W,1,08,1.0,26.7,M,-21.8,M,,*65
2021-06-27 20:14:34Z, 6cda8203-a249-e411-b0cc-f8bc1246af59, $GPGGA,201433.00,4437.5842,N,12402.8897,W,1,09,1.0,26.7,M,-21.8,M,,*60
2021-06-27 20:14:35Z, 6cda8203-a249-e411-b0cc-f8bc1246af59, $GPGGA,201434.00,4437.5842,N,12402.8896,W,1,09,1.0,26.7,M,-21.8,M,,*66
2021-06-27 20:14:37Z, 6cda8203-a249-e411-b0cc-f8bc1246af59, $GPGGA,201436.00,4437.5843,N,12402.8896,W,1,09,1.0,26.6,M,-21.8,M,,*64
2021-06-27 20:14:38Z, 6cda8203-a249-e411-b0cc-f8bc1246af59, $GPGGA,201437.00,4437.5843,N,12402.8894,W,1,09,1.0,26.5,M,-21.8,M,,*64
2021-06-27 20:14:40Z, 6cda8203-a249-e411-b0cc-f8bc1246af59, $GPGGA,201439.00,4437.5844,N,12402.8896,W,1,09,1.0,26.6,M,-21.8,M,,*6C
2021-06-27 20:14:41Z, 6cda8203-a249-e411-b0cc-f8bc1246af59, $GPGGA,201440.00,4437.5844,N,12402.8899,W,1,09,1.0,26.6,M,-21.8,M,,*6D
2021-06-27 20:14:43Z, 6cda8203-a249-e411-b0cc-f8bc1246af59, $GPGGA,201442.00,4437.5848,N,12402.8905,W,1,09,1.0,26.8,M,-21.8,M,,*69
2021-06-27 20:14:44Z, 6cda8203-a249-e411-b0cc-f8bc1246af59, $GPGGA,201443.00,4437.5849,N,12402.8905,W,1,09,1.0,26.7,M,-21.8,M,,*66
2021-06-27 20:14:46Z, 6cda8203-a249-e411-b0cc-f8bc1246af59, $GPGGA,201445.00,4437.5849,N,12402.8905,W,1,08,1.0,26.7,M,-21.8,M,,*61
2021-06-27 20:14:47Z, 6cda8203-a249-e411-b0cc-f8bc1246af59, $GPGGA,201446.00,4437.5847,N,12402.8903,W,1,08,1.0,26.6,M,-21.8,M,,*6B
2021-06-27 20:14:49Z, 6cda8203-a249-e411-b0cc-f8bc1246af59, $GPGGA,201448.00,4437.5847,N,12402.8905,W,1,08,1.0,26.7,M,-21.8,M,,*62
2021-06-27 20:14:50Z, 6cda8203-a249-e411-b0cc-f8bc1246af59, $GPGGA,201449.00,4437.5846,N,12402.8906,W,1,08,1.0,26.7,M,-21.8,M,,*61
2021-06-27 20:14:52Z, 6cda8203-a249-e411-b0cc-f8bc1246af59, $GPGGA,201451.00,4437.5846,N,12402.8908,W,1,08,1.0,26.9,M,-21.8,M,,*68
2021-06-27 20:14:53Z, 6cda8203-a249-e411-b0cc-f8bc1246af59, $GPGGA,201452.00,4437.5846,N,12402.8909,W,1,08,1.0,27.0,M,-21.8,M,,*62
2021-06-27 20:14:55Z, 6cda8203-a249-e411-b0cc-f8bc1246af59, $GPGGA,201454.00,4437.5845,N,12402.8910,W,1,08,1.0,27.0,M,-21.8,M,,*6F
2021-06-27 20:14:56Z, 6cda8203-a249-e411-b0cc-f8bc1246af59, $GPGGA,201455.00,4437.5844,N,12402.8912,W,1,09,1.0,27.1,M,-21.8,M,,*6D
2021-06-27 20:14:58Z, 6cda8203-a249-e411-b0cc-f8bc1246af59, $GPGGA,201457.00,4437.5842,N,12402.8913,W,1,09,1.0,26.9,M,-21.8,M,,*61
2021-06-27 20:14:59Z, 6cda8203-a249-e411-b0cc-f8bc1246af59, $GPGGA,201458.00,4437.5841,N,12402.8916,W,1,09,1.0,26.9,M,-21.8,M,,*68
2021-06-27 20:15:01Z, 6cda8203-a249-e411-b0cc-f8bc1246af59, $GPGGA,201500.00,4437.5838,N,12402.8920,W,1,09,1.0,27.1,M,-21.8,M,,*66
2021-06-27 20:15:02Z, 6cda8203-a249-e411-b0cc-f8bc1246af59, $GPGGA,201501.00,4437.5837,N,12402.8922,W,1,09,1.0,27.1,M,-21.8,M,,*6A
2021-06-27 20:15:04Z, 6cda8203-a249-e411-b0cc-f8bc1246af59, $GPGGA,201503.00,4437.5839,N,12402.8916,W,1,09,1.0,27.2,M,-21.8,M,,*62
2021-06-27 20:15:05Z, 6cda8203-a249-e411-b0cc-f8bc1246af59, $GPGGA,201504.00,4437.5839,N,12402.8914,W,1,09,1.0,27.2,M,-21.8,M,,*67
2021-06-27 20:15:07Z, 6cda8203-a249-e411-b0cc-f8bc1246af59, $GPGGA,201506.00,4437.5836,N,12402.8913,W,1,09,1.0,27.0,M,-21.8,M,,*6F
2021-06-27 20:15:08Z, 6cda8203-a249-e411-b0cc-f8bc1246af59, $GPGGA,201507.00,4437.5837,N,12402.8913,W,1,09,1.0,27.0,M,-21.8,M,,*6F
2021-06-27 20:15:10Z, 6cda8203-a249-e411-b0cc-f8bc1246af59, $GPGGA,201509.00,4437.5836,N,12402.8913,W,1,09,1.0,26.9,M,-21.8,M,,*68
2021-06-27 20:15:11Z, 6cda8203-a249-e411-b0cc-f8bc1246af59, $GPGGA,201510.00,4437.5838,N,12402.8913,W,1,09,1.0,26.9,M,-21.8,M,,*6E
2021-06-27 20:15:13Z, 6cda8203-a249-e411-b0cc-f8bc1246af59, $GPGGA,201512.00,4437.5839,N,12402.8913,W,1,09,1.0,26.8,M,-21.8,M,,*6C
2021-06-27 20:15:14Z, 6cda8203-a249-e411-b0cc-f8bc1246af59, $GPGGA,201513.00,4437.5840,N,12402.8914,W,1,09,1.0,26.8,M,-21.8,M,,*64
2021-06-27 20:15:16Z, 6cda8203-a249-e411-b0cc-f8bc1246af59, $GPGGA,201515.00,4437.5840,N,12402.8914,W,1,09,1.0,26.8,M,-21.8,M,,*62
2021-06-27 20:15:17Z, 6cda8203-a249-e411-b0cc-f8bc1246af59, $GPGGA,201516.00,4437.5841,N,12402.8913,W,1,09,1.0,26.8,M,-21.8,M,,*67
2021-06-27 20:15:19Z, 6cda8203-a249-e411-b0cc-f8bc1246af59, $GPGGA,201518.00,4437.5843,N,12402.8911,W,1,09,1.0,26.9,M,-21.8,M,,*68
2021-06-27 20:15:20Z, 6cda8203-a249-e411-b0cc-f8bc1246af59, $GPGGA,201519.00,4437.5844,N,12402.8910,W,1,09,1.0,26.9,M,-21.8,M,,*6F
2021-06-27 20:15:22Z, 6cda8203-a249-e411-b0cc-f8bc1246af59, $GPGGA,201521.00,4437.5849,N,12402.8911,W,1,09,1.0,27.2,M,-21.8,M,,*62
2021-06-27 20:15:23Z, 6cda8203-a249-e411-b0cc-f8bc1246af59, $GPGGA,201522.00,4437.5849,N,12402.8908,W,1,09,1.0,27.3,M,-21.8,M,,*68
2021-06-27 20:15:25Z, 6cda8203-a249-e411-b0cc-f8bc1246af59, $GPGGA,201524.00,4437.5852,N,12402.8905,W,1,08,1.0,27.3,M,-21.8,M,,*68
2021-06-27 20:15:26Z, 6cda8203-a249-e411-b0cc-f8bc1246af59, $GPGGA,201525.00,4437.5852,N,12402.8904,W,1,08,1.0,27.4,M,-21.8,M,,*6F
2021-06-27 20:15:28Z, 6cda8203-a249-e411-b0cc-f8bc1246af59, $GPGGA,201527.00,4437.5855,N,12402.8905,W,1,08,1.0,27.6,M,-21.8,M,,*69
2021-06-27 20:15:29Z, 6cda8203-a249-e411-b0cc-f8bc1246af59, $GPGGA,201528.00,4437.5856,N,12402.8905,W,1,09,1.0,27.6,M,-21.8,M,,*64
2021-06-27 20:15:31Z, 6cda8203-a249-e411-b0cc-f8bc1246af59, $GPGGA,201530.00,4437.5859,N,12402.8902,W,1,09,1.0,27.6,M,-21.8,M,,*65
2021-06-27 20:15:32Z, 6cda8203-a249-e411-b0cc-f8bc1246af59, $GPGGA,201531.00,4437.5861,N,12402.8901,W,1,08,1.0,27.6,M,-21.8,M,,*6D
2021-06-27 20:15:34Z, 6cda8203-a249-e411-b0cc-f8bc1246af59, $GPGGA,201533.00,4437.5874,N,12402.8894,W,1,08,1.0,27.3,M,-21.8,M,,*63
2021-06-27 20:15:35Z, 6cda8203-a249-e411-b0cc-f8bc1246af59, $GPGGA,201534.00,4437.5874,N,12402.8891,W,1,08,1.0,27.3,M,-21.8,M,,*61
2021-06-27 20:15:37Z, 6cda8203-a249-e411-b0cc-f8bc1246af59, $GPGGA,201536.00,4437.5876,N,12402.8896,W,1,08,1.0,27.3,M,-21.8,M,,*66
2021-06-27 20:15:38Z, 6cda8203-a249-e411-b0cc-f8bc1246af59, $GPGGA,201537.00,4437.5875,N,12402.8897,W,1,08,1.0,27.3,M,-21.8,M,,*65
2021-06-27 20:15:40Z, 6cda8203-a249-e411-b0cc-f8bc1246af59, $GPGGA,201539.00,4437.5874,N,12402.8898,W,1,09,1.0,27.3,M,-21.8,M,,*64
2021-06-27 20:15:41Z, 6cda8203-a249-e411-b0cc-f8bc1246af59, $GPGGA,201540.00,4437.5875,N,12402.8897,W,1,09,1.0,27.2,M,-21.8,M,,*65
2021-06-27 20:15:43Z, 6cda8203-a249-e411-b0cc-f8bc1246af59, $GPGGA,201542.00,4437.5875,N,12402.8890,W,1,09,1.0,27.4,M,-21.8,M,,*66
2021-06-27 20:15:44Z, 6cda8203-a249-e411-b0cc-f8bc1246af59, $GPGGA,201543.00,4437.5877,N,12402.8888,W,1,09,1.0,27.4,M,-21.8,M,,*6C
2021-06-27 20:15:46Z, 6cda8203-a249-e411-b0cc-f8bc1246af59, $GPGGA,201545.00,4437.5879,N,12402.8883,W,1,09,1.0,27.5,M,-21.8,M,,*6E
2021-06-27 20:15:47Z, 6cda8203-a249-e411-b0cc-f8bc1246af59, $GPGGA,201546.00,4437.5880,N,12402.8883,W,1,09,1.0,27.6,M,-21.8,M,,*68
2021-06-27 20:15:49Z, 6cda8203-a249-e411-b0cc-f8bc1246af59, $GPGGA,201548.00,4437.5883,N,12402.8876,W,1,08,1.0,27.9,M,-21.8,M,,*61
2021-06-27 20:15:50Z, 6cda8203-a249-e411-b0cc-f8bc1246af59, $GPGGA,201549.00,4437.5883,N,12402.8877,W,1,08,1.0,27.9,M,-21.8,M,,*61
2021-06-27 20:15:52Z, 6cda8203-a249-e411-b0cc-f8bc1246af59, $GPGGA,201551.00,4437.5888,N,12402.8880,W,1,07,1.5,27.7,M,-21.8,M,,*6F
2021-06-27 20:15:53Z, 6cda8203-a249-e411-b0cc-f8bc1246af59, $GPGGA,201552.00,4437.5892,N,12402.8883,W,1,09,1.0,27.8,M,-21.8,M,,*60
2021-06-27 20:15:55Z, 6cda8203-a249-e411-b0cc-f8bc1246af59, $GPGGA,201554.00,4437.5892,N,12402.8886,W,1,09,1.0,28.1,M,-21.8,M,,*65
2021-06-27 20:15:56Z, 6cda8203-a249-e411-b0cc-f8bc1246af59, $GPGGA,201555.00,4437.5891,N,12402.8888,W,1,09,1.0,28.2,M,-21.8,M,,*6A
2021-06-27 20:15:58Z, 6cda8203-a249-e411-b0cc-f8bc1246af59, $GPGGA,201557.00,4437.5890,N,12402.8890,W,1,09,1.0,28.2,M,-21.8,M,,*60
2021-06-27 20:15:59Z, 6cda8203-a249-e411-b0cc-f8bc1246af59, $GPGGA,201558.00,4437.5889,N,12402.8892,W,1,09,1.0,28.2,M,-21.8,M,,*65
2021-06-27 20:16:01Z, 6cda8203-a249-e411-b0cc-f8bc1246af59, $GPGGA,201600.00,4437.5888,N,12402.8895,W,1,09,1.0,28.3,M,-21.8,M,,*6C
2021-06-27 20:16:02Z, 6cda8203-a249-e411-b0cc-f8bc1246af59, $GPGGA,201601.00,4437.5886,N,12402.8897,W,1,09,1.0,28.4,M,-21.8,M,,*66
2021-06-27 20:16:04Z, 6cda8203-a249-e411-b0cc-f8bc1246af59, $GPGGA,201603.00,4437.5884,N,12402.8900,W,1,09,1.0,28.4,M,-21.8,M,,*69
2021-06-27 20:16:05Z, 6cda8203-a249-e411-b0cc-f8bc1246af59, $GPGGA,201604.00,4437.5881,N,12402.8899,W,1,09,1.0,28.4,M,-21.8,M,,*6A
2021-06-27 20:16:07Z, 6cda8203-a249-e411-b0cc-f8bc1246af59, $GPGGA,201606.00,4437.5878,N,12402.8899,W,1,09,1.0,28.2,M,-21.8,M,,*68
2021-06-27 20:16:08Z, 6cda8203-a249-e411-b0cc-f8bc1246af59, $GPGGA,201607.00,4437.5877,N,12402.8897,W,1,09,1.0,28.2,M,-21.8,M,,*68
2021-06-27 20:16:10Z, 6cda8203-a249-e411-b0cc-f8bc1246af59, $GPGGA,201609.00,4437.5873,N,12402.8899,W,1,09,1.0,28.5,M,-21.8,M,,*6B
2021-06-27 20:16:11Z, 6cda8203-a249-e411-b0cc-f8bc1246af59, $GPGGA,201610.00,4437.5872,N,12402.8899,W,1,09,1.0,28.4,M,-21.8,M,,*63
2021-06-27 20:16:13Z, 6cda8203-a249-e411-b0cc-f8bc1246af59, $GPGGA,201612.00,4437.5869,N,12402.8899,W,1,09,1.0,28.1,M,-21.8,M,,*6E
2021-06-27 20:16:14Z, 6cda8203-a249-e411-b0cc-f8bc1246af59, $GPGGA,201613.00,4437.5867,N,12402.8901,W,1,09,1.0,27.9,M,-21.8,M,,*66
2021-06-27 20:16:15Z, 6cda8203-a249-e411-b0cc-f8bc1246af59, $GPGGA,201614.00,4437.5865,N,12402.8903,W,1,09,1.0,27.8,M,-21.8,M,,*60
2021-06-27 20:16:16Z, 6cda8203-a249-e411-b0cc-f8bc1246af59, $GPGGA,201615.00,4437.5865,N,12402.8902,W,1,09,1.0,27.7,M,-21.8,M,,*6F
2021-06-27 20:16:17Z, 6cda8203-a249-e411-b0cc-f8bc1246af59, $GPGGA,201616.00,4437.5863,N,12402.8901,W,1,09,1.0,27.7,M,-21.8,M,,*69
2021-06-27 20:16:18Z, 6cda8203-a249-e411-b0cc-f8bc1246af59, $GPGGA,201617.00,4437.5862,N,12402.8902,W,1,09,1.0,27.6,M,-21.8,M,,*6B
2021-06-27 20:16:19Z, 6cda8203-a249-e411-b0cc-f8bc1246af59, $GPGGA,201618.00,4437.5861,N,12402.8902,W,1,09,1.0,27.5,M,-21.8,M,,*64
2021-06-27 20:16:21Z, 6cda8203-a249-e411-b0cc-f8bc1246af59, $GPGGA,201620.00,4437.5858,N,12402.8900,W,1,08,1.0,27.4,M,-21.8,M,,*67
2021-06-27 20:16:22Z, 6cda8203-a249-e411-b0cc-f8bc1246af59, $GPGGA,201621.00,4437.5858,N,12402.8897,W,1,08,1.0,27.3,M,-21.8,M,,*6E
2021-06-27 20:16:24Z, 6cda8203-a249-e411-b0cc-f8bc1246af59, $GPGGA,201623.00,4437.5856,N,12402.8893,W,1,09,1.0,27.2,M,-21.8,M,,*66
2021-06-27 20:16:25Z, 6cda8203-a249-e411-b0cc-f8bc1246af59, $GPGGA,201624.00,4437.5854,N,12402.8893,W,1,09,1.0,27.2,M,-21.8,M,,*63
2021-06-27 20:16:27Z, 6cda8203-a249-e411-b0cc-f8bc1246af59, $GPGGA,201626.00,4437.5853,N,12402.8889,W,1,09,1.0,27.2,M,-21.8,M,,*6D
2021-06-27 20:16:28Z, 6cda8203-a249-e411-b0cc-f8bc1246af59, $GPGGA,201627.00,4437.5852,N,12402.8890,W,1,09,1.0,27.1,M,-21.8,M,,*66
2021-06-27 20:16:30Z, 6cda8203-a249-e411-b0cc-f8bc1246af59, $GPGGA,201629.00,4437.5850,N,12402.8888,W,1,09,0.8,26.9,M,-21.8,M,,*63
2021-06-27 20:16:31Z, 6cda8203-a249-e411-b0cc-f8bc1246af59, $GPGGA,201630.00,4437.5848,N,12402.8888,W,1,09,0.8,26.8,M,-21.8,M,,*63
2021-06-27 20:16:33Z, 6cda8203-a249-e411-b0cc-f8bc1246af59, $GPGGA,201632.00,4437.5848,N,12402.8885,W,1,09,0.8,26.7,M,-21.8,M,,*63
2021-06-27 20:16:34Z, 6cda8203-a249-e411-b0cc-f8bc1246af59, $GPGGA,201633.00,4437.5848,N,12402.8884,W,1,09,0.8,26.6,M,-21.8,M,,*62
2021-06-27 20:16:36Z, 6cda8203-a249-e411-b0cc-f8bc1246af59, $GPGGA,201635.00,4437.5847,N,12402.8884,W,1,09,0.8,26.4,M,-21.8,M,,*69
2021-06-27 20:16:37Z, 6cda8203-a249-e411-b0cc-f8bc1246af59, $GPGGA,201636.00,4437.5845,N,12402.8883,W,1,09,1.0,26.5,M,-21.8,M,,*67
2021-06-27 20:16:39Z, 6cda8203-a249-e411-b0cc-f8bc1246af59, $GPGGA,201638.00,4437.5842,N,12402.8885,W,1,08,1.0,26.6,M,-21.8,M,,*6A
2021-06-27 20:16:40Z, 6cda8203-a249-e411-b0cc-f8bc1246af59, $GPGGA,201639.00,4437.5842,N,12402.8886,W,1,08,1.0,26.8,M,-21.8,M,,*66
2021-06-27 20:16:42Z, 6cda8203-a249-e411-b0cc-f8bc1246af59, $GPGGA,201641.00,4437.5843,N,12402.8886,W,1,08,1.0,26.9,M,-21.8,M,,*69
2021-06-27 20:16:43Z, 6cda8203-a249-e411-b0cc-f8bc1246af59, $GPGGA,201642.00,4437.5842,N,12402.8887,W,1,08,1.0,27.0,M,-21.8,M,,*62
2021-06-27 20:16:45Z, 6cda8203-a249-e411-b0cc-f8bc1246af59, $GPGGA,201644.00,4437.5844,N,12402.8889,W,1,08,1.0,27.2,M,-21.8,M,,*6E
2021-06-27 20:16:46Z, 6cda8203-a249-e411-b0cc-f8bc1246af59, $GPGGA,201645.00,4437.5844,N,12402.8888,W,1,08,1.0,27.2,M,-21.8,M,,*6E
2021-06-27 20:16:48Z, 6cda8203-a249-e411-b0cc-f8bc1246af59, $GPGGA,201647.00,4437.5845,N,12402.8885,W,1,09,1.0,27.2,M,-21.8,M,,*61
2021-06-27 20:16:49Z, 6cda8203-a249-e411-b0cc-f8bc1246af59, $GPGGA,201648.00,4437.5845,N,12402.8885,W,1,08,1.0,27.2,M,-21.8,M,,*6F
2021-06-27 20:16:51Z, 6cda8203-a249-e411-b0cc-f8bc1246af59, $GPGGA,201650.00,4437.5851,N,12402.8882,W,1,09,1.0,27.4,M,-21.8,M,,*63
2021-06-27 20:16:52Z, 6cda8203-a249-e411-b0cc-f8bc1246af59, $GPGGA,201651.00,4437.5852,N,12402.8881,W,1,08,1.0,27.4,M,-21.8,M,,*63
2021-06-27 20:16:54Z, 6cda8203-a249-e411-b0cc-f8bc1246af59, $GPGGA,201653.00,4437.5856,N,12402.8881,W,1,09,1.0,27.4,M,-21.8,M,,*64
2021-06-27 20:16:55Z, 6cda8203-a249-e411-b0cc-f8bc1246af59, $GPGGA,201654.00,4437.5858,N,12402.8880,W,1,08,1.0,27.4,M,-21.8,M,,*6D
2021-06-27 20:16:57Z, 6cda8203-a249-e411-b0cc-f8bc1246af59, $GPGGA,201656.00,4437.5863,N,12402.8877,W,1,08,1.0,27.4,M,-21.8,M,,*6F
2021-06-27 20:16:58Z, 6cda8203-a249-e411-b0cc-f8bc1246af59, $GPGGA,201657.00,4437.5865,N,12402.8877,W,1,08,1.0,27.5,M,-21.8,M,,*69
2021-06-27 20:17:00Z, 6cda8203-a249-e411-b0cc-f8bc1246af59, $GPGGA,201659.00,4437.5870,N,12402.8871,W,1,08,1.0,27.2,M,-21.8,M,,*62
2021-06-27 20:17:01Z, 6cda8203-a249-e411-b0cc-f8bc1246af59, $GPGGA,201700.00,4437.5871,N,12402.8873,W,1,08,1.0,27.2,M,-21.8,M,,*6C
2021-06-27 20:17:03Z, 6cda8203-a249-e411-b0cc-f8bc1246af59, $GPGGA,201702.00,4437.5875,N,12402.8876,W,1,08,1.0,27.1,M,-21.8,M,,*6C
2021-06-27 20:17:04Z, 6cda8203-a249-e411-b0cc-f8bc1246af59, $GPGGA,201703.00,4437.5875,N,12402.8874,W,1,09,1.0,27.1,M,-21.8,M,,*6E
2021-06-27 20:17:06Z, 6cda8203-a249-e411-b0cc-f8bc1246af59, $GPGGA,201705.00,4437.5875,N,12402.8872,W,1,09,1.0,27.3,M,-21.8,M,,*6C
2021-06-27 20:17:07Z, 6cda8203-a249-e411-b0cc-f8bc1246af59, $GPGGA,201706.00,4437.5876,N,12402.8873,W,1,09,1.0,27.3,M,-21.8,M,,*6D
2021-06-27 20:17:09Z, 6cda8203-a249-e411-b0cc-f8bc1246af59, $GPGGA,201708.00,4437.5879,N,12402.8871,W,1,09,1.0,27.4,M,-21.8,M,,*69
2021-06-27 20:17:10Z, 6cda8203-a249-e411-b0cc-f8bc1246af59, $GPGGA,201709.00,4437.5879,N,12402.8871,W,1,09,1.0,27.4,M,-21.8,M,,*68
2021-06-27 20:17:12Z, 6cda8203-a249-e411-b0cc-f8bc1246af59, $GPGGA,201711.00,4437.5878,N,12402.8870,W,1,09,1.0,27.4,M,-21.8,M,,*61
2021-06-27 20:17:13Z, 6cda8203-a249-e411-b0cc-f8bc1246af59, $GPGGA,201712.00,4437.5879,N,12402.8872,W,1,09,1.0,27.5,M,-21.8,M,,*60
2021-06-27 20:17:15Z, 6cda8203-a249-e411-b0cc-f8bc1246af59, $GPGGA,201714.00,4437.5878,N,12402.8873,W,1,09,1.0,27.3,M,-21.8,M,,*60
2021-06-27 20:17:16Z, 6cda8203-a249-e411-b0cc-f8bc1246af59, $GPGGA,201715.00,4437.5880,N,12402.8874,W,1,09,1.0,27.3,M,-21.8,M,,*61
2021-06-27 20:17:18Z, 6cda8203-a249-e411-b0cc-f8bc1246af59, $GPGGA,201717.00,4437.5880,N,12402.8874,W,1,09,1.0,27.3,M,-21.8,M,,*63
2021-06-27 20:17:19Z, 6cda8203-a249-e411-b0cc-f8bc1246af59, $GPGGA,201718.00,4437.5880,N,12402.8873,W,1,09,1.0,27.2,M,-21.8,M,,*6A
2021-06-27 20:17:21Z, 6cda8203-a249-e411-b0cc-f8bc1246af59, $GPGGA,201720.00,4437.5882,N,12402.8875,W,1,09,1.0,27.1,M,-21.8,M,,*66
2021-06-27 20:17:22Z, 6cda8203-a249-e411-b0cc-f8bc1246af59, $GPGGA,201721.00,4437.5882,N,12402.8874,W,1,09,1.0,27.1,M,-21.8,M,,*66
2021-06-27 20:17:24Z, 6cda8203-a249-e411-b0cc-f8bc1246af59, $GPGGA,201723.00,4437.5881,N,12402.8869,W,1,09,1.0,26.9,M,-21.8,M,,*62
2021-06-27 20:17:25Z, 6cda8203-a249-e411-b0cc-f8bc1246af59, $GPGGA,201724.00,4437.5877,N,12402.8869,W,1,09,1.0,26.6,M,-21.8,M,,*63
2021-06-27 20:17:27Z, 6cda8203-a249-e411-b0cc-f8bc1246af59, $GPGGA,201726.00,4437.5872,N,12402.8869,W,1,09,1.0,26.4,M,-21.8,M,,*66
2021-06-27 20:17:28Z, 6cda8203-a249-e411-b0cc-f8bc1246af59, $GPGGA,201727.00,4437.5871,N,12402.8867,W,1,09,1.0,26.4,M,-21.8,M,,*6A
2021-06-27 20:17:30Z, 6cda8203-a249-e411-b0cc-f8bc1246af59, $GPGGA,201729.00,4437.5869,N,12402.8865,W,1,09,1.0,26.3,M,-21.8,M,,*68
2021-06-27 20:17:31Z, 6cda8203-a249-e411-b0cc-f8bc1246af59, $GPGGA,201730.00,4437.5867,N,12402.8866,W,1,09,1.0,26.3,M,-21.8,M,,*6D
2021-06-27 20:17:33Z, 6cda8203-a249-e411-b0cc-f8bc1246af59, $GPGGA,201732.00,4437.5865,N,12402.8866,W,1,09,1.0,26.3,M,-21.8,M,,*6D
2021-06-27 20:17:34Z, 6cda8203-a249-e411-b0cc-f8bc1246af59, $GPGGA,201733.00,4437.5863,N,12402.8866,W,1,09,1.0,26.2,M,-21.8,M,,*6B
2021-06-27 20:17:36Z, 6cda8203-a249-e411-b0cc-f8bc1246af59, $GPGGA,201735.00,4437.5862,N,12402.8866,W,1,09,1.0,26.0,M,-21.8,M,,*6E
2021-06-27 20:17:37Z, 6cda8203-a249-e411-b0cc-f8bc1246af59, $GPGGA,201736.00,4437.5862,N,12402.8865,W,1,09,1.0,26.0,M,-21.8,M,,*6E
2021-06-27 20:17:39Z, 6cda8203-a249-e411-b0cc-f8bc1246af59, $GPGGA,201738.00,4437.5861,N,12402.8862,W,1,09,1.0,25.9,M,-21.8,M,,*6E
2021-06-27 20:17:40Z, 6cda8203-a249-e411-b0cc-f8bc1246af59, $GPGGA,201739.00,4437.5861,N,12402.8863,W,1,09,1.0,25.9,M,-21.8,M,,*6E
2021-06-27 20:17:42Z, 6cda8203-a249-e411-b0cc-f8bc1246af59, $GPGGA,201741.00,4437.5857,N,12402.8862,W,1,09,1.0,25.8,M,-21.8,M,,*64
2021-06-27 20:17:43Z, 6cda8203-a249-e411-b0cc-f8bc1246af59, $GPGGA,201742.00,4437.5858,N,12402.8863,W,1,09,1.0,25.8,M,-21.8,M,,*69
2021-06-27 20:17:45Z, 6cda8203-a249-e411-b0cc-f8bc1246af59, $GPGGA,201744.00,4437.5854,N,12402.8858,W,1,09,1.0,25.8,M,-21.8,M,,*6B
2021-06-27 20:17:46Z, 6cda8203-a249-e411-b0cc-f8bc1246af59, $GPGGA,201745.00,4437.5853,N,12402.8857,W,1,09,1.0,25.9,M,-21.8,M,,*63
2021-06-27 20:17:48Z, 6cda8203-a249-e411-b0cc-f8bc1246af59, $GPGGA,201747.00,4437.5852,N,12402.8855,W,1,09,1.0,26.0,M,-21.8,M,,*68
2021-06-27 20:17:49Z, 6cda8203-a249-e411-b0cc-f8bc1246af59, $GPGGA,201748.00,4437.5851,N,12402.8855,W,1,09,1.0,26.1,M,-21.8,M,,*65
2021-06-27 20:17:51Z, 6cda8203-a249-e411-b0cc-f8bc1246af59, $GPGGA,201750.00,4437.5852,N,12402.8860,W,1,09,1.0,26.3,M,-21.8,M,,*6B
2021-06-27 20:17:52Z, 6cda8203-a249-e411-b0cc-f8bc1246af59, $GPGGA,201751.00,4437.5852,N,12402.8862,W,1,09,1.0,26.3,M,-21.8,M,,*68
2021-06-27 20:17:54Z, 6cda8203-a249-e411-b0cc-f8bc1246af59, $GPGGA,201753.00,4437.5850,N,12402.8865,W,1,09,1.0,26.5,M,-21.8,M,,*69
2021-06-27 20:17:55Z, 6cda8203-a249-e411-b0cc-f8bc1246af59, $GPGGA,201754.00,4437.5850,N,12402.8867,W,1,09,1.0,26.6,M,-21.8,M,,*6F
2021-06-27 20:17:57Z, 6cda8203-a249-e411-b0cc-f8bc1246af59, $GPGGA,201756.00,4437.5852,N,12402.8869,W,1,09,1.0,26.7,M,-21.8,M,,*60
2021-06-27 20:17:58Z, 6cda8203-a249-e411-b0cc-f8bc1246af59, $GPGGA,201757.00,4437.5854,N,12402.8873,W,1,09,1.0,26.9,M,-21.8,M,,*62
2021-06-27 20:18:00Z, 6cda8203-a249-e411-b0cc-f8bc1246af59, $GPGGA,201759.00,4437.5855,N,12402.8874,W,1,09,1.0,27.1,M,-21.8,M,,*63
2021-06-27 20:18:01Z, 6cda8203-a249-e411-b0cc-f8bc1246af59, $GPGGA,201800.00,4437.5854,N,12402.8872,W,1,09,1.0,27.1,M,-21.8,M,,*67
2021-06-27 20:18:03Z, 6cda8203-a249-e411-b0cc-f8bc1246af59, $GPGGA,201802.00,4437.5854,N,12402.8869,W,1,09,1.0,26.9,M,-21.8,M,,*66
