ACQ Timestamp (Server Time in UTC), MessageID, Data Value For: GNSS-6452-$GPGGA
2021-09-03T21:33:04.0860843Z, 6cda8203-a249-e411-b0cc-f8bc1246af59, $GPGGA,213303.00,4425.4389,N,12423.6123,W,1,10,0.8,22.6,M,-22.5,M,,*68
2021-09-03T21:33:05.6353488Z, 6cda8203-a249-e411-b0cc-f8bc1246af59, $GPGGA,213304.00,4425.4386,N,12423.6163,W,1,10,0.8,23.0,M,-22.5,M,,*63
2021-09-03T21:33:07.0959273Z, 6cda8203-a249-e411-b0cc-f8bc1246af59, $GPGGA,213306.00,4425.4378,N,12423.6240,W,1,10,0.8,22.8,M,-22.5,M,,*6B
2021-09-03T21:33:08.6362228Z, 6cda8203-a249-e411-b0cc-f8bc1246af59, $GPGGA,213307.00,4425.4372,N,12423.6277,W,1,10,0.8,21.3,M,-22.5,M,,*6C
2021-09-03T21:33:10.0958322Z, 6cda8203-a249-e411-b0cc-f8bc1246af59, $GPGGA,213309.00,4425.4364,N,12423.6351,W,1,10,0.8,20.7,M,-22.5,M,,*65
2021-09-03T21:33:11.6361326Z, 6cda8203-a249-e411-b0cc-f8bc1246af59, $GPGGA,213310.00,4425.4360,N,12423.6390,W,1,10,0.8,22.1,M,-22.5,M,,*60
2021-09-03T21:33:13.0957388Z, 6cda8203-a249-e411-b0cc-f8bc1246af59, $GPGGA,213312.00,4425.4352,N,12423.6468,W,1,10,0.8,21.6,M,-22.5,M,,*67
2021-09-03T21:33:14.6360074Z, 6cda8203-a249-e411-b0cc-f8bc1246af59, $GPGGA,213313.00,4425.4347,N,12423.6506,W,1,10,0.8,20.2,M,-22.5,M,,*6E
2021-09-03T21:33:16.0956738Z, 6cda8203-a249-e411-b0cc-f8bc1246af59, $GPGGA,213315.00,4425.4336,N,12423.6582,W,1,10,0.8,23.1,M,-22.5,M,,*62
2021-09-03T21:33:17.6359828Z, 6cda8203-a249-e411-b0cc-f8bc1246af59, $GPGGA,213316.00,4425.4333,N,12423.6621,W,1,10,0.8,22.7,M,-22.5,M,,*69
2021-09-03T21:33:19.0965179Z, 6cda8203-a249-e411-b0cc-f8bc1246af59, $GPGGA,213318.00,4425.4324,N,12423.6698,W,1,10,0.8,26.5,M,-22.5,M,,*65
2021-09-03T21:33:20.6358190Z, 6cda8203-a249-e411-b0cc-f8bc1246af59, $GPGGA,213319.00,4425.4317,N,12423.6737,W,1,10,0.8,26.6,M,-22.5,M,,*63
2021-09-03T21:33:22.0964346Z, 6cda8203-a249-e411-b0cc-f8bc1246af59, $GPGGA,213321.00,4425.4304,N,12423.6814,W,1,10,0.8,23.3,M,-22.5,M,,*64
2021-09-03T21:33:23.6366877Z, 6cda8203-a249-e411-b0cc-f8bc1246af59, $GPGGA,213322.00,4425.4300,N,12423.6852,W,1,10,0.8,22.9,M,-22.5,M,,*6A
2021-09-03T21:33:25.0963323Z, 6cda8203-a249-e411-b0cc-f8bc1246af59, $GPGGA,213324.00,4425.4293,N,12423.6929,W,1,10,0.8,19.8,M,-22.5,M,,*63
2021-09-03T21:33:26.6366034Z, 6cda8203-a249-e411-b0cc-f8bc1246af59, $GPGGA,213325.00,4425.4289,N,12423.6969,W,1,10,0.8,20.6,M,-22.5,M,,*69
2021-09-03T21:33:28.0962345Z, 6cda8203-a249-e411-b0cc-f8bc1246af59, $GPGGA,213327.00,4425.4278,N,12423.7047,W,1,10,0.8,18.4,M,-22.5,M,,*68
2021-09-03T21:33:29.6364978Z, 6cda8203-a249-e411-b0cc-f8bc1246af59, $GPGGA,213328.00,4425.4273,N,12423.7084,W,1,10,0.8,20.8,M,-22.5,M,,*64
2021-09-03T21:33:31.0971443Z, 6cda8203-a249-e411-b0cc-f8bc1246af59, $GPGGA,213330.00,4425.4263,N,12423.7162,W,1,10,0.8,20.9,M,-22.5,M,,*64
2021-09-03T21:33:32.6364463Z, 6cda8203-a249-e411-b0cc-f8bc1246af59, $GPGGA,213331.00,4425.4258,N,12423.7201,W,1,10,0.8,21.8,M,-22.5,M,,*6B
2021-09-03T21:33:34.0970143Z, 6cda8203-a249-e411-b0cc-f8bc1246af59, $GPGGA,213333.00,4425.4248,N,12423.7278,W,1,10,0.8,27.2,M,-22.5,M,,*6A
2021-09-03T21:33:35.6372763Z, 6cda8203-a249-e411-b0cc-f8bc1246af59, $GPGGA,213334.00,4425.4242,N,12423.7317,W,1,10,0.8,28.6,M,-22.5,M,,*64
2021-09-03T21:33:37.0969151Z, 6cda8203-a249-e411-b0cc-f8bc1246af59, $GPGGA,213336.00,4425.4230,N,12423.7393,W,1,10,0.8,25.1,M,-22.5,M,,*65
2021-09-03T21:33:38.6371842Z, 6cda8203-a249-e411-b0cc-f8bc1246af59, $GPGGA,213337.00,4425.4223,N,12423.7433,W,1,10,0.8,21.4,M,-22.5,M,,*6A
2021-09-03T21:33:40.0868967Z, 6cda8203-a249-e411-b0cc-f8bc1246af59, $GPGGA,213339.00,4425.4215,N,12423.7513,W,1,10,0.8,20.7,M,-22.5,M,,*60
2021-09-03T21:33:41.6371236Z, 6cda8203-a249-e411-b0cc-f8bc1246af59, $GPGGA,213340.00,4425.4211,N,12423.7552,W,1,10,0.8,19.0,M,-22.5,M,,*62
2021-09-03T21:33:43.0868023Z, 6cda8203-a249-e411-b0cc-f8bc1246af59, $GPGGA,213342.00,4425.4195,N,12423.7633,W,1,10,0.8,19.6,M,-22.5,M,,*6D
2021-09-03T21:33:44.6369924Z, 6cda8203-a249-e411-b0cc-f8bc1246af59, $GPGGA,213343.00,4425.4189,N,12423.7672,W,1,10,0.8,20.1,M,-22.5,M,,*69
2021-09-03T21:33:46.0876656Z, 6cda8203-a249-e411-b0cc-f8bc1246af59, $GPGGA,213345.00,4425.4182,N,12423.7752,W,1,10,0.8,18.7,M,-22.5,M,,*6A
2021-09-03T21:33:47.6369650Z, 6cda8203-a249-e411-b0cc-f8bc1246af59, $GPGGA,213346.00,4425.4177,N,12423.7791,W,1,10,0.8,21.1,M,-22.5,M,,*60
2021-09-03T21:33:49.0975046Z, 6cda8203-a249-e411-b0cc-f8bc1246af59, $GPGGA,213348.00,4425.4166,N,12423.7868,W,1,10,0.8,21.3,M,-22.5,M,,*65
2021-09-03T21:33:50.5571475Z, 6cda8203-a249-e411-b0cc-f8bc1246af59, $GPGGA,213349.00,4425.4162,N,12423.7906,W,1,10,0.8,21.9,M,-22.5,M,,*63
2021-09-03T21:33:51.7170949Z, 6cda8203-a249-e411-b0cc-f8bc1246af59, $GPGGA,213350.00,4425.4158,N,12423.7944,W,1,10,0.8,21.2,M,-22.5,M,,*6F
2021-09-03T21:33:52.7276741Z, 6cda8203-a249-e411-b0cc-f8bc1246af59, $GPGGA,213351.00,4425.4155,N,12423.7983,W,1,10,0.8,21.8,M,-22.5,M,,*62
2021-09-03T21:33:53.7770804Z, 6cda8203-a249-e411-b0cc-f8bc1246af59, $GPGGA,213352.00,4425.4152,N,12423.8022,W,1,10,0.8,19.3,M,-22.5,M,,*6B
2021-09-03T21:33:54.8275158Z, 6cda8203-a249-e411-b0cc-f8bc1246af59, $GPGGA,213353.00,4425.4147,N,12423.8060,W,1,10,0.8,18.4,M,-22.5,M,,*6E
2021-09-03T21:33:56.1079312Z, 6cda8203-a249-e411-b0cc-f8bc1246af59, $GPGGA,213354.00,4425.4143,N,12423.8096,W,1,10,0.8,20.1,M,-22.5,M,,*6A
2021-09-03T21:33:57.5675396Z, 6cda8203-a249-e411-b0cc-f8bc1246af59, $GPGGA,213356.00,4425.4136,N,12423.8175,W,1,10,0.8,20.3,M,-22.5,M,,*64
2021-09-03T21:33:58.8977416Z, 6cda8203-a249-e411-b0cc-f8bc1246af59, $GPGGA,213357.00,4425.4134,N,12423.8215,W,1,10,0.8,20.8,M,-22.5,M,,*69
2021-09-03T21:34:00.3175287Z, 6cda8203-a249-e411-b0cc-f8bc1246af59, $GPGGA,213359.00,4425.4129,N,12423.8293,W,1,10,0.8,18.4,M,-22.5,M,,*62
2021-09-03T21:34:01.6974860Z, 6cda8203-a249-e411-b0cc-f8bc1246af59, $GPGGA,213400.00,4425.4125,N,12423.8333,W,1,10,0.8,20.3,M,-22.5,M,,*62
2021-09-03T21:34:03.2079310Z, 6cda8203-a249-e411-b0cc-f8bc1246af59, $GPGGA,213402.00,4425.4118,N,12423.8412,W,1,10,0.8,19.2,M,-22.5,M,,*61
2021-09-03T21:34:04.6376710Z, 6cda8203-a249-e411-b0cc-f8bc1246af59, $GPGGA,213403.00,4425.4114,N,12423.8451,W,1,10,0.8,21.0,M,-22.5,M,,*62
2021-09-03T21:34:06.2077911Z, 6cda8203-a249-e411-b0cc-f8bc1246af59, $GPGGA,213405.00,4425.4104,N,12423.8530,W,1,10,0.8,21.6,M,-22.5,M,,*65
2021-09-03T21:34:07.6385444Z, 6cda8203-a249-e411-b0cc-f8bc1246af59, $GPGGA,213406.00,4425.4100,N,12423.8570,W,1,10,0.8,22.0,M,-22.5,M,,*63
2021-09-03T21:34:09.2077180Z, 6cda8203-a249-e411-b0cc-f8bc1246af59, $GPGGA,213408.00,4425.4091,N,12423.8648,W,1,10,0.8,22.2,M,-22.5,M,,*6E
2021-09-03T21:34:10.6384499Z, 6cda8203-a249-e411-b0cc-f8bc1246af59, $GPGGA,213409.00,4425.4086,N,12423.8688,W,1,10,0.8,21.6,M,-22.5,M,,*62
2021-09-03T21:34:12.2085697Z, 6cda8203-a249-e411-b0cc-f8bc1246af59, $GPGGA,213411.00,4425.4078,N,12423.8768,W,1,10,0.8,20.3,M,-22.5,M,,*61
2021-09-03T21:34:13.6383608Z, 6cda8203-a249-e411-b0cc-f8bc1246af59, $GPGGA,213412.00,4425.4075,N,12423.8807,W,1,10,0.8,17.7,M,-22.5,M,,*69
2021-09-03T21:34:15.2084763Z, 6cda8203-a249-e411-b0cc-f8bc1246af59, $GPGGA,213414.00,4425.4063,N,12423.8882,W,1,10,0.8,23.8,M,-22.5,M,,*6D
2021-09-03T21:34:16.6382653Z, 6cda8203-a249-e411-b0cc-f8bc1246af59, $GPGGA,213415.00,4425.4057,N,12423.8921,W,1,10,0.8,20.4,M,-22.5,M,,*6C
2021-09-03T21:34:18.2084081Z, 6cda8203-a249-e411-b0cc-f8bc1246af59, $GPGGA,213417.00,4425.4049,N,12423.9000,W,1,10,0.8,21.2,M,-22.5,M,,*6D
2021-09-03T21:34:19.6381532Z, 6cda8203-a249-e411-b0cc-f8bc1246af59, $GPGGA,213418.00,4425.4043,N,12423.9039,W,1,10,0.8,23.3,M,-22.5,M,,*61
2021-09-03T21:34:21.2083195Z, 6cda8203-a249-e411-b0cc-f8bc1246af59, $GPGGA,213420.00,4425.4033,N,24231.9115,W,1,10,0.8,25.0,M,-22.5,M,,*67
2021-09-03T21:34:22.6390156Z, 6cda8203-a249-e411-b0cc-f8bc1246af59, $GPGGA,213421.00,4425.4028,N,12423.9154,W,1,10,0.8,26.8,M,-22.5,M,,*62
2021-09-03T21:34:24.1783197Z, 6cda8203-a249-e411-b0cc-f8bc1246af59, $GPGGA,213423.00,4425.4017,N,12423.9231,W,1,10,0.8,23.3,M,-22.5,M,,*62
2021-09-03T21:34:25.6389378Z, 6cda8203-a249-e411-b0cc-f8bc1246af59, $GPGGA,213424.00,4425.4012,N,12423.9270,W,1,10,0.8,25.9,M,-22.5,M,,*69
2021-09-03T21:34:27.0987393Z, 6cda8203-a249-e411-b0cc-f8bc1246af59, $GPGGA,213426.00,4425.4002,N,12423.9350,W,1,10,0.8,25.4,M,-22.5,M,,*64
2021-09-03T21:34:28.6390577Z, 6cda8203-a249-e411-b0cc-f8bc1246af59, $GPGGA,213427.00,4425.3994,N,12423.9391,W,1,10,0.8,21.9,M,-22.5,M,,*60
2021-09-03T21:34:30.0887664Z, 6cda8203-a249-e411-b0cc-f8bc1246af59, $GPGGA,213429.00,4425.3983,N,12423.9469,W,1,10,0.8,19.7,M,-22.5,M,,*6D
2021-09-03T21:34:31.6389637Z, 6cda8203-a249-e411-b0cc-f8bc1246af59, $GPGGA,213430.00,4425.3978,N,12423.9508,W,1,10,0.8,19.2,M,-22.5,M,,*62
2021-09-03T21:34:33.0891743Z, 6cda8203-a249-e411-b0cc-f8bc1246af59, $GPGGA,213432.00,4425.3965,N,12423.9590,W,1,10,0.8,17.2,M,-22.5,M,,*63
2021-09-03T21:34:34.6393853Z, 6cda8203-a249-e411-b0cc-f8bc1246af59, $GPGGA,213433.00,4425.3960,N,12423.9629,W,1,10,0.8,18.3,M,-22.5,M,,*68
2021-09-03T21:34:36.0890686Z, 6cda8203-a249-e411-b0cc-f8bc1246af59, $GPGGA,213435.00,4425.3948,N,12423.9707,W,1,10,0.8,23.5,M,-22.5,M,,*67
2021-09-03T21:34:37.6392732Z, 6cda8203-a249-e411-b0cc-f8bc1246af59, $GPGGA,213436.00,4425.3942,N,12423.9747,W,1,10,0.8,21.7,M,-22.5,M,,*6A
2021-09-03T21:34:39.0889757Z, 6cda8203-a249-e411-b0cc-f8bc1246af59, $GPGGA,213438.00,4425.3931,N,12423.9828,W,1,10,0.8,18.4,M,-22.5,M,,*6F
2021-09-03T21:34:40.6391847Z, 6cda8203-a249-e411-b0cc-f8bc1246af59, $GPGGA,213439.00,4425.3926,N,12423.9866,W,1,10,0.8,19.5,M,-22.5,M,,*62
2021-09-03T21:34:42.0889348Z, 6cda8203-a249-e411-b0cc-f8bc1246af59, $GPGGA,213441.00,4425.3916,N,12423.9942,W,1,10,0.8,19.2,M,-22.5,M,,*6E
2021-09-03T21:34:43.6393598Z, 6cda8203-a249-e411-b0cc-f8bc1246af59, $GPGGA,213442.00,4425.3911,N,12423.9982,W,1,10,0.8,20.3,M,-22.5,M,,*6D
2021-09-03T21:34:45.0891693Z, 6cda8203-a249-e411-b0cc-f8bc1246af59, $GPGGA,213444.00,4425.3902,N,12424.0061,W,1,10,0.8,20.3,M,-22.5,M,,*63
2021-09-03T21:34:46.6393907Z, 6cda8203-a249-e411-b0cc-f8bc1246af59, $GPGGA,213445.00,4425.3898,N,12424.0098,W,1,10,0.8,20.4,M,-22.5,M,,*61
2021-09-03T21:34:48.0900457Z, 6cda8203-a249-e411-b0cc-f8bc1246af59, $GPGGA,213447.00,4425.3890,N,12424.0176,W,1,10,0.8,20.1,M,-22.5,M,,*6F
2021-09-03T21:34:49.6392973Z, 6cda8203-a249-e411-b0cc-f8bc1246af59, $GPGGA,213448.00,4425.3886,N,12424.0215,W,1,10,0.8,22.0,M,-22.5,M,,*62
2021-09-03T21:34:51.0899419Z, 6cda8203-a249-e411-b0cc-f8bc1246af59, $GPGGA,213450.00,4425.3879,N,12424.0296,W,1,10,0.8,19.4,M,-22.5,M,,*6C
2021-09-03T21:34:52.6394968Z, 6cda8203-a249-e411-b0cc-f8bc1246af59, $GPGGA,213451.00,4425.3875,N,12424.0335,W,1,10,0.8,19.7,M,-22.5,M,,*6A
2021-09-03T21:34:54.0901401Z, 6cda8203-a249-e411-b0cc-f8bc1246af59, $GPGGA,213453.00,4425.3866,N,12424.0413,W,1,10,0.8,20.4,M,-22.5,M,,*60
2021-09-03T21:34:55.6394566Z, 6cda8203-a249-e411-b0cc-f8bc1246af59, $GPGGA,213454.00,4425.3863,N,12424.0452,W,1,10,0.8,22.8,M,-22.5,M,,*69
2021-09-03T21:34:57.0901088Z, 6cda8203-a249-e411-b0cc-f8bc1246af59, $GPGGA,213456.00,4425.3856,N,12424.0531,W,1,10,0.8,20.0,M,-22.5,M,,*63
2021-09-03T21:34:58.6403400Z, 6cda8203-a249-e411-b0cc-f8bc1246af59, $GPGGA,213457.00,4425.3851,N,12424.0569,W,1,10,0.8,19.1,M,-22.5,M,,*63
2021-09-03T21:35:00.0900124Z, 6cda8203-a249-e411-b0cc-f8bc1246af59, $GPGGA,213459.00,4425.3843,N,12424.0645,W,1,10,0.8,20.7,M,-22.5,M,,*6F
2021-09-03T21:35:01.6402371Z, 6cda8203-a249-e411-b0cc-f8bc1246af59, $GPGGA,213500.00,4425.3839,N,12424.0686,W,1,10,0.8,21.1,M,-22.5,M,,*67
2021-09-03T21:35:03.0899235Z, 6cda8203-a249-e411-b0cc-f8bc1246af59, $GPGGA,213502.00,4425.3830,N,12424.0770,W,1,10,0.8,22.9,M,-22.5,M,,*6F
2021-09-03T21:35:04.6402181Z, 6cda8203-a249-e411-b0cc-f8bc1246af59, $GPGGA,213503.00,4425.3828,N,12424.0811,W,1,10,0.8,22.5,M,-22.5,M,,*63
2021-09-03T21:35:06.0898817Z, 6cda8203-a249-e411-b0cc-f8bc1246af59, $GPGGA,213505.00,4425.3820,N,12424.0889,W,1,10,0.8,21.3,M,-22.5,M,,*69
2021-09-03T21:35:07.6401495Z, 6cda8203-a249-e411-b0cc-f8bc1246af59, $GPGGA,213506.00,4425.3814,N,12424.0929,W,1,10,0.8,21.1,M,-22.5,M,,*64
2021-09-03T21:35:09.0907925Z, 6cda8203-a249-e411-b0cc-f8bc1246af59, $GPGGA,213508.00,4425.3807,N,12424.1010,W,1,10,0.8,21.8,M,-22.5,M,,*63
2021-09-03T21:35:10.6400348Z, 6cda8203-a249-e411-b0cc-f8bc1246af59, $GPGGA,213509.00,4425.3804,N,12424.1050,W,1,10,0.8,23.3,M,-22.5,M,,*6C
2021-09-03T21:35:12.0906912Z, 6cda8203-a249-e411-b0cc-f8bc1246af59, $GPGGA,213511.00,4425.3790,N,12424.1126,W,1,10,0.8,22.7,M,-22.5,M,,*62
2021-09-03T21:35:13.6409073Z, 6cda8203-a249-e411-b0cc-f8bc1246af59, $GPGGA,213512.00,4425.3785,N,12424.1165,W,1,10,0.8,19.5,M,-22.5,M,,*68
2021-09-03T21:35:15.0905932Z, 6cda8203-a249-e411-b0cc-f8bc1246af59, $GPGGA,213514.00,4425.3777,N,12424.1243,W,1,10,0.8,20.8,M,-22.5,M,,*63
2021-09-03T21:35:16.6408288Z, 6cda8203-a249-e411-b0cc-f8bc1246af59, $GPGGA,213515.00,4425.3773,N,12424.1282,W,1,10,0.8,21.6,M,-22.5,M,,*64
2021-09-03T21:35:18.0904977Z, 6cda8203-a249-e411-b0cc-f8bc1246af59, $GPGGA,213517.00,4425.3764,N,12424.1360,W,1,10,0.8,20.0,M,-22.5,M,,*6A
2021-09-03T21:35:19.6407202Z, 6cda8203-a249-e411-b0cc-f8bc1246af59, $GPGGA,213518.00,4425.3758,N,12424.1398,W,1,10,0.8,21.3,M,-22.5,M,,*6F
2021-09-03T21:35:21.0913790Z, 6cda8203-a249-e411-b0cc-f8bc1246af59, $GPGGA,213520.00,4425.3747,N,12424.1479,W,1,10,0.8,21.4,M,-22.5,M,,*65
2021-09-03T21:35:22.6406362Z, 6cda8203-a249-e411-b0cc-f8bc1246af59, $GPGGA,213521.00,4425.3743,N,12424.1519,W,1,10,0.8,21.6,M,-22.5,M,,*65
2021-09-03T21:35:24.0912803Z, 6cda8203-a249-e411-b0cc-f8bc1246af59, $GPGGA,213523.00,4425.3733,N,12424.1596,W,1,10,0.8,21.3,M,-22.5,M,,*62
2021-09-03T21:35:25.6315554Z, 6cda8203-a249-e411-b0cc-f8bc1246af59, $GPGGA,213524.00,4425.3728,N,12424.1634,W,1,10,0.8,21.0,M,-22.5,M,,*67
2021-09-03T21:35:27.0913103Z, 6cda8203-a249-e411-b0cc-f8bc1246af59, $GPGGA,213526.00,4425.3718,N,12424.1716,W,1,10,0.8,19.5,M,-22.5,M,,*69
2021-09-03T21:35:28.6315712Z, 6cda8203-a249-e411-b0cc-f8bc1246af59, $GPGGA,213527.00,4425.3712,N,12424.1755,W,1,10,0.8,19.5,M,-22.5,M,,*65
2021-09-03T21:35:30.0912035Z, 6cda8203-a249-e411-b0cc-f8bc1246af59, $GPGGA,213529.00,4425.3702,N,12424.1830,W,1,10,0.8,20.1,M,-22.5,M,,*68
2021-09-03T21:35:31.6414050Z, 6cda8203-a249-e411-b0cc-f8bc1246af59, $GPGGA,213530.00,4425.3698,N,12424.1868,W,1,10,0.8,21.8,M,-22.5,M,,*67
2021-09-03T21:35:33.0913212Z, 6cda8203-a249-e411-b0cc-f8bc1246af59, $GPGGA,213532.00,4425.3688,N,12424.1946,W,1,10,0.8,18.8,M,-22.5,M,,*63
2021-09-03T21:35:34.6316023Z, 6cda8203-a249-e411-b0cc-f8bc1246af59, $GPGGA,213533.00,4425.3681,N,12424.1984,W,1,10,0.8,19.0,M,-22.5,M,,*6C
2021-09-03T21:35:36.0912315Z, 6cda8203-a249-e411-b0cc-f8bc1246af59, $GPGGA,213535.00,4425.3670,N,12424.2059,W,1,10,0.8,17.2,M,-22.5,M,,*62
2021-09-03T21:35:37.6315918Z, 6cda8203-a249-e411-b0cc-f8bc1246af59, $GPGGA,213536.00,4425.3666,N,12424.2098,W,1,10,0.8,18.5,M,-22.5,M,,*63
2021-09-03T21:35:39.0912033Z, 6cda8203-a249-e411-b0cc-f8bc1246af59, $GPGGA,213538.00,4425.3655,N,12424.2177,W,1,10,0.8,18.7,M,-22.5,M,,*6F
2021-09-03T21:35:40.6315174Z, 6cda8203-a249-e411-b0cc-f8bc1246af59, $GPGGA,213539.00,4425.3649,N,12424.2216,W,1,10,0.8,17.8,M,-22.5,M,,*67
2021-09-03T21:35:42.0921155Z, 6cda8203-a249-e411-b0cc-f8bc1246af59, $GPGGA,213541.00,4425.3638,N,12424.2293,W,1,10,0.8,16.3,M,-22.5,M,,*69
2021-09-03T21:35:43.6413007Z, 6cda8203-a249-e411-b0cc-f8bc1246af59, $GPGGA,213542.00,4425.3634,N,12424.2332,W,1,10,0.8,18.1,M,-22.5,M,,*60
2021-09-03T21:35:45.0919808Z, 6cda8203-a249-e411-b0cc-f8bc1246af59, $GPGGA,213544.00,4425.3626,N,12424.2410,W,1,10,0.8,22.5,M,-22.5,M,,*6F
2021-09-03T21:35:46.6322476Z, 6cda8203-a249-e411-b0cc-f8bc1246af59, $GPGGA,213545.00,4425.3621,N,12424.2447,W,1,10,0.8,20.8,M,-22.5,M,,*64
2021-09-03T21:35:48.0918814Z, 6cda8203-a249-e411-b0cc-f8bc1246af59, $GPGGA,213547.00,4425.3613,N,12424.2524,W,1,10,0.8,18.4,M,-22.5,M,,*64
2021-09-03T21:35:49.6321490Z, 6cda8203-a249-e411-b0cc-f8bc1246af59, $GPGGA,213548.00,4425.3609,N,12424.2562,W,1,10,0.8,17.6,M,-22.5,M,,*6F
2021-09-03T21:35:51.0917995Z, 6cda8203-a249-e411-b0cc-f8bc1246af59, $GPGGA,213550.00,4425.3598,N,12424.2639,W,1,10,0.8,14.4,M,-22.5,M,,*61
2021-09-03T21:35:52.6419907Z, 6cda8203-a249-e411-b0cc-f8bc1246af59, $GPGGA,213551.00,4425.3594,N,12424.2678,W,1,10,0.8,15.8,M,-22.5,M,,*64
2021-09-03T21:35:54.0916959Z, 6cda8203-a249-e411-b0cc-f8bc1246af59, $GPGGA,213553.00,4425.3587,N,12424.2755,W,1,10,0.8,15.3,M,-22.5,M,,*61
2021-09-03T21:35:55.6419169Z, 6cda8203-a249-e411-b0cc-f8bc1246af59, $GPGGA,213554.00,4425.3583,N,12424.2793,W,1,10,0.8,17.0,M,-22.5,M,,*69
2021-09-03T21:35:56.4424180Z, 6cda8203-a249-e411-b0cc-f8bc1246af59, $GPGGA,213555.00,4425.3578,N,12424.2831,W,1,10,0.8,18.1,M,-22.5,M,,*65
2021-09-03T21:35:57.5923657Z, 6cda8203-a249-e411-b0cc-f8bc1246af59, $GPGGA,213556.00,4425.3573,N,12424.2868,W,1,10,0.8,18.2,M,-22.5,M,,*62
2021-09-03T21:35:58.6427736Z, 6cda8203-a249-e411-b0cc-f8bc1246af59, $GPGGA,213557.00,4425.3570,N,12424.2908,W,1,10,0.8,20.2,M,-22.5,M,,*6C
2021-09-03T21:35:59.5319078Z, 6cda8203-a249-e411-b0cc-f8bc1246af59, $GPGGA,213558.00,4425.3568,N,12424.2948,W,1,10,0.8,19.0,M,-22.5,M,,*66
2021-09-03T21:36:00.9726240Z, 6cda8203-a249-e411-b0cc-f8bc1246af59, $GPGGA,213559.00,4425.3565,N,12424.2988,W,1,10,0.8,16.8,M,-22.5,M,,*61
2021-09-03T21:36:02.2729482Z, 6cda8203-a249-e411-b0cc-f8bc1246af59, $GPGGA,213601.00,4425.3554,N,12424.3065,W,1,10,0.8,19.2,M,-22.5,M,,*63
2021-09-03T21:36:03.7723825Z, 6cda8203-a249-e411-b0cc-f8bc1246af59, $GPGGA,213602.00,4425.3550,N,12424.3104,W,1,10,0.8,19.6,M,-22.5,M,,*66
2021-09-03T21:36:05.0926821Z, 6cda8203-a249-e411-b0cc-f8bc1246af59, $GPGGA,213604.00,4425.3542,N,12424.3184,W,1,10,0.8,18.2,M,-22.5,M,,*6E
2021-09-03T21:36:06.6428475Z, 6cda8203-a249-e411-b0cc-f8bc1246af59, $GPGGA,213605.00,4425.3539,N,12424.3225,W,1,10,0.8,16.0,M,-22.5,M,,*67
2021-09-03T21:36:08.1024882Z, 6cda8203-a249-e411-b0cc-f8bc1246af59, $GPGGA,213607.00,4425.3529,N,12424.3304,W,1,10,0.8,17.3,M,-22.5,M,,*64
2021-09-03T21:36:09.6427393Z, 6cda8203-a249-e411-b0cc-f8bc1246af59, $GPGGA,213608.00,4425.3522,N,12424.3344,W,1,10,0.8,17.7,M,-22.5,M,,*60
2021-09-03T21:36:11.0924479Z, 6cda8203-a249-e411-b0cc-f8bc1246af59, $GPGGA,213610.00,4425.3511,N,12424.3424,W,1,10,0.8,17.4,M,-22.5,M,,*6B
2021-09-03T21:36:12.6426486Z, 6cda8203-a249-e411-b0cc-f8bc1246af59, $GPGGA,213611.00,4425.3508,N,12424.3465,W,1,10,0.8,18.6,M,-22.5,M,,*6A
2021-09-03T21:36:14.0933334Z, 6cda8203-a249-e411-b0cc-f8bc1246af59, $GPGGA,213613.00,4425.3497,N,12424.3546,W,1,10,0.8,18.2,M,-22.5,M,,*6B
2021-09-03T21:36:15.6326465Z, 6cda8203-a249-e411-b0cc-f8bc1246af59, $GPGGA,213614.00,4425.3488,N,12424.3586,W,1,10,0.8,17.5,M,-22.5,M,,*66
2021-09-03T21:36:17.0932368Z, 6cda8203-a249-e411-b0cc-f8bc1246af59, $GPGGA,213616.00,4425.3478,N,12424.3663,W,1,10,0.8,17.3,M,-22.5,M,,*65
2021-09-03T21:36:18.6434254Z, 6cda8203-a249-e411-b0cc-f8bc1246af59, $GPGGA,213617.00,4425.3473,N,12424.3703,W,1,10,0.8,17.5,M,-22.5,M,,*6E
2021-09-03T21:36:20.0973057Z, 6cda8203-a249-e411-b0cc-f8bc1246af59, $GPGGA,213619.00,4425.3461,N,12424.3783,W,1,10,0.8,20.1,M,-22.5,M,,*6B
2021-09-03T21:36:21.6333974Z, 6cda8203-a249-e411-b0cc-f8bc1246af59, $GPGGA,213620.00,4425.3453,N,12424.3821,W,1,10,0.8,19.5,M,-22.5,M,,*69
2021-09-03T21:36:23.0930604Z, 6cda8203-a249-e411-b0cc-f8bc1246af59, $GPGGA,213622.00,4425.3442,N,12424.3898,W,1,10,0.8,17.0,M,-22.5,M,,*62
2021-09-03T21:36:24.6432352Z, 6cda8203-a249-e411-b0cc-f8bc1246af59, $GPGGA,213623.00,4425.3438,N,12424.3940,W,1,10,0.8,17.2,M,-22.5,M,,*68
2021-09-03T21:36:26.0929444Z, 6cda8203-a249-e411-b0cc-f8bc1246af59, $GPGGA,213625.00,4425.3426,N,12424.4020,W,1,10,0.8,19.9,M,-22.5,M,,*6C
2021-09-03T21:36:27.6332087Z, 6cda8203-a249-e411-b0cc-f8bc1246af59, $GPGGA,213626.00,4425.3418,N,12424.4057,W,1,10,0.8,19.6,M,-22.5,M,,*6D
2021-09-03T21:36:29.0938618Z, 6cda8203-a249-e411-b0cc-f8bc1246af59, $GPGGA,213628.00,4425.3408,N,12424.4133,W,1,10,0.8,16.5,M,-22.5,M,,*6D
2021-09-03T21:36:30.6331312Z, 6cda8203-a249-e411-b0cc-f8bc1246af59, $GPGGA,213629.00,4425.3404,N,12424.4174,W,1,10,0.8,17.3,M,-22.5,M,,*64
2021-09-03T21:36:32.0937275Z, 6cda8203-a249-e411-b0cc-f8bc1246af59, $GPGGA,213631.00,4425.3393,N,12424.4251,W,1,10,0.8,18.2,M,-22.5,M,,*6E
2021-09-03T21:36:33.6339985Z, 6cda8203-a249-e411-b0cc-f8bc1246af59, $GPGGA,213632.00,4425.3387,N,12424.4288,W,1,10,0.8,20.2,M,-22.5,M,,*67
2021-09-03T21:36:35.0936363Z, 6cda8203-a249-e411-b0cc-f8bc1246af59, $GPGGA,213634.00,4425.3376,N,12424.4364,W,1,10,0.8,20.1,M,-22.5,M,,*6F
2021-09-03T21:36:36.6338933Z, 6cda8203-a249-e411-b0cc-f8bc1246af59, $GPGGA,213635.00,4425.3370,N,12424.4406,W,1,10,0.8,21.0,M,-22.5,M,,*6B
2021-09-03T21:36:38.0935406Z, 6cda8203-a249-e411-b0cc-f8bc1246af59, $GPGGA,213637.00,4425.3359,N,12424.4487,W,1,10,0.8,18.8,M,-22.5,M,,*69
2021-09-03T21:36:39.6337934Z, 6cda8203-a249-e411-b0cc-f8bc1246af59, $GPGGA,213638.00,4425.3354,N,12424.4526,W,1,10,0.8,18.4,M,-22.5,M,,*6D
2021-09-03T21:36:41.0944405Z, 6cda8203-a249-e411-b0cc-f8bc1246af59, $GPGGA,213640.00,4425.3341,N,12424.4603,W,1,10,0.8,20.0,M,-22.5,M,,*6D
2021-09-03T21:36:42.6337104Z, 6cda8203-a249-e411-b0cc-f8bc1246af59, $GPGGA,213641.00,4425.3335,N,12424.4644,W,1,10,0.8,20.3,M,-22.5,M,,*6F
2021-09-03T21:36:44.0943120Z, 6cda8203-a249-e411-b0cc-f8bc1246af59, $GPGGA,213643.00,4425.3327,N,12424.4724,W,1,10,0.8,20.8,M,-22.5,M,,*62
2021-09-03T21:36:45.6345796Z, 6cda8203-a249-e411-b0cc-f8bc1246af59, $GPGGA,213644.00,4425.3322,N,12424.4762,W,1,10,0.8,18.5,M,-22.5,M,,*64
2021-09-03T21:36:47.0942103Z, 6cda8203-a249-e411-b0cc-f8bc1246af59, $GPGGA,213646.00,4425.3312,N,12424.4840,W,1,10,0.8,18.4,M,-22.5,M,,*6B
2021-09-03T21:36:48.6444215Z, 6cda8203-a249-e411-b0cc-f8bc1246af59, $GPGGA,213647.00,4425.3309,N,12424.4878,W,1,10,0.8,20.6,M,-22.5,M,,*62
2021-09-03T21:36:50.0941329Z, 6cda8203-a249-e411-b0cc-f8bc1246af59, $GPGGA,213649.00,4425.3297,N,12424.4953,W,1,09,1.0,19.5,M,-22.5,M,,*6A
2021-09-03T21:36:51.6343808Z, 6cda8203-a249-e411-b0cc-f8bc1246af59, $GPGGA,213650.00,4425.3292,N,12424.4991,W,1,09,1.0,19.9,M,-22.5,M,,*65
2021-09-03T21:36:53.0940348Z, 6cda8203-a249-e411-b0cc-f8bc1246af59, $GPGGA,213652.00,4425.3284,N,12424.5068,W,1,09,1.0,22.0,M,-22.5,M,,*6F
2021-09-03T21:36:54.6342948Z, 6cda8203-a249-e411-b0cc-f8bc1246af59, $GPGGA,213653.00,4425.3278,N,12424.5105,W,1,09,1.0,22.8,M,-22.5,M,,*6F
2021-09-03T21:36:56.0949136Z, 6cda8203-a249-e411-b0cc-f8bc1246af59, $GPGGA,213655.00,4425.3270,N,12424.5177,W,1,09,1.0,21.7,M,-22.5,M,,*68
2021-09-03T21:36:57.6441540Z, 6cda8203-a249-e411-b0cc-f8bc1246af59, $GPGGA,213656.00,4425.3266,N,12424.5214,W,1,09,1.0,22.8,M,-22.5,M,,*66
2021-09-03T21:36:59.0948179Z, 6cda8203-a249-e411-b0cc-f8bc1246af59, $GPGGA,213658.00,4425.3257,N,12424.5288,W,1,09,1.0,20.4,M,-22.5,M,,*61
2021-09-03T21:37:00.6450174Z, 6cda8203-a249-e411-b0cc-f8bc1246af59, $GPGGA,213659.00,4425.3253,N,12424.5325,W,1,09,1.0,21.5,M,-22.5,M,,*62
2021-09-03T21:37:02.0947063Z, 6cda8203-a249-e411-b0cc-f8bc1246af59, $GPGGA,213701.00,4425.3246,N,12424.5399,W,1,09,1.0,21.1,M,-22.5,M,,*69
2021-09-03T21:37:03.6449253Z, 6cda8203-a249-e411-b0cc-f8bc1246af59, $GPGGA,213702.00,4425.3243,N,12424.5437,W,1,09,1.0,18.3,M,-22.5,M,,*64
2021-09-03T21:37:05.0946279Z, 6cda8203-a249-e411-b0cc-f8bc1246af59, $GPGGA,213704.00,4425.3237,N,12424.5510,W,1,09,1.0,18.4,M,-22.5,M,,*62
2021-09-03T21:37:06.6448220Z, 6cda8203-a249-e411-b0cc-f8bc1246af59, $GPGGA,213705.00,4425.3232,N,12424.5549,W,1,09,1.0,20.4,M,-22.5,M,,*61
2021-09-03T21:37:08.0955043Z, 6cda8203-a249-e411-b0cc-f8bc1246af59, $GPGGA,213707.00,4425.3225,N,12424.5627,W,1,09,1.0,19.2,M,-22.5,M,,*62
2021-09-03T21:37:09.6447160Z, 6cda8203-a249-e411-b0cc-f8bc1246af59, $GPGGA,213708.00,4425.3222,N,12424.5665,W,1,09,1.0,21.9,M,-22.5,M,,*6C
2021-09-03T21:37:11.0953997Z, 6cda8203-a249-e411-b0cc-f8bc1246af59, $GPGGA,213710.00,4425.3214,N,12424.5739,W,1,09,1.0,25.6,M,-22.5,M,,*63
2021-09-03T21:37:12.6455926Z, 6cda8203-a249-e411-b0cc-f8bc1246af59, $GPGGA,213711.00,4425.3209,N,12424.5775,W,1,09,1.0,25.1,M,-22.5,M,,*61
2021-09-03T21:37:14.0953038Z, 6cda8203-a249-e411-b0cc-f8bc1246af59, $GPGGA,213713.00,4425.3202,N,12424.5855,W,1,09,1.0,25.4,M,-22.5,M,,*60
2021-09-03T21:37:15.6454992Z, 6cda8203-a249-e411-b0cc-f8bc1246af59, $GPGGA,213714.00,4425.3199,N,12424.5895,W,1,09,1.0,25.3,M,-22.5,M,,*6D
2021-09-03T21:37:17.0952517Z, 6cda8203-a249-e411-b0cc-f8bc1246af59, $GPGGA,213716.00,4425.3189,N,12424.5972,W,1,09,1.0,25.3,M,-22.5,M,,*66
2021-09-03T21:37:18.6454039Z, 6cda8203-a249-e411-b0cc-f8bc1246af59, $GPGGA,213717.00,4425.3183,N,12424.6012,W,1,09,1.0,23.6,M,-22.5,M,,*62
2021-09-03T21:37:20.0951061Z, 6cda8203-a249-e411-b0cc-f8bc1246af59, $GPGGA,213719.00,4425.3174,N,12424.6094,W,1,09,1.0,19.0,M,-22.5,M,,*65
2021-09-03T21:37:21.6453103Z, 6cda8203-a249-e411-b0cc-f8bc1246af59, $GPGGA,213720.00,4425.3168,N,12424.6134,W,1,09,1.0,21.0,M,-22.5,M,,*62
2021-09-03T21:37:23.0959849Z, 6cda8203-a249-e411-b0cc-f8bc1246af59, $GPGGA,213722.00,4425.3153,N,12424.6212,W,1,09,1.0,18.3,M,-22.5,M,,*66
2021-09-03T21:37:24.6352788Z, 6cda8203-a249-e411-b0cc-f8bc1246af59, $GPGGA,213723.00,4425.3147,N,12424.6252,W,1,09,1.0,16.4,M,-22.5,M,,*6F
2021-09-03T21:37:26.0959058Z, 6cda8203-a249-e411-b0cc-f8bc1246af59, $GPGGA,213725.00,4425.3137,N,12424.6336,W,1,09,1.0,16.7,M,-22.5,M,,*6E
2021-09-03T21:37:27.6460826Z, 6cda8203-a249-e411-b0cc-f8bc1246af59, $GPGGA,213726.00,4425.3132,N,12424.6377,W,1,09,1.0,18.1,M,-22.5,M,,*65
2021-09-03T21:37:29.0957981Z, 6cda8203-a249-e411-b0cc-f8bc1246af59, $GPGGA,213728.00,4425.3119,N,12424.6457,W,1,09,1.0,16.2,M,-22.5,M,,*6A
2021-09-03T21:37:30.6360516Z, 6cda8203-a249-e411-b0cc-f8bc1246af59, $GPGGA,213729.00,4425.3114,N,12424.6500,W,1,09,1.0,17.0,M,-22.5,M,,*66
2021-09-03T21:37:32.0957050Z, 6cda8203-a249-e411-b0cc-f8bc1246af59, $GPGGA,213731.00,4425.3105,N,12424.6582,W,1,09,1.0,18.5,M,-22.5,M,,*6F
2021-09-03T21:37:33.6359591Z, 6cda8203-a249-e411-b0cc-f8bc1246af59, $GPGGA,213732.00,4425.3100,N,12424.6622,W,1,09,1.0,16.1,M,-22.5,M,,*6A
2021-09-03T21:37:35.0955925Z, 6cda8203-a249-e411-b0cc-f8bc1246af59, $GPGGA,213734.00,4425.3090,N,12424.6703,W,1,09,1.0,12.4,M,-22.5,M,,*67
2021-09-03T21:37:36.6358688Z, 6cda8203-a249-e411-b0cc-f8bc1246af59, $GPGGA,213735.00,4425.3086,N,12424.6745,W,1,09,1.0,15.1,M,-22.5,M,,*61
2021-09-03T21:37:38.0964890Z, 6cda8203-a249-e411-b0cc-f8bc1246af59, $GPGGA,213737.00,4425.3075,N,12424.6828,W,1,09,1.0,17.6,M,-22.5,M,,*6E
2021-09-03T21:37:39.6357637Z, 6cda8203-a249-e411-b0cc-f8bc1246af59, $GPGGA,213738.00,4425.3071,N,12424.6867,W,1,09,1.0,17.9,M,-22.5,M,,*61
2021-09-03T21:37:41.0963763Z, 6cda8203-a249-e411-b0cc-f8bc1246af59, $GPGGA,213740.00,4425.3061,N,12424.6947,W,1,09,1.0,23.3,M,-22.5,M,,*61
2021-09-03T21:37:42.6366430Z, 6cda8203-a249-e411-b0cc-f8bc1246af59, $GPGGA,213741.00,4425.3055,N,12424.6987,W,1,09,1.0,21.5,M,-22.5,M,,*6F
2021-09-03T21:37:44.0962943Z, 6cda8203-a249-e411-b0cc-f8bc1246af59, $GPGGA,213743.00,4425.3043,N,12424.7066,W,1,09,1.0,21.0,M,-22.5,M,,*68
2021-09-03T21:37:45.6365430Z, 6cda8203-a249-e411-b0cc-f8bc1246af59, $GPGGA,213744.00,4425.3037,N,12424.7107,W,1,09,1.0,20.9,M,-22.5,M,,*62
2021-09-03T21:37:47.0961861Z, 6cda8203-a249-e411-b0cc-f8bc1246af59, $GPGGA,213746.00,4425.3025,N,12424.7187,W,1,09,1.0,18.2,M,-22.5,M,,*6B
2021-09-03T21:37:48.6364601Z, 6cda8203-a249-e411-b0cc-f8bc1246af59, $GPGGA,213747.00,4425.3020,N,12424.7229,W,1,09,1.0,17.9,M,-22.5,M,,*6C
2021-09-03T21:37:50.0970729Z, 6cda8203-a249-e411-b0cc-f8bc1246af59, $GPGGA,213749.00,4425.3012,N,12424.7310,W,1,09,1.0,17.6,M,-22.5,M,,*67
2021-09-03T21:37:51.6363647Z, 6cda8203-a249-e411-b0cc-f8bc1246af59, $GPGGA,213750.00,4425.3006,N,12424.7351,W,1,09,1.0,16.6,M,-22.5,M,,*6E
2021-09-03T21:37:53.0969671Z, 6cda8203-a249-e411-b0cc-f8bc1246af59, $GPGGA,213752.00,4425.2995,N,12424.7431,W,1,09,1.0,15.4,M,-22.5,M,,*6E
2021-09-03T21:37:54.6372310Z, 6cda8203-a249-e411-b0cc-f8bc1246af59, $GPGGA,213753.00,4425.2991,N,12424.7473,W,1,09,1.0,15.3,M,-22.5,M,,*6A
2021-09-03T21:37:56.0968725Z, 6cda8203-a249-e411-b0cc-f8bc1246af59, $GPGGA,213755.00,4425.2985,N,12424.7552,W,1,09,1.0,19.2,M,-22.5,M,,*66
2021-09-03T21:37:57.6371337Z, 6cda8203-a249-e411-b0cc-f8bc1246af59, $GPGGA,213756.00,4425.2980,N,12424.7591,W,1,09,1.0,18.9,M,-22.5,M,,*65
2021-09-03T21:37:59.0967856Z, 6cda8203-a249-e411-b0cc-f8bc1246af59, $GPGGA,213758.00,4425.2971,N,12424.7670,W,1,09,1.0,19.7,M,-22.5,M,,*66
2021-09-03T21:38:00.6469744Z, 6cda8203-a249-e411-b0cc-f8bc1246af59, $GPGGA,213759.00,4425.2969,N,12424.7710,W,1,09,1.0,17.8,M,-22.5,M,,*68
2021-09-03T21:38:01.4972783Z, 6cda8203-a249-e411-b0cc-f8bc1246af59, $GPGGA,213800.00,4425.2967,N,12424.7750,W,1,09,1.0,16.8,M,-22.5,M,,*60
2021-09-03T21:38:02.5974448Z, 6cda8203-a249-e411-b0cc-f8bc1246af59, $GPGGA,213801.00,4425.2964,N,12424.7789,W,1,09,1.0,16.3,M,-22.5,M,,*6D
2021-09-03T21:38:03.6369553Z, 6cda8203-a249-e411-b0cc-f8bc1246af59, $GPGGA,213802.00,4425.2961,N,12424.7828,W,1,09,1.0,16.0,M,-22.5,M,,*6C
2021-09-03T21:38:04.6067152Z, 6cda8203-a249-e411-b0cc-f8bc1246af59, $GPGGA,213803.00,4425.2957,N,12424.7866,W,1,09,1.0,16.8,M,-22.5,M,,*6A
2021-09-03T21:38:05.9777144Z, 6cda8203-a249-e411-b0cc-f8bc1246af59, $GPGGA,213804.00,4425.2955,N,12424.7905,W,1,09,1.0,17.9,M,-22.5,M,,*6B
2021-09-03T21:38:07.3169076Z, 6cda8203-a249-e411-b0cc-f8bc1246af59, $GPGGA,213806.00,4425.2949,N,12424.7980,W,1,09,1.0,16.1,M,-22.5,M,,*60
2021-09-03T21:38:08.8073571Z, 6cda8203-a249-e411-b0cc-f8bc1246af59, $GPGGA,213807.00,4425.2947,N,12424.8017,W,1,09,1.0,16.6,M,-22.5,M,,*60
2021-09-03T21:38:11.0973737Z, 6cda8203-a249-e411-b0cc-f8bc1246af59, $GPGGA,213809.00,4425.2941,N,12424.8090,W,1,09,1.0,15.8,M,-22.5,M,,*6A
2021-09-03T21:38:12.5977792Z, 6cda8203-a249-e411-b0cc-f8bc1246af59, $GPGGA,213810.00,4425.2936,N,12424.8129,W,1,09,1.0,17.3,M,-22.5,M,,*68
2021-09-03T21:38:13.8971126Z, 6cda8203-a249-e411-b0cc-f8bc1246af59, $GPGGA,213812.00,4425.2933,N,12424.8207,W,1,09,1.0,18.4,M,-22.5,M,,*68
2021-09-03T21:38:15.3875956Z, 6cda8203-a249-e411-b0cc-f8bc1246af59, $GPGGA,213813.00,4425.2930,N,12424.8245,W,1,09,1.0,17.6,M,-22.5,M,,*61
2021-09-03T21:38:16.6879162Z, 6cda8203-a249-e411-b0cc-f8bc1246af59, $GPGGA,213815.00,4425.2923,N,12424.8324,W,1,09,1.0,19.4,M,-22.5,M,,*6F
2021-09-03T21:38:18.1774745Z, 6cda8203-a249-e411-b0cc-f8bc1246af59, $GPGGA,213816.00,4425.2920,N,12424.8362,W,1,09,1.0,23.3,M,-22.5,M,,*63
2021-09-03T21:38:19.4777582Z, 6cda8203-a249-e411-b0cc-f8bc1246af59, $GPGGA,213818.00,4425.2913,N,12424.8437,W,1,09,1.0,21.6,M,-22.5,M,,*6D
2021-09-03T21:38:20.9682447Z, 6cda8203-a249-e411-b0cc-f8bc1246af59, $GPGGA,213819.00,4425.2909,N,12424.8476,W,1,09,1.0,24.8,M,-22.5,M,,*69
2021-09-03T21:38:22.2675940Z, 6cda8203-a249-e411-b0cc-f8bc1246af59, $GPGGA,213821.00,4425.2903,N,12424.8558,W,1,09,1.0,26.6,M,-22.5,M,,*69
2021-09-03T21:38:23.7580649Z, 6cda8203-a249-e411-b0cc-f8bc1246af59, $GPGGA,213822.00,4425.2899,N,12424.8598,W,1,09,1.0,26.9,M,-22.5,M,,*6B
2021-09-03T21:38:25.0982400Z, 6cda8203-a249-e411-b0cc-f8bc1246af59, $GPGGA,213824.00,4425.2885,N,12424.8678,W,1,09,1.0,27.1,M,-22.5,M,,*64
2021-09-03T21:38:26.6384784Z, 6cda8203-a249-e411-b0cc-f8bc1246af59, $GPGGA,213825.00,4425.2879,N,12424.8718,W,1,09,1.0,25.9,M,-22.5,M,,*6B
2021-09-03T21:38:28.0981303Z, 6cda8203-a249-e411-b0cc-f8bc1246af59, $GPGGA,213827.00,4425.2872,N,12424.8803,W,1,09,1.0,22.5,M,-22.5,M,,*6C
2021-09-03T21:38:29.6383874Z, 6cda8203-a249-e411-b0cc-f8bc1246af59, $GPGGA,213828.00,4425.2868,N,12424.8844,W,1,09,1.0,26.7,M,-22.5,M,,*6D
2021-09-03T21:38:31.0981580Z, 6cda8203-a249-e411-b0cc-f8bc1246af59, $GPGGA,213830.00,4425.2852,N,12424.8924,W,1,09,1.0,25.6,M,-22.5,M,,*68
2021-09-03T21:38:32.6384291Z, 6cda8203-a249-e411-b0cc-f8bc1246af59, $GPGGA,213831.00,4425.2846,N,12424.8966,W,1,09,1.0,22.7,M,-22.5,M,,*6C
2021-09-03T21:38:34.0980818Z, 6cda8203-a249-e411-b0cc-f8bc1246af59, $GPGGA,213833.00,4425.2838,N,12424.9048,W,1,09,1.0,21.1,M,-22.5,M,,*66
2021-09-03T21:38:35.6383401Z, 6cda8203-a249-e411-b0cc-f8bc1246af59, $GPGGA,213834.00,4425.2832,N,12424.9087,W,1,09,1.0,23.2,M,-22.5,M,,*69
2021-09-03T21:38:37.0979664Z, 6cda8203-a249-e411-b0cc-f8bc1246af59, $GPGGA,213836.00,4425.2821,N,12424.9169,W,1,09,1.0,21.0,M,-22.5,M,,*68
2021-09-03T21:38:38.6382421Z, 6cda8203-a249-e411-b0cc-f8bc1246af59, $GPGGA,213837.00,4425.2818,N,12424.9210,W,1,09,1.0,23.2,M,-22.5,M,,*6E
2021-09-03T21:38:40.0883331Z, 6cda8203-a249-e411-b0cc-f8bc1246af59, $GPGGA,213839.00,4425.2808,N,12424.9293,W,1,09,1.0,26.0,M,-22.5,M,,*6D
2021-09-03T21:38:41.6231138Z, 6cda8203-a249-e411-b0cc-f8bc1246af59, $GPGGA,213840.00,4425.2803,N,12424.9334,W,1,09,1.0,24.6,M,-22.5,M,,*60
2021-09-03T21:38:43.0837272Z, 6cda8203-a249-e411-b0cc-f8bc1246af59, $GPGGA,213842.00,4425.2793,N,12424.9418,W,1,09,1.0,23.5,M,-22.5,M,,*69
2021-09-03T21:38:44.6239911Z, 6cda8203-a249-e411-b0cc-f8bc1246af59, $GPGGA,213843.00,4425.2787,N,12424.9460,W,1,09,1.0,24.5,M,-22.5,M,,*65
2021-09-03T21:38:46.0836255Z, 6cda8203-a249-e411-b0cc-f8bc1246af59, $GPGGA,213845.00,4425.2776,N,12424.9542,W,1,09,1.0,21.3,M,-22.5,M,,*6F
2021-09-03T21:38:47.6238956Z, 6cda8203-a249-e411-b0cc-f8bc1246af59, $GPGGA,213846.00,4425.2769,N,12424.9582,W,1,09,1.0,23.2,M,-22.5,M,,*6D
2021-09-03T21:38:49.0835506Z, 6cda8203-a249-e411-b0cc-f8bc1246af59, $GPGGA,213848.00,4425.2760,N,12424.9661,W,1,09,1.0,22.5,M,-22.5,M,,*62
2021-09-03T21:38:50.6237973Z, 6cda8203-a249-e411-b0cc-f8bc1246af59, $GPGGA,213849.00,4425.2757,N,12424.9701,W,1,09,1.0,24.8,M,-22.5,M,,*6B
2021-09-03T21:38:52.0844107Z, 6cda8203-a249-e411-b0cc-f8bc1246af59, $GPGGA,213851.00,4425.2746,N,12424.9781,W,1,09,1.0,24.5,M,-22.5,M,,*67
2021-09-03T21:38:53.6238006Z, 6cda8203-a249-e411-b0cc-f8bc1246af59, $GPGGA,213852.00,4425.2741,N,12424.9820,W,1,09,1.0,24.0,M,-22.5,M,,*62
2021-09-03T21:38:55.0844091Z, 6cda8203-a249-e411-b0cc-f8bc1246af59, $GPGGA,213854.00,4425.2732,N,12424.9897,W,1,09,1.0,23.0,M,-22.5,M,,*6B
2021-09-03T21:38:56.6237054Z, 6cda8203-a249-e411-b0cc-f8bc1246af59, $GPGGA,213855.00,4425.2729,N,12424.9936,W,1,09,1.0,23.1,M,-22.5,M,,*6B
2021-09-03T21:38:58.0843132Z, 6cda8203-a249-e411-b0cc-f8bc1246af59, $GPGGA,213857.00,4425.2720,N,12425.0013,W,1,09,1.0,23.4,M,-22.5,M,,*63
2021-09-03T21:38:59.6245859Z, 6cda8203-a249-e411-b0cc-f8bc1246af59, $GPGGA,213858.00,4425.2715,N,12425.0051,W,1,09,1.0,21.6,M,-22.5,M,,*6C
2021-09-03T21:39:01.0842661Z, 6cda8203-a249-e411-b0cc-f8bc1246af59, $GPGGA,213900.00,4425.2709,N,12425.0126,W,1,09,1.0,19.9,M,-22.5,M,,*68
2021-09-03T21:39:02.6245359Z, 6cda8203-a249-e411-b0cc-f8bc1246af59, $GPGGA,213901.00,4425.2705,N,12425.0164,W,1,09,1.0,19.4,M,-22.5,M,,*6E
2021-09-03T21:39:04.0841677Z, 6cda8203-a249-e411-b0cc-f8bc1246af59, $GPGGA,213903.00,4425.2699,N,12425.0242,W,1,09,1.0,22.5,M,-22.5,M,,*66
2021-09-03T21:39:05.6244914Z, 6cda8203-a249-e411-b0cc-f8bc1246af59, $GPGGA,213904.00,4425.2695,N,12425.0281,W,1,09,1.0,22.2,M,-22.5,M,,*65
2021-09-03T21:39:07.0841277Z, 6cda8203-a249-e411-b0cc-f8bc1246af59, $GPGGA,213906.00,4425.2689,N,12425.0358,W,1,09,1.0,21.6,M,-22.5,M,,*68
2021-09-03T21:39:08.6343354Z, 6cda8203-a249-e411-b0cc-f8bc1246af59, $GPGGA,213907.00,4425.2685,N,12425.0396,W,1,09,1.0,21.0,M,-22.5,M,,*61
2021-09-03T21:39:10.0850055Z, 6cda8203-a249-e411-b0cc-f8bc1246af59, $GPGGA,213909.00,4425.2681,N,12425.0472,W,1,09,1.0,19.5,M,-22.5,M,,*68
2021-09-03T21:39:11.6246688Z, 6cda8203-a249-e411-b0cc-f8bc1246af59, $GPGGA,213910.00,4425.2679,N,12425.0509,W,1,09,1.0,17.1,M,-22.5,M,,*60
2021-09-03T21:39:13.0852802Z, 6cda8203-a249-e411-b0cc-f8bc1246af59, $GPGGA,213912.00,4425.2672,N,12425.0585,W,1,09,1.0,19.8,M,-22.5,M,,*6A
2021-09-03T21:39:14.6246734Z, 6cda8203-a249-e411-b0cc-f8bc1246af59, $GPGGA,213913.00,4425.2667,N,12425.0625,W,1,09,1.0,20.5,M,-22.5,M,,*61
2021-09-03T21:39:16.0853019Z, 6cda8203-a249-e411-b0cc-f8bc1246af59, $GPGGA,213915.00,4425.2658,N,12425.0703,W,1,09,1.0,19.1,M,-22.5,M,,*60
2021-09-03T21:39:17.6345233Z, 6cda8203-a249-e411-b0cc-f8bc1246af59, $GPGGA,213916.00,4425.2652,N,12425.0741,W,1,09,1.0,18.5,M,-22.5,M,,*6A
2021-09-03T21:39:19.0851991Z, 6cda8203-a249-e411-b0cc-f8bc1246af59, $GPGGA,213918.00,4425.2642,N,12425.0820,W,1,09,1.0,21.5,M,-22.5,M,,*67
2021-09-03T21:39:20.6254552Z, 6cda8203-a249-e411-b0cc-f8bc1246af59, $GPGGA,213919.00,4425.2638,N,12425.0860,W,1,09,1.0,22.1,M,-22.5,M,,*68
2021-09-03T21:39:22.0850947Z, 6cda8203-a249-e411-b0cc-f8bc1246af59, $GPGGA,213921.00,4425.2627,N,12425.0941,W,1,09,1.0,23.1,M,-22.5,M,,*6E
2021-09-03T21:39:23.6253637Z, 6cda8203-a249-e411-b0cc-f8bc1246af59, $GPGGA,213922.00,4425.2622,N,12425.0979,W,1,09,1.0,25.5,M,-22.5,M,,*61
2021-09-03T21:39:25.0850125Z, 6cda8203-a249-e411-b0cc-f8bc1246af59, $GPGGA,213924.00,4425.2612,N,12425.1059,W,1,09,1.0,24.4,M,-22.5,M,,*6E
2021-09-03T21:39:26.6252629Z, 6cda8203-a249-e411-b0cc-f8bc1246af59, $GPGGA,213925.00,4425.2607,N,12425.1100,W,1,09,1.0,22.6,M,-22.5,M,,*62
2021-09-03T21:39:28.0848955Z, 6cda8203-a249-e411-b0cc-f8bc1246af59, $GPGGA,213927.00,4425.2597,N,12425.1178,W,1,09,1.0,26.5,M,-22.5,M,,*62
2021-09-03T21:39:29.6251990Z, 6cda8203-a249-e411-b0cc-f8bc1246af59, $GPGGA,213928.00,4425.2590,N,12425.1217,W,1,09,1.0,27.0,M,-22.5,M,,*64
2021-09-03T21:39:31.0858221Z, 6cda8203-a249-e411-b0cc-f8bc1246af59, $GPGGA,213930.00,4425.2578,N,12425.1300,W,1,09,1.0,24.2,M,-22.5,M,,*6D
2021-09-03T21:39:32.6253120Z, 6cda8203-a249-e411-b0cc-f8bc1246af59, $GPGGA,213931.00,4425.2573,N,12425.1340,W,1,09,1.0,25.6,M,-22.5,M,,*66
2021-09-03T21:39:34.0859047Z, 6cda8203-a249-e411-b0cc-f8bc1246af59, $GPGGA,213933.00,4425.2561,N,12425.1419,W,1,09,1.0,23.9,M,-22.5,M,,*65
2021-09-03T21:39:35.6255308Z, 6cda8203-a249-e411-b0cc-f8bc1246af59, $GPGGA,213934.00,4425.2555,N,12425.1461,W,1,09,1.0,25.0,M,-22.5,M,,*65
2021-09-03T21:39:37.0861757Z, 6cda8203-a249-e411-b0cc-f8bc1246af59, $GPGGA,213936.00,4425.2544,N,12425.1545,W,1,09,1.0,21.1,M,-22.5,M,,*65
2021-09-03T21:39:38.6255737Z, 6cda8203-a249-e411-b0cc-f8bc1246af59, $GPGGA,213937.00,4425.2538,N,12425.1586,W,1,09,1.0,21.4,M,-22.5,M,,*65
2021-09-03T21:39:40.0861431Z, 6cda8203-a249-e411-b0cc-f8bc1246af59, $GPGGA,213939.00,4425.2527,N,12425.1665,W,1,09,1.0,23.5,M,-22.5,M,,*68
2021-09-03T21:39:41.6254714Z, 6cda8203-a249-e411-b0cc-f8bc1246af59, $GPGGA,213940.00,4425.2520,N,12425.1705,W,1,09,1.0,24.5,M,-22.5,M,,*61
2021-09-03T21:39:43.0862988Z, 6cda8203-a249-e411-b0cc-f8bc1246af59, $GPGGA,213942.00,4425.2508,N,12425.1785,W,1,09,1.0,20.1,M,-22.5,M,,*61
2021-09-03T21:39:44.6255961Z, 6cda8203-a249-e411-b0cc-f8bc1246af59, $GPGGA,213943.00,4425.2503,N,12425.1824,W,1,09,1.0,21.1,M,-22.5,M,,*6E
2021-09-03T21:39:46.0862102Z, 6cda8203-a249-e411-b0cc-f8bc1246af59, $GPGGA,213945.00,4425.2488,N,12425.1901,W,1,09,1.0,24.0,M,-22.5,M,,*68
2021-09-03T21:39:47.6264780Z, 6cda8203-a249-e411-b0cc-f8bc1246af59, $GPGGA,213946.00,4425.2482,N,12425.1940,W,1,09,1.0,24.5,M,-22.5,M,,*61
2021-09-03T21:39:49.0861079Z, 6cda8203-a249-e411-b0cc-f8bc1246af59, $GPGGA,213948.00,4425.2471,N,12425.2016,W,1,09,1.0,25.6,M,-22.5,M,,*68
2021-09-03T21:39:50.6263736Z, 6cda8203-a249-e411-b0cc-f8bc1246af59, $GPGGA,213949.00,4425.2466,N,12425.2055,W,1,09,1.0,23.0,M,-22.5,M,,*68
2021-09-03T21:39:52.0860438Z, 6cda8203-a249-e411-b0cc-f8bc1246af59, $GPGGA,213951.00,4425.2457,N,12425.2133,W,1,09,1.0,24.0,M,-22.5,M,,*65
2021-09-03T21:39:53.6263258Z, 6cda8203-a249-e411-b0cc-f8bc1246af59, $GPGGA,213952.00,4425.2451,N,12425.2170,W,1,09,1.0,24.3,M,-22.5,M,,*64
2021-09-03T21:39:55.0859431Z, 6cda8203-a249-e411-b0cc-f8bc1246af59, $GPGGA,213954.00,4425.2441,N,12425.2243,W,1,09,1.0,22.0,M,-22.5,M,,*65
2021-09-03T21:39:56.6262255Z, 6cda8203-a249-e411-b0cc-f8bc1246af59, $GPGGA,213955.00,4425.2439,N,12425.2280,W,1,09,1.0,17.2,M,-22.5,M,,*60
2021-09-03T21:39:58.0868305Z, 6cda8203-a249-e411-b0cc-f8bc1246af59, $GPGGA,213957.00,4425.2432,N,12425.2358,W,1,09,1.0,23.7,M,-22.5,M,,*6F
2021-09-03T21:39:59.6264500Z, 6cda8203-a249-e411-b0cc-f8bc1246af59, $GPGGA,213958.00,4425.2427,N,12425.2396,W,1,09,1.0,25.3,M,-22.5,M,,*64
2021-09-03T21:40:01.0870523Z, 6cda8203-a249-e411-b0cc-f8bc1246af59, $GPGGA,214000.00,4425.2419,N,12425.2471,W,1,09,1.0,24.7,M,-22.5,M,,*61
2021-09-03T21:40:02.6263478Z, 6cda8203-a249-e411-b0cc-f8bc1246af59, $GPGGA,214001.00,4425.2417,N,12425.2511,W,1,09,1.0,26.7,M,-22.5,M,,*6B
2021-09-03T21:40:04.0869631Z, 6cda8203-a249-e411-b0cc-f8bc1246af59, $GPGGA,214003.00,4425.2407,N,12425.2590,W,1,09,1.0,25.2,M,-22.5,M,,*67
2021-09-03T21:40:05.6371554Z, 6cda8203-a249-e411-b0cc-f8bc1246af59, $GPGGA,214004.00,4425.2402,N,12425.2629,W,1,09,1.0,27.5,M,-22.5,M,,*61
2021-09-03T21:40:06.6666923Z, 6cda8203-a249-e411-b0cc-f8bc1246af59, $GPGGA,214005.00,4425.2398,N,12425.2669,W,1,09,1.0,25.2,M,-22.5,M,,*65
2021-09-03T21:40:07.5767193Z, 6cda8203-a249-e411-b0cc-f8bc1246af59, $GPGGA,214006.00,4425.2395,N,12425.2708,W,1,09,1.0,23.6,M,-22.5,M,,*6F
2021-09-03T21:40:08.6271276Z, 6cda8203-a249-e411-b0cc-f8bc1246af59, $GPGGA,214007.00,4425.2392,N,12425.2748,W,1,09,1.0,23.2,M,-22.5,M,,*69
2021-09-03T21:40:09.7870617Z, 6cda8203-a249-e411-b0cc-f8bc1246af59, $GPGGA,214008.00,4425.2388,N,12425.2789,W,1,09,1.0,24.7,M,-22.5,M,,*62
2021-09-03T21:40:10.9669238Z, 6cda8203-a249-e411-b0cc-f8bc1246af59, $GPGGA,214009.00,4425.2384,N,12425.2831,W,1,09,1.0,24.8,M,-22.5,M,,*6C
2021-09-03T21:40:12.5868241Z, 6cda8203-a249-e411-b0cc-f8bc1246af59, $GPGGA,214011.00,4425.2377,N,12425.2912,W,1,09,1.0,24.6,M,-22.5,M,,*67
2021-09-03T21:40:13.7567390Z, 6cda8203-a249-e411-b0cc-f8bc1246af59, $GPGGA,214012.00,4425.2372,N,12425.2952,W,1,09,1.0,19.7,M,-22.5,M,,*6A
2021-09-03T21:40:15.3567556Z, 6cda8203-a249-e411-b0cc-f8bc1246af59, $GPGGA,214014.00,4425.2363,N,12425.3032,W,1,09,1.0,18.4,M,-22.5,M,,*60
2021-09-03T21:40:16.6272144Z, 6cda8203-a249-e411-b0cc-f8bc1246af59, $GPGGA,214015.00,4425.2359,N,12425.3072,W,1,09,1.0,19.0,M,-22.5,M,,*69
2021-09-03T21:40:18.3576353Z, 6cda8203-a249-e411-b0cc-f8bc1246af59, $GPGGA,214017.00,4425.2350,N,12425.3154,W,1,09,1.0,22.8,M,-22.5,M,,*67
2021-09-03T21:40:19.6271010Z, 6cda8203-a249-e411-b0cc-f8bc1246af59, $GPGGA,214018.00,4425.2345,N,12425.3194,W,1,09,1.0,24.0,M,-22.5,M,,*6E
2021-09-03T21:40:21.3674898Z, 6cda8203-a249-e411-b0cc-f8bc1246af59, $GPGGA,214020.00,4425.2335,N,12425.3277,W,1,09,1.0,23.6,M,-22.5,M,,*6D
2021-09-03T21:40:22.6269977Z, 6cda8203-a249-e411-b0cc-f8bc1246af59, $GPGGA,214021.00,4425.2332,N,12425.3319,W,1,09,1.0,21.2,M,-22.5,M,,*64
2021-09-03T21:40:24.3574336Z, 6cda8203-a249-e411-b0cc-f8bc1246af59, $GPGGA,214023.00,4425.2325,N,12425.3400,W,1,09,1.0,20.6,M,-22.5,M,,*6A
2021-09-03T21:40:25.6278831Z, 6cda8203-a249-e411-b0cc-f8bc1246af59, $GPGGA,214024.00,4425.2319,N,12425.3439,W,1,09,1.0,20.2,M,-22.5,M,,*6C
2021-09-03T21:40:27.3573538Z, 6cda8203-a249-e411-b0cc-f8bc1246af59, $GPGGA,214026.00,4425.2307,N,12425.3520,W,1,09,1.0,19.8,M,-22.5,M,,*68
2021-09-03T21:40:28.6277991Z, 6cda8203-a249-e411-b0cc-f8bc1246af59, $GPGGA,214027.00,4425.2300,N,12425.3561,W,1,09,1.0,23.0,M,-22.5,M,,*6A
2021-09-03T21:40:30.3582354Z, 6cda8203-a249-e411-b0cc-f8bc1246af59, $GPGGA,214029.00,4425.2286,N,12425.3641,W,1,09,1.0,20.9,M,-22.5,M,,*60
2021-09-03T21:40:31.6276834Z, 6cda8203-a249-e411-b0cc-f8bc1246af59, $GPGGA,214030.00,4425.2280,N,12425.3681,W,1,09,1.0,21.5,M,-22.5,M,,*6F
2021-09-03T21:40:33.3581282Z, 6cda8203-a249-e411-b0cc-f8bc1246af59, $GPGGA,214032.00,4425.2267,N,12425.3760,W,1,09,1.0,21.4,M,-22.5,M,,*6B
2021-09-03T21:40:34.6276029Z, 6cda8203-a249-e411-b0cc-f8bc1246af59, $GPGGA,214033.00,4425.2259,N,12425.3798,W,1,09,1.0,23.3,M,-22.5,M,,*65
2021-09-03T21:40:36.3580319Z, 6cda8203-a249-e411-b0cc-f8bc1246af59, $GPGGA,214035.00,4425.2246,N,12425.3876,W,1,09,1.0,24.1,M,-22.5,M,,*67
2021-09-03T21:40:37.6284718Z, 6cda8203-a249-e411-b0cc-f8bc1246af59, $GPGGA,214036.00,4425.2241,N,12425.3917,W,1,09,1.0,24.8,M,-22.5,M,,*6C
2021-09-03T21:40:39.3680822Z, 6cda8203-a249-e411-b0cc-f8bc1246af59, $GPGGA,214038.00,4425.2227,N,12425.3998,W,1,09,1.0,23.0,M,-22.5,M,,*6A
2021-09-03T21:40:40.6286082Z, 6cda8203-a249-e411-b0cc-f8bc1246af59, $GPGGA,214039.00,4425.2220,N,12425.4038,W,1,09,1.0,23.0,M,-22.5,M,,*68
2021-09-03T21:40:42.3679985Z, 6cda8203-a249-e411-b0cc-f8bc1246af59, $GPGGA,214041.00,4425.2208,N,12425.4118,W,1,09,1.0,23.7,M,-22.5,M,,*69
2021-09-03T21:40:43.6284994Z, 6cda8203-a249-e411-b0cc-f8bc1246af59, $GPGGA,214042.00,4425.2201,N,12425.4159,W,1,09,1.0,24.8,M,-22.5,M,,*6E
2021-09-03T21:40:45.3681786Z, 6cda8203-a249-e411-b0cc-f8bc1246af59, $GPGGA,214044.00,4425.2192,N,12425.4236,W,1,09,1.0,23.1,M,-22.5,M,,*65
2021-09-03T21:40:46.6284191Z, 6cda8203-a249-e411-b0cc-f8bc1246af59, $GPGGA,214045.00,4425.2188,N,12425.4275,W,1,09,1.0,24.2,M,-22.5,M,,*6C
2021-09-03T21:40:48.3588371Z, 6cda8203-a249-e411-b0cc-f8bc1246af59, $GPGGA,214047.00,4425.2173,N,12425.4353,W,1,09,1.0,25.9,M,-22.5,M,,*65
2021-09-03T21:40:49.6283160Z, 6cda8203-a249-e411-b0cc-f8bc1246af59, $GPGGA,214048.00,4425.2167,N,12425.4393,W,1,09,1.0,25.2,M,-22.5,M,,*68
2021-09-03T21:40:51.3587386Z, 6cda8203-a249-e411-b0cc-f8bc1246af59, $GPGGA,214050.00,4425.2157,N,12425.4468,W,1,09,1.0,25.4,M,-22.5,M,,*67
2021-09-03T21:40:52.6282179Z, 6cda8203-a249-e411-b0cc-f8bc1246af59, $GPGGA,214051.00,4425.2152,N,12425.4507,W,1,09,1.0,26.3,M,-22.5,M,,*6F
2021-09-03T21:40:54.3586456Z, 6cda8203-a249-e411-b0cc-f8bc1246af59, $GPGGA,214053.00,4425.2143,N,12425.4584,W,1,09,1.0,27.8,M,-22.5,M,,*6C
2021-09-03T21:40:55.6290857Z, 6cda8203-a249-e411-b0cc-f8bc1246af59, $GPGGA,214054.00,4425.2138,N,12425.4623,W,1,09,1.0,27.3,M,-22.5,M,,*62
2021-09-03T21:40:57.3685006Z, 6cda8203-a249-e411-b0cc-f8bc1246af59, $GPGGA,214056.00,4425.2128,N,12425.4701,W,1,09,1.0,26.8,M,-22.5,M,,*6A
2021-09-03T21:40:58.6290229Z, 6cda8203-a249-e411-b0cc-f8bc1246af59, $GPGGA,214057.00,4425.2124,N,12425.4741,W,1,09,1.0,26.9,M,-22.5,M,,*62
2021-09-03T21:41:00.3586303Z, 6cda8203-a249-e411-b0cc-f8bc1246af59, $GPGGA,214059.00,4425.2115,N,12425.4823,W,1,09,1.0,26.8,M,-22.5,M,,*64
2021-09-03T21:41:01.6290253Z, 6cda8203-a249-e411-b0cc-f8bc1246af59, $GPGGA,214100.00,4425.2110,N,12425.4863,W,1,09,1.0,25.3,M,-22.5,M,,*60
2021-09-03T21:41:03.3594686Z, 6cda8203-a249-e411-b0cc-f8bc1246af59, $GPGGA,214102.00,4425.2103,N,12425.4944,W,1,09,1.0,25.7,M,-22.5,M,,*60
2021-09-03T21:41:04.6289361Z, 6cda8203-a249-e411-b0cc-f8bc1246af59, $GPGGA,214103.00,4425.2099,N,12425.4986,W,1,09,1.0,28.8,M,-22.5,M,,*6F
2021-09-03T21:41:06.3195405Z, 6cda8203-a249-e411-b0cc-f8bc1246af59, $GPGGA,214105.00,4425.2091,N,12425.5069,W,1,09,1.0,28.8,M,-22.5,M,,*68
2021-09-03T21:41:07.6288449Z, 6cda8203-a249-e411-b0cc-f8bc1246af59, $GPGGA,214106.00,4425.2087,N,12425.5110,W,1,09,1.0,28.2,M,-22.5,M,,*69
2021-09-03T21:41:09.1990005Z, 6cda8203-a249-e411-b0cc-f8bc1246af59, $GPGGA,214108.00,4425.2080,N,12425.5193,W,1,09,1.0,30.5,M,-22.5,M,,*65
2021-09-03T21:41:10.6297245Z, 6cda8203-a249-e411-b0cc-f8bc1246af59, $GPGGA,214109.00,4425.2077,N,12425.5235,W,1,09,1.0,31.9,M,-22.5,M,,*6E
2021-09-03T21:41:12.0893452Z, 6cda8203-a249-e411-b0cc-f8bc1246af59, $GPGGA,214111.00,4425.2068,N,12425.5315,W,1,09,1.0,29.1,M,-22.5,M,,*6B
2021-09-03T21:41:13.6328306Z, 6cda8203-a249-e411-b0cc-f8bc1246af59, $GPGGA,214112.00,4425.2064,N,12425.5356,W,1,09,1.0,27.4,M,-22.5,M,,*68
2021-09-03T21:41:15.0892598Z, 6cda8203-a249-e411-b0cc-f8bc1246af59, $GPGGA,214114.00,4425.2057,N,12425.5437,W,1,09,1.0,28.7,M,-22.5,M,,*62
2021-09-03T21:41:16.6295152Z, 6cda8203-a249-e411-b0cc-f8bc1246af59, $GPGGA,214115.00,4425.2054,N,12425.5476,W,1,09,1.0,30.9,M,-22.5,M,,*62
2021-09-03T21:41:18.0892460Z, 6cda8203-a249-e411-b0cc-f8bc1246af59, $GPGGA,214117.00,4425.2049,N,12425.5555,W,1,09,1.0,33.2,M,-22.5,M,,*64
2021-09-03T21:41:19.6298885Z, 6cda8203-a249-e411-b0cc-f8bc1246af59, $GPGGA,214118.00,4425.2045,N,12425.5594,W,1,09,1.0,32.8,M,-22.5,M,,*61
2021-09-03T21:41:21.0895239Z, 6cda8203-a249-e411-b0cc-f8bc1246af59, $GPGGA,214120.00,4425.2035,N,12425.5672,W,1,09,1.0,31.9,M,-22.5,M,,*64
2021-09-03T21:41:22.6297864Z, 6cda8203-a249-e411-b0cc-f8bc1246af59, $GPGGA,214121.00,4425.2031,N,12425.5709,W,1,09,1.0,31.9,M,-22.5,M,,*6C
2021-09-03T21:41:24.0894303Z, 6cda8203-a249-e411-b0cc-f8bc1246af59, $GPGGA,214123.00,4425.2021,N,12425.5791,W,1,09,1.0,31.6,M,-22.5,M,,*61
2021-09-03T21:41:25.6297300Z, 6cda8203-a249-e411-b0cc-f8bc1246af59, $GPGGA,214124.00,4425.2015,N,12425.5831,W,1,09,1.0,34.0,M,-22.5,M,,*67
2021-09-03T21:41:27.0903167Z, 6cda8203-a249-e411-b0cc-f8bc1246af59, $GPGGA,214126.00,4425.2003,N,12425.5907,W,1,09,1.0,31.1,M,-22.5,M,,*62
2021-09-03T21:41:28.6295918Z, 6cda8203-a249-e411-b0cc-f8bc1246af59, $GPGGA,214127.00,4425.1999,N,12425.5949,W,1,09,1.0,30.8,M,-22.5,M,,*68
2021-09-03T21:41:30.0902198Z, 6cda8203-a249-e411-b0cc-f8bc1246af59, $GPGGA,214129.00,4425.1990,N,12425.6030,W,1,09,1.0,30.5,M,-22.5,M,,*66
2021-09-03T21:41:31.6304733Z, 6cda8203-a249-e411-b0cc-f8bc1246af59, $GPGGA,214130.00,4425.1983,N,12425.6069,W,1,09,1.0,30.9,M,-22.5,M,,*6C
2021-09-03T21:41:33.0901187Z, 6cda8203-a249-e411-b0cc-f8bc1246af59, $GPGGA,214132.00,4425.1969,N,12425.6145,W,1,09,1.0,30.7,M,-22.5,M,,*6B
2021-09-03T21:41:34.6303881Z, 6cda8203-a249-e411-b0cc-f8bc1246af59, $GPGGA,214133.00,4425.1963,N,12425.6186,W,1,09,1.0,30.9,M,-22.5,M,,*61
2021-09-03T21:41:36.0900197Z, 6cda8203-a249-e411-b0cc-f8bc1246af59, $GPGGA,214135.00,4425.1952,N,12425.6267,W,1,09,1.0,29.6,M,-22.5,M,,*6E
2021-09-03T21:41:37.6302842Z, 6cda8203-a249-e411-b0cc-f8bc1246af59, $GPGGA,214136.00,4425.1946,N,12425.6306,W,1,09,1.0,30.0,M,-22.5,M,,*60
2021-09-03T21:41:39.0899287Z, 6cda8203-a249-e411-b0cc-f8bc1246af59, $GPGGA,214138.00,4425.1933,N,12425.6380,W,1,09,1.0,29.8,M,-22.5,M,,*62
2021-09-03T21:41:40.6302054Z, 6cda8203-a249-e411-b0cc-f8bc1246af59, $GPGGA,214139.00,4425.1927,N,12425.6418,W,1,09,1.0,30.3,M,-22.5,M,,*63
2021-09-03T21:41:42.0908036Z, 6cda8203-a249-e411-b0cc-f8bc1246af59, $GPGGA,214141.00,4425.1915,N,12425.6495,W,1,09,1.0,29.3,M,-22.5,M,,*60
2021-09-03T21:41:43.6300875Z, 6cda8203-a249-e411-b0cc-f8bc1246af59, $GPGGA,214142.00,4425.1908,N,12425.6534,W,1,09,1.0,29.7,M,-22.5,M,,*61
2021-09-03T21:41:45.0908259Z, 6cda8203-a249-e411-b0cc-f8bc1246af59, $GPGGA,214144.00,4425.1896,N,12425.6611,W,1,09,1.0,29.5,M,-22.5,M,,*67
2021-09-03T21:41:46.6310962Z, 6cda8203-a249-e411-b0cc-f8bc1246af59, $GPGGA,214145.00,4425.1889,N,12425.6650,W,1,09,1.0,30.4,M,-22.5,M,,*64
2021-09-03T21:41:48.0907351Z, 6cda8203-a249-e411-b0cc-f8bc1246af59, $GPGGA,214147.00,4425.1878,N,12425.6727,W,1,09,1.0,28.3,M,-22.5,M,,*67
2021-09-03T21:41:49.6309979Z, 6cda8203-a249-e411-b0cc-f8bc1246af59, $GPGGA,214148.00,4425.1872,N,12425.6766,W,1,09,1.0,29.6,M,-22.5,M,,*63
2021-09-03T21:41:51.0906373Z, 6cda8203-a249-e411-b0cc-f8bc1246af59, $GPGGA,214150.00,4425.1859,N,12425.6841,W,1,09,1.0,26.8,M,-22.5,M,,*68
2021-09-03T21:41:52.6312296Z, 6cda8203-a249-e411-b0cc-f8bc1246af59, $GPGGA,214151.00,4425.1854,N,12425.6878,W,1,09,1.0,26.9,M,-22.5,M,,*6F
2021-09-03T21:41:54.0908635Z, 6cda8203-a249-e411-b0cc-f8bc1246af59, $GPGGA,214153.00,4425.1843,N,12425.6957,W,1,09,1.0,29.7,M,-22.5,M,,*66
2021-09-03T21:41:55.6313330Z, 6cda8203-a249-e411-b0cc-f8bc1246af59, $GPGGA,214154.00,4425.1839,N,12425.6997,W,1,09,1.0,29.0,M,-22.5,M,,*67
2021-09-03T21:41:57.0909690Z, 6cda8203-a249-e411-b0cc-f8bc1246af59, $GPGGA,214156.00,4425.1828,N,12425.7074,W,1,09,1.0,29.5,M,-22.5,M,,*65
2021-09-03T21:41:58.6312360Z, 6cda8203-a249-e411-b0cc-f8bc1246af59, $GPGGA,214157.00,4425.1824,N,12425.7114,W,1,09,1.0,29.6,M,-22.5,M,,*6C
2021-09-03T21:42:00.0909332Z, 6cda8203-a249-e411-b0cc-f8bc1246af59, $GPGGA,214159.00,4425.1818,N,12425.7194,W,1,09,1.0,31.1,M,-22.5,M,,*6B
2021-09-03T21:42:01.6311504Z, 6cda8203-a249-e411-b0cc-f8bc1246af59, $GPGGA,214200.00,4425.1812,N,12425.7232,W,1,09,1.0,31.5,M,-22.5,M,,*65
2021-09-03T21:42:03.0917553Z, 6cda8203-a249-e411-b0cc-f8bc1246af59, $GPGGA,214202.00,4425.1800,N,12425.7311,W,1,09,1.0,29.4,M,-22.5,M,,*6C
2021-09-03T21:42:04.6309425Z, 6cda8203-a249-e411-b0cc-f8bc1246af59, $GPGGA,214203.00,4425.1799,N,12425.7351,W,1,09,1.0,29.1,M,-22.5,M,,*63
2021-09-03T21:42:06.0915474Z, 6cda8203-a249-e411-b0cc-f8bc1246af59, $GPGGA,214205.00,4425.1793,N,12425.7431,W,1,09,1.0,30.1,M,-22.5,M,,*66
2021-09-03T21:42:07.6318119Z, 6cda8203-a249-e411-b0cc-f8bc1246af59, $GPGGA,214206.00,4425.1788,N,12425.7471,W,1,09,1.0,28.3,M,-22.5,M,,*60
2021-09-03T21:42:09.0914630Z, 6cda8203-a249-e411-b0cc-f8bc1246af59, $GPGGA,214208.00,4425.1779,N,12425.7550,W,1,09,1.0,28.3,M,-22.5,M,,*62
2021-09-03T21:42:10.6317168Z, 6cda8203-a249-e411-b0cc-f8bc1246af59, $GPGGA,214209.00,4425.1776,N,12425.7590,W,1,09,1.0,31.0,M,-22.5,M,,*6B
2021-09-03T21:42:11.5716216Z, 6cda8203-a249-e411-b0cc-f8bc1246af59, $GPGGA,214210.00,4425.1773,N,12425.7631,W,1,09,1.0,31.2,M,-22.5,M,,*6C
2021-09-03T21:42:12.5812160Z, 6cda8203-a249-e411-b0cc-f8bc1246af59, $GPGGA,214211.00,4425.1768,N,12425.7671,W,1,09,1.0,28.9,M,-22.5,M,,*60
2021-09-03T21:42:13.6316267Z, 6cda8203-a249-e411-b0cc-f8bc1246af59, $GPGGA,214212.00,4425.1761,N,12425.7710,W,1,09,1.0,27.6,M,-22.5,M,,*6C
2021-09-03T21:42:14.6919660Z, 6cda8203-a249-e411-b0cc-f8bc1246af59, $GPGGA,214213.00,4425.1756,N,12425.7749,W,1,09,1.0,27.8,M,-22.5,M,,*6B
2021-09-03T21:42:15.9714589Z, 6cda8203-a249-e411-b0cc-f8bc1246af59, $GPGGA,214214.00,4425.1753,N,12425.7789,W,1,09,1.0,28.5,M,-22.5,M,,*67
2021-09-03T21:42:17.4321964Z, 6cda8203-a249-e411-b0cc-f8bc1246af59, $GPGGA,214216.00,4425.1743,N,12425.7870,W,1,09,1.0,25.3,M,-22.5,M,,*66
2021-09-03T21:42:18.7614401Z, 6cda8203-a249-e411-b0cc-f8bc1246af59, $GPGGA,214217.00,4425.1737,N,12425.7908,W,1,09,1.0,26.7,M,-22.5,M,,*6D
2021-09-03T21:42:20.2015693Z, 6cda8203-a249-e411-b0cc-f8bc1246af59, $GPGGA,214219.00,4425.1729,N,12425.7985,W,1,09,1.0,29.5,M,-22.5,M,,*64
2021-09-03T21:42:21.6322926Z, 6cda8203-a249-e411-b0cc-f8bc1246af59, $GPGGA,214220.00,4425.1725,N,12425.8026,W,1,09,1.0,30.3,M,-22.5,M,,*63
2021-09-03T21:42:23.2016303Z, 6cda8203-a249-e411-b0cc-f8bc1246af59, $GPGGA,214222.00,4425.1715,N,12425.8107,W,1,09,1.0,29.8,M,-22.5,M,,*63
2021-09-03T21:42:24.6323735Z, 6cda8203-a249-e411-b0cc-f8bc1246af59, $GPGGA,214223.00,4425.1709,N,12425.8145,W,1,09,1.0,29.5,M,-22.5,M,,*64
2021-09-03T21:42:26.2025100Z, 6cda8203-a249-e411-b0cc-f8bc1246af59, $GPGGA,214225.00,4425.1703,N,12425.8223,W,1,09,1.0,27.2,M,-22.5,M,,*62
2021-09-03T21:42:27.6322737Z, 6cda8203-a249-e411-b0cc-f8bc1246af59, $GPGGA,214226.00,4425.1701,N,12425.8264,W,1,09,1.0,29.2,M,-22.5,M,,*6E
2021-09-03T21:42:29.2027279Z, 6cda8203-a249-e411-b0cc-f8bc1246af59, $GPGGA,214228.00,4425.1691,N,12425.8345,W,1,09,1.0,28.7,M,-22.5,M,,*6E
2021-09-03T21:42:30.6324858Z, 6cda8203-a249-e411-b0cc-f8bc1246af59, $GPGGA,214229.00,4425.1684,N,12425.8382,W,1,09,1.0,29.9,M,-22.5,M,,*6F
2021-09-03T21:42:32.2070792Z, 6cda8203-a249-e411-b0cc-f8bc1246af59, $GPGGA,214231.00,4425.1674,N,12425.8458,W,1,09,1.0,28.8,M,-22.5,M,,*69
2021-09-03T21:42:33.6326377Z, 6cda8203-a249-e411-b0cc-f8bc1246af59, $GPGGA,214232.00,4425.1671,N,12425.8498,W,1,09,1.0,28.8,M,-22.5,M,,*63
2021-09-03T21:42:35.0922751Z, 6cda8203-a249-e411-b0cc-f8bc1246af59, $GPGGA,214234.00,4425.1662,N,12425.8576,W,1,09,1.0,29.3,M,-22.5,M,,*6C
2021-09-03T21:42:36.6325445Z, 6cda8203-a249-e411-b0cc-f8bc1246af59, $GPGGA,214235.00,4425.1655,N,12425.8613,W,1,09,1.0,30.6,M,-22.5,M,,*64
2021-09-03T21:42:38.0921819Z, 6cda8203-a249-e411-b0cc-f8bc1246af59, $GPGGA,214237.00,4425.1642,N,12425.8689,W,1,09,1.0,27.8,M,-22.5,M,,*6B
2021-09-03T21:42:39.6324600Z, 6cda8203-a249-e411-b0cc-f8bc1246af59, $GPGGA,214238.00,4425.1636,N,12425.8729,W,1,09,1.0,30.1,M,-22.5,M,,*63
2021-09-03T21:42:41.0930716Z, 6cda8203-a249-e411-b0cc-f8bc1246af59, $GPGGA,214240.00,4425.1625,N,12425.8805,W,1,09,1.0,31.5,M,-22.5,M,,*6A
2021-09-03T21:42:42.6323585Z, 6cda8203-a249-e411-b0cc-f8bc1246af59, $GPGGA,214241.00,4425.1621,N,12425.8844,W,1,09,1.0,27.4,M,-22.5,M,,*6C
2021-09-03T21:42:44.0929646Z, 6cda8203-a249-e411-b0cc-f8bc1246af59, $GPGGA,214243.00,4425.1609,N,12425.8923,W,1,09,1.0,29.6,M,-22.5,M,,*68
2021-09-03T21:42:45.6332298Z, 6cda8203-a249-e411-b0cc-f8bc1246af59, $GPGGA,214244.00,4425.1602,N,12425.8962,W,1,09,1.0,28.2,M,-22.5,M,,*64
2021-09-03T21:42:47.0928667Z, 6cda8203-a249-e411-b0cc-f8bc1246af59, $GPGGA,214246.00,4425.1590,N,12425.9037,W,1,09,1.0,30.6,M,-22.5,M,,*6B
2021-09-03T21:42:48.6331440Z, 6cda8203-a249-e411-b0cc-f8bc1246af59, $GPGGA,214247.00,4425.1583,N,12425.9074,W,1,09,1.0,31.3,M,-22.5,M,,*6B
2021-09-03T21:42:50.0927787Z, 6cda8203-a249-e411-b0cc-f8bc1246af59, $GPGGA,214249.00,4425.1572,N,12425.9151,W,1,09,1.0,34.2,M,-22.5,M,,*69
2021-09-03T21:42:51.6334569Z, 6cda8203-a249-e411-b0cc-f8bc1246af59, $GPGGA,214250.00,4425.1565,N,12425.9189,W,1,09,1.0,34.6,M,-22.5,M,,*66
2021-09-03T21:42:53.0931076Z, 6cda8203-a249-e411-b0cc-f8bc1246af59, $GPGGA,214252.00,4425.1554,N,12425.9267,W,1,09,1.0,30.6,M,-22.5,M,,*61
2021-09-03T21:42:54.6333537Z, 6cda8203-a249-e411-b0cc-f8bc1246af59, $GPGGA,214253.00,4425.1549,N,12425.9307,W,1,09,1.0,29.8,M,-22.5,M,,*6D
2021-09-03T21:42:56.0931244Z, 6cda8203-a249-e411-b0cc-f8bc1246af59, $GPGGA,214255.00,4425.1537,N,12425.9384,W,1,09,1.0,29.9,M,-22.5,M,,*68
2021-09-03T21:42:57.6333979Z, 6cda8203-a249-e411-b0cc-f8bc1246af59, $GPGGA,214256.00,4425.1531,N,12425.9424,W,1,09,1.0,31.2,M,-22.5,M,,*62
2021-09-03T21:42:59.0930396Z, 6cda8203-a249-e411-b0cc-f8bc1246af59, $GPGGA,214258.00,4425.1519,N,12425.9502,W,1,09,1.0,27.3,M,-22.5,M,,*65
2021-09-03T21:43:00.6333017Z, 6cda8203-a249-e411-b0cc-f8bc1246af59, $GPGGA,214259.00,4425.1514,N,12425.9540,W,1,09,1.0,27.8,M,-22.5,M,,*64
2021-09-03T21:43:02.0939040Z, 6cda8203-a249-e411-b0cc-f8bc1246af59, $GPGGA,214301.00,4425.1505,N,12425.9618,W,1,09,1.0,28.3,M,-22.5,M,,*62
2021-09-03T21:43:03.6331866Z, 6cda8203-a249-e411-b0cc-f8bc1246af59, $GPGGA,214302.00,4425.1499,N,12425.9659,W,1,09,1.0,27.6,M,-22.5,M,,*6A
2021-09-03T21:43:05.0937932Z, 6cda8203-a249-e411-b0cc-f8bc1246af59, $GPGGA,214304.00,4425.1488,N,12425.9737,W,1,09,1.0,28.7,M,-22.5,M,,*6B
2021-09-03T21:43:06.6340696Z, 6cda8203-a249-e411-b0cc-f8bc1246af59, $GPGGA,214305.00,4425.1485,N,12425.9776,W,1,09,1.0,26.5,M,-22.5,M,,*6E
2021-09-03T21:43:08.0937607Z, 6cda8203-a249-e411-b0cc-f8bc1246af59, $GPGGA,214307.00,4425.1478,N,12425.9857,W,1,09,1.0,28.8,M,-22.5,M,,*61
2021-09-03T21:43:09.6340195Z, 6cda8203-a249-e411-b0cc-f8bc1246af59, $GPGGA,214308.00,4425.1473,N,12425.9897,W,1,09,1.0,28.9,M,-22.5,M,,*68
2021-09-03T21:43:11.0936656Z, 6cda8203-a249-e411-b0cc-f8bc1246af59, $GPGGA,214310.00,4425.1463,N,12425.9977,W,1,09,1.0,27.5,M,-22.5,M,,*6C
2021-09-03T21:43:12.6339354Z, 6cda8203-a249-e411-b0cc-f8bc1246af59, $GPGGA,214311.00,4425.1457,N,12426.0018,W,1,09,1.0,26.8,M,-22.5,M,,*6C
2021-09-03T21:43:14.0935652Z, 6cda8203-a249-e411-b0cc-f8bc1246af59, $GPGGA,214313.00,4425.1445,N,12426.0097,W,1,09,1.0,28.5,M,-22.5,M,,*69
2021-09-03T21:43:15.6338378Z, 6cda8203-a249-e411-b0cc-f8bc1246af59, $GPGGA,214314.00,4425.1440,N,12426.0136,W,1,09,1.0,26.8,M,-22.5,M,,*62
2021-09-03T21:43:17.0944450Z, 6cda8203-a249-e411-b0cc-f8bc1246af59, $GPGGA,214316.00,4425.1431,N,12426.0219,W,1,09,1.0,26.4,M,-22.5,M,,*64
2021-09-03T21:43:18.6348367Z, 6cda8203-a249-e411-b0cc-f8bc1246af59, $GPGGA,214317.00,4425.1427,N,12426.0260,W,1,09,1.0,26.0,M,-22.5,M,,*68
2021-09-03T21:43:20.0943542Z, 6cda8203-a249-e411-b0cc-f8bc1246af59, $GPGGA,214319.00,4425.1415,N,12426.0340,W,1,09,1.0,23.3,M,-22.5,M,,*62
2021-09-03T21:43:21.6346082Z, 6cda8203-a249-e411-b0cc-f8bc1246af59, $GPGGA,214320.00,4425.1410,N,12426.0382,W,1,09,1.0,23.3,M,-22.5,M,,*63
2021-09-03T21:43:23.0942428Z, 6cda8203-a249-e411-b0cc-f8bc1246af59, $GPGGA,214322.00,4425.1401,N,12426.0465,W,1,09,1.0,25.7,M,-22.5,M,,*6D
2021-09-03T21:43:24.6345161Z, 6cda8203-a249-e411-b0cc-f8bc1246af59, $GPGGA,214323.00,4425.1395,N,12426.0505,W,1,09,1.0,25.7,M,-22.5,M,,*61
2021-09-03T21:43:26.0941483Z, 6cda8203-a249-e411-b0cc-f8bc1246af59, $GPGGA,214325.00,4425.1385,N,12426.0584,W,1,09,1.0,25.0,M,-22.5,M,,*68
2021-09-03T21:43:27.6344192Z, 6cda8203-a249-e411-b0cc-f8bc1246af59, $GPGGA,214326.00,4425.1380,N,12426.0623,W,1,09,1.0,24.8,M,-22.5,M,,*69
2021-09-03T21:43:29.0950193Z, 6cda8203-a249-e411-b0cc-f8bc1246af59, $GPGGA,214328.00,4425.1371,N,12426.0704,W,1,09,1.0,24.7,M,-22.5,M,,*62
2021-09-03T21:43:30.6343385Z, 6cda8203-a249-e411-b0cc-f8bc1246af59, $GPGGA,214329.00,4425.1367,N,12426.0743,W,1,09,1.0,25.1,M,-22.5,M,,*60
2021-09-03T21:43:32.0949291Z, 6cda8203-a249-e411-b0cc-f8bc1246af59, $GPGGA,214331.00,4425.1354,N,12426.0824,W,1,09,1.0,29.0,M,-22.5,M,,*6A
2021-09-03T21:43:33.6351941Z, 6cda8203-a249-e411-b0cc-f8bc1246af59, $GPGGA,214332.00,4425.1348,N,12426.0865,W,1,09,1.0,31.3,M,-22.5,M,,*6B
2021-09-03T21:43:35.0948488Z, 6cda8203-a249-e411-b0cc-f8bc1246af59, $GPGGA,214334.00,4425.1340,N,12426.0947,W,1,09,1.0,25.8,M,-22.5,M,,*6A
2021-09-03T21:43:36.6351132Z, 6cda8203-a249-e411-b0cc-f8bc1246af59, $GPGGA,214335.00,4425.1335,N,12426.0987,W,1,09,1.0,25.5,M,-22.5,M,,*68
