ACQ Timestamp (Server Time in UTC), MessageID, Data Value For: GNSS-6452-$GPGGA
2021-07-19 00:00:00Z, 6cda8203-a249-e411-b0cc-f8bc1246af59, $GPGGA,235959.00,4437.5896,N,12402.8825,W,1,08,1.0,23.6,M,-21.8,M,,*63
2021-07-19 00:00:01Z, 6cda8203-a249-e411-b0cc-f8bc1246af59, $GPGGA,000000.00,4437.5898,N,12402.8825,W,1,08,1.0,23.5,M,-21.8,M,,*6F
2021-07-19 00:00:03Z, 6cda8203-a249-e411-b0cc-f8bc1246af59, $GPGGA,000002.00,4437.5898,N,12402.8827,W,1,08,1.0,23.6,M,-21.8,M,,*6C
2021-07-19 00:00:04Z, 6cda8203-a249-e411-b0cc-f8bc1246af59, $GPGGA,000003.00,4437.5897,N,12402.8827,W,1,08,1.0,23.6,M,-21.8,M,,*62
2021-07-19 00:00:05Z, 6cda8203-a249-e411-b0cc-f8bc1246af59, $GPGGA,000004.00,4437.5897,N,12402.8827,W,1,08,1.0,23.6,M,-21.8,M,,*65
2021-07-19 00:00:06Z, 6cda8203-a249-e411-b0cc-f8bc1246af59, $GPGGA,000005.00,4437.5897,N,12402.8827,W,1,08,1.0,23.6,M,-21.8,M,,*64
2021-07-19 00:00:07Z, 6cda8203-a249-e411-b0cc-f8bc1246af59, $GPGGA,000006.00,4437.5896,N,12402.8827,W,1,08,1.0,23.6,M,-21.8,M,,*66
2021-07-19 00:00:09Z, 6cda8203-a249-e411-b0cc-f8bc1246af59, $GPGGA,000008.00,4437.5896,N,12402.8827,W,1,08,1.0,23.7,M,-21.8,M,,*69
2021-07-19 00:00:10Z, 6cda8203-a249-e411-b0cc-f8bc1246af59, $GPGGA,000009.00,4437.5895,N,12402.8827,W,1,08,1.0,23.5,M,-21.8,M,,*69
2021-07-19 00:00:12Z, 6cda8203-a249-e411-b0cc-f8bc1246af59, $GPGGA,000011.00,4437.5896,N,12402.8823,W,1,08,1.0,23.2,M,-21.8,M,,*60
2021-07-19 00:00:13Z, 6cda8203-a249-e411-b0cc-f8bc1246af59, $GPGGA,000012.00,4437.5898,N,12402.8822,W,1,08,1.0,23.3,M,-21.8,M,,*6D
2021-07-19 00:00:15Z, 6cda8203-a249-e411-b0cc-f8bc1246af59, $GPGGA,000014.00,4437.5901,N,12402.8824,W,1,08,1.0,23.4,M,-21.8,M,,*6B
2021-07-19 00:00:16Z, 6cda8203-a249-e411-b0cc-f8bc1246af59, $GPGGA,000015.00,4437.5902,N,12402.8823,W,1,08,1.0,23.6,M,-21.8,M,,*6C
2021-07-19 00:00:18Z, 6cda8203-a249-e411-b0cc-f8bc1246af59, $GPGGA,000017.00,4437.5903,N,12402.8826,W,1,08,1.0,24.0,M,-21.8,M,,*6B
2021-07-19 00:00:19Z, 6cda8203-a249-e411-b0cc-f8bc1246af59, $GPGGA,000018.00,4437.5903,N,12402.8826,W,1,08,1.0,24.0,M,-21.8,M,,*64
2021-07-19 00:00:21Z, 6cda8203-a249-e411-b0cc-f8bc1246af59, $GPGGA,000020.00,4437.5904,N,12402.8827,W,1,08,1.0,23.9,M,-21.8,M,,*67
2021-07-19 00:00:22Z, 6cda8203-a249-e411-b0cc-f8bc1246af59, $GPGGA,000021.00,4437.5904,N,12402.8826,W,1,08,1.0,24.0,M,-21.8,M,,*69
2021-07-19 00:00:23Z, 6cda8203-a249-e411-b0cc-f8bc1246af59, $GPGGA,000022.00,4437.5905,N,12402.8826,W,1,08,1.0,24.0,M,-21.8,M,,*6B
2021-07-19 00:00:24Z, 6cda8203-a249-e411-b0cc-f8bc1246af59, $GPGGA,000023.00,4437.5904,N,12402.8829,W,1,08,1.0,24.0,M,-21.8,M,,*64
2021-07-19 00:00:26Z, 6cda8203-a249-e411-b0cc-f8bc1246af59, $GPGGA,000025.00,4437.5900,N,12402.8833,W,1,08,1.0,24.1,M,-21.8,M,,*6C
2021-07-19 00:00:27Z, 6cda8203-a249-e411-b0cc-f8bc1246af59, $GPGGA,000026.00,4437.5900,N,12402.8834,W,1,08,1.0,24.2,M,-21.8,M,,*6B
2021-07-19 00:00:29Z, 6cda8203-a249-e411-b0cc-f8bc1246af59, $GPGGA,000028.00,4437.5898,N,12402.8837,W,1,08,1.0,24.3,M,-21.8,M,,*67
2021-07-19 00:00:30Z, 6cda8203-a249-e411-b0cc-f8bc1246af59, $GPGGA,000029.00,4437.5897,N,12402.8837,W,1,08,1.0,24.5,M,-21.8,M,,*6F
2021-07-19 00:00:32Z, 6cda8203-a249-e411-b0cc-f8bc1246af59, $GPGGA,000031.00,4437.5895,N,12402.8840,W,1,08,1.0,24.7,M,-21.8,M,,*66
2021-07-19 00:00:33Z, 6cda8203-a249-e411-b0cc-f8bc1246af59, $GPGGA,000032.00,4437.5895,N,12402.8843,W,1,08,1.0,24.8,M,-21.8,M,,*69
2021-07-19 00:00:35Z, 6cda8203-a249-e411-b0cc-f8bc1246af59, $GPGGA,000034.00,4437.5893,N,12402.8841,W,1,08,1.0,25.0,M,-21.8,M,,*62
2021-07-19 00:00:36Z, 6cda8203-a249-e411-b0cc-f8bc1246af59, $GPGGA,000035.00,4437.5893,N,12402.8843,W,1,08,1.0,25.0,M,-21.8,M,,*61
2021-07-19 00:00:38Z, 6cda8203-a249-e411-b0cc-f8bc1246af59, $GPGGA,000037.00,4437.5893,N,12402.8843,W,1,08,1.0,25.2,M,-21.8,M,,*61
2021-07-19 00:00:39Z, 6cda8203-a249-e411-b0cc-f8bc1246af59, $GPGGA,000038.00,4437.5892,N,12402.8843,W,1,08,1.0,25.3,M,-21.8,M,,*6E
2021-07-19 00:00:40Z, 6cda8203-a249-e411-b0cc-f8bc1246af59, $GPGGA,000039.00,4437.5892,N,12402.8842,W,1,08,1.0,25.4,M,-21.8,M,,*69
2021-07-19 00:00:41Z, 6cda8203-a249-e411-b0cc-f8bc1246af59, $GPGGA,000040.00,4437.5890,N,12402.8841,W,1,08,1.0,25.5,M,-21.8,M,,*67
2021-07-19 00:00:42Z, 6cda8203-a249-e411-b0cc-f8bc1246af59, $GPGGA,000041.00,4437.5891,N,12402.8840,W,1,08,1.0,25.7,M,-21.8,M,,*64
2021-07-19 00:00:44Z, 6cda8203-a249-e411-b0cc-f8bc1246af59, $GPGGA,000043.00,4437.5892,N,12402.8842,W,1,08,1.0,26.0,M,-21.8,M,,*63
2021-07-19 00:00:45Z, 6cda8203-a249-e411-b0cc-f8bc1246af59, $GPGGA,000044.00,4437.5893,N,12402.8843,W,1,08,1.0,26.0,M,-21.8,M,,*64
2021-07-19 00:00:47Z, 6cda8203-a249-e411-b0cc-f8bc1246af59, $GPGGA,000046.00,4437.5897,N,12402.8844,W,1,08,1.0,26.0,M,-21.8,M,,*65
2021-07-19 00:00:48Z, 6cda8203-a249-e411-b0cc-f8bc1246af59, $GPGGA,000047.00,4437.5898,N,12402.8845,W,1,08,1.0,26.1,M,-21.8,M,,*6B
2021-07-19 00:00:49Z, 6cda8203-a249-e411-b0cc-f8bc1246af59, $GPGGA,000048.00,4437.5897,N,12402.8845,W,1,08,1.0,26.2,M,-21.8,M,,*68
2021-07-19 00:00:50Z, 6cda8203-a249-e411-b0cc-f8bc1246af59, $GPGGA,000049.00,4437.5893,N,12402.8848,W,1,08,1.0,26.2,M,-21.8,M,,*60
2021-07-19 00:00:51Z, 6cda8203-a249-e411-b0cc-f8bc1246af59, $GPGGA,000050.00,4437.5892,N,12402.8848,W,1,08,1.0,26.3,M,-21.8,M,,*68
2021-07-19 00:00:53Z, 6cda8203-a249-e411-b0cc-f8bc1246af59, $GPGGA,000052.00,4437.5892,N,12402.8851,W,1,08,1.0,26.5,M,-21.8,M,,*64
2021-07-19 00:00:54Z, 6cda8203-a249-e411-b0cc-f8bc1246af59, $GPGGA,000053.00,4437.5892,N,12402.8850,W,1,08,1.0,26.7,M,-21.8,M,,*66
2021-07-19 00:00:55Z, 6cda8203-a249-e411-b0cc-f8bc1246af59, $GPGGA,000054.00,4437.5892,N,12402.8850,W,1,08,1.0,26.7,M,-21.8,M,,*61
2021-07-19 00:00:56Z, 6cda8203-a249-e411-b0cc-f8bc1246af59, $GPGGA,000055.00,4437.5892,N,12402.8851,W,1,08,1.0,26.8,M,-21.8,M,,*6E
2021-07-19 00:00:58Z, 6cda8203-a249-e411-b0cc-f8bc1246af59, $GPGGA,000057.00,4437.5895,N,12402.8852,W,1,08,1.0,27.1,M,-21.8,M,,*60
2021-07-19 00:00:59Z, 6cda8203-a249-e411-b0cc-f8bc1246af59, $GPGGA,000058.00,4437.5894,N,12402.8853,W,1,08,1.0,27.2,M,-21.8,M,,*6C
2021-07-19 00:01:01Z, 6cda8203-a249-e411-b0cc-f8bc1246af59, $GPGGA,000100.00,4437.5892,N,12402.8855,W,1,08,1.0,27.3,M,-21.8,M,,*61
2021-07-19 00:01:02Z, 6cda8203-a249-e411-b0cc-f8bc1246af59, $GPGGA,000101.00,4437.5892,N,12402.8855,W,1,08,1.0,27.2,M,-21.8,M,,*61
2021-07-19 00:01:04Z, 6cda8203-a249-e411-b0cc-f8bc1246af59, $GPGGA,000103.00,4437.5892,N,12402.8858,W,1,08,1.0,27.2,M,-21.8,M,,*6E
2021-07-19 00:01:05Z, 6cda8203-a249-e411-b0cc-f8bc1246af59, $GPGGA,000104.00,4437.5892,N,12402.8859,W,1,08,1.0,27.1,M,-21.8,M,,*6B
2021-07-19 00:01:07Z, 6cda8203-a249-e411-b0cc-f8bc1246af59, $GPGGA,000106.00,4437.5890,N,12402.8863,W,1,08,1.0,27.1,M,-21.8,M,,*62
2021-07-19 00:01:08Z, 6cda8203-a249-e411-b0cc-f8bc1246af59, $GPGGA,000107.00,4437.5889,N,12402.8862,W,1,08,1.0,27.1,M,-21.8,M,,*6A
2021-07-19 00:01:09Z, 6cda8203-a249-e411-b0cc-f8bc1246af59, $GPGGA,000108.00,4437.5884,N,12402.8859,W,1,08,1.0,27.2,M,-21.8,M,,*63
2021-07-19 00:01:10Z, 6cda8203-a249-e411-b0cc-f8bc1246af59, $GPGGA,000109.00,4437.5883,N,12402.8859,W,1,07,1.0,27.2,M,-21.8,M,,*6A
2021-07-19 00:01:12Z, 6cda8203-a249-e411-b0cc-f8bc1246af59, $GPGGA,000111.00,4437.5877,N,12402.8860,W,1,08,1.0,27.3,M,-21.8,M,,*6C
2021-07-19 00:01:13Z, 6cda8203-a249-e411-b0cc-f8bc1246af59, $GPGGA,000112.00,4437.5875,N,12402.8862,W,1,07,1.0,27.1,M,-21.8,M,,*62
2021-07-19 00:01:14Z, 6cda8203-a249-e411-b0cc-f8bc1246af59, $GPGGA,000113.00,4437.5873,N,12402.8864,W,1,08,1.0,26.9,M,-21.8,M,,*65
2021-07-19 00:01:15Z, 6cda8203-a249-e411-b0cc-f8bc1246af59, $GPGGA,000114.00,4437.5867,N,12402.8869,W,1,08,1.0,26.8,M,-21.8,M,,*6B
2021-07-19 00:01:17Z, 6cda8203-a249-e411-b0cc-f8bc1246af59, $GPGGA,000116.00,4437.5863,N,12402.8876,W,1,07,1.0,26.4,M,-21.8,M,,*60
2021-07-19 00:01:18Z, 6cda8203-a249-e411-b0cc-f8bc1246af59, $GPGGA,000117.00,4437.5860,N,12402.8874,W,1,07,1.0,26.4,M,-21.8,M,,*60
2021-07-19 00:01:19Z, 6cda8203-a249-e411-b0cc-f8bc1246af59, $GPGGA,000118.00,4437.5858,N,12402.8874,W,1,08,1.0,26.4,M,-21.8,M,,*6B
2021-07-19 00:01:20Z, 6cda8203-a249-e411-b0cc-f8bc1246af59, $GPGGA,000119.00,4437.5856,N,12402.8875,W,1,08,1.0,26.3,M,-21.8,M,,*62
2021-07-19 00:01:22Z, 6cda8203-a249-e411-b0cc-f8bc1246af59, $GPGGA,000121.00,4437.5855,N,12402.8874,W,1,08,1.0,26.1,M,-21.8,M,,*69
2021-07-19 00:01:23Z, 6cda8203-a249-e411-b0cc-f8bc1246af59, $GPGGA,000122.00,4437.5854,N,12402.8874,W,1,08,1.0,26.1,M,-21.8,M,,*6B
2021-07-19 00:01:24Z, 6cda8203-a249-e411-b0cc-f8bc1246af59, $GPGGA,000123.00,4437.5853,N,12402.8874,W,1,07,1.0,26.1,M,-21.8,M,,*62
2021-07-19 00:01:25Z, 6cda8203-a249-e411-b0cc-f8bc1246af59, $GPGGA,000124.00,4437.5852,N,12402.8874,W,1,08,1.0,26.0,M,-21.8,M,,*6A
2021-07-19 00:01:26Z, 6cda8203-a249-e411-b0cc-f8bc1246af59, $GPGGA,000125.00,4437.5850,N,12402.8876,W,1,08,1.0,25.8,M,-21.8,M,,*60
2021-07-19 00:01:27Z, 6cda8203-a249-e411-b0cc-f8bc1246af59, $GPGGA,000126.00,4437.5847,N,12402.8878,W,1,08,1.0,25.6,M,-21.8,M,,*65
2021-07-19 00:01:28Z, 6cda8203-a249-e411-b0cc-f8bc1246af59, $GPGGA,000127.00,4437.5846,N,12402.8879,W,1,07,1.0,25.5,M,-21.8,M,,*68
2021-07-19 00:01:30Z, 6cda8203-a249-e411-b0cc-f8bc1246af59, $GPGGA,000129.00,4437.5845,N,12402.8881,W,1,08,1.0,25.3,M,-21.8,M,,*6B
2021-07-19 00:01:31Z, 6cda8203-a249-e411-b0cc-f8bc1246af59, $GPGGA,000130.00,4437.5844,N,12402.8880,W,1,08,1.0,25.2,M,-21.8,M,,*62
2021-07-19 00:01:33Z, 6cda8203-a249-e411-b0cc-f8bc1246af59, $GPGGA,000132.00,4437.5843,N,12402.8878,W,1,08,1.0,25.1,M,-21.8,M,,*63
2021-07-19 00:01:34Z, 6cda8203-a249-e411-b0cc-f8bc1246af59, $GPGGA,000133.00,4437.5842,N,12402.8876,W,1,08,1.0,25.2,M,-21.8,M,,*6E
2021-07-19 00:01:36Z, 6cda8203-a249-e411-b0cc-f8bc1246af59, $GPGGA,000135.00,4437.5844,N,12402.8874,W,1,08,1.0,25.2,M,-21.8,M,,*6C
2021-07-19 00:01:37Z, 6cda8203-a249-e411-b0cc-f8bc1246af59, $GPGGA,000136.00,4437.5843,N,12402.8873,W,1,08,1.0,25.2,M,-21.8,M,,*6F
2021-07-19 00:01:39Z, 6cda8203-a249-e411-b0cc-f8bc1246af59, $GPGGA,000138.00,4437.5845,N,12402.8872,W,1,08,1.0,25.3,M,-21.8,M,,*67
2021-07-19 00:01:40Z, 6cda8203-a249-e411-b0cc-f8bc1246af59, $GPGGA,000139.00,4437.5845,N,12402.8873,W,1,08,1.0,25.3,M,-21.8,M,,*67
2021-07-19 00:01:42Z, 6cda8203-a249-e411-b0cc-f8bc1246af59, $GPGGA,000141.00,4437.5844,N,12402.8874,W,1,08,1.0,25.2,M,-21.8,M,,*6F
2021-07-19 00:01:43Z, 6cda8203-a249-e411-b0cc-f8bc1246af59, $GPGGA,000142.00,4437.5845,N,12402.8875,W,1,08,1.0,25.2,M,-21.8,M,,*6C
2021-07-19 00:01:45Z, 6cda8203-a249-e411-b0cc-f8bc1246af59, $GPGGA,000144.00,4437.5846,N,12402.8876,W,1,08,1.0,25.3,M,-21.8,M,,*6B
2021-07-19 00:01:46Z, 6cda8203-a249-e411-b0cc-f8bc1246af59, $GPGGA,000145.00,4437.5846,N,12402.8875,W,1,08,1.0,25.3,M,-21.8,M,,*69
2021-07-19 00:01:48Z, 6cda8203-a249-e411-b0cc-f8bc1246af59, $GPGGA,000147.00,4437.5846,N,12402.8872,W,1,08,1.0,25.5,M,-21.8,M,,*6A
2021-07-19 00:01:49Z, 6cda8203-a249-e411-b0cc-f8bc1246af59, $GPGGA,000148.00,4437.5845,N,12402.8871,W,1,08,1.0,25.5,M,-21.8,M,,*65
2021-07-19 00:01:51Z, 6cda8203-a249-e411-b0cc-f8bc1246af59, $GPGGA,000150.00,4437.5844,N,12402.8869,W,1,08,1.0,25.6,M,-21.8,M,,*67
2021-07-19 00:01:52Z, 6cda8203-a249-e411-b0cc-f8bc1246af59, $GPGGA,000151.00,4437.5844,N,12402.8868,W,1,08,1.0,25.5,M,-21.8,M,,*64
2021-07-19 00:01:54Z, 6cda8203-a249-e411-b0cc-f8bc1246af59, $GPGGA,000153.00,4437.5845,N,12402.8867,W,1,08,1.0,25.3,M,-21.8,M,,*6E
2021-07-19 00:01:55Z, 6cda8203-a249-e411-b0cc-f8bc1246af59, $GPGGA,000154.00,4437.5846,N,12402.8869,W,1,08,1.0,25.3,M,-21.8,M,,*64
2021-07-19 00:01:57Z, 6cda8203-a249-e411-b0cc-f8bc1246af59, $GPGGA,000156.00,4437.5848,N,12402.8870,W,1,08,1.0,25.2,M,-21.8,M,,*61
2021-07-19 00:01:58Z, 6cda8203-a249-e411-b0cc-f8bc1246af59, $GPGGA,000157.00,4437.5847,N,12402.8869,W,1,08,1.0,25.2,M,-21.8,M,,*67
2021-07-19 00:02:00Z, 6cda8203-a249-e411-b0cc-f8bc1246af59, $GPGGA,000159.00,4437.5847,N,12402.8866,W,1,08,1.0,25.3,M,-21.8,M,,*67
2021-07-19 00:02:01Z, 6cda8203-a249-e411-b0cc-f8bc1246af59, $GPGGA,000200.00,4437.5846,N,12402.8865,W,1,08,1.0,25.3,M,-21.8,M,,*6A
2021-07-19 00:02:03Z, 6cda8203-a249-e411-b0cc-f8bc1246af59, $GPGGA,000202.00,4437.5846,N,12402.8865,W,1,08,1.0,25.4,M,-21.8,M,,*6F
2021-07-19 00:02:04Z, 6cda8203-a249-e411-b0cc-f8bc1246af59, $GPGGA,000203.00,4437.5848,N,12402.8865,W,1,08,1.0,25.4,M,-21.8,M,,*60
2021-07-19 00:02:06Z, 6cda8203-a249-e411-b0cc-f8bc1246af59, $GPGGA,000205.00,4437.5853,N,12402.8867,W,1,08,1.0,25.3,M,-21.8,M,,*69
2021-07-19 00:02:07Z, 6cda8203-a249-e411-b0cc-f8bc1246af59, $GPGGA,000206.00,4437.5853,N,12402.8866,W,1,08,1.0,25.2,M,-21.8,M,,*6A
2021-07-19 00:02:09Z, 6cda8203-a249-e411-b0cc-f8bc1246af59, $GPGGA,000208.00,4437.5852,N,12402.8863,W,1,08,1.0,25.0,M,-21.8,M,,*62
2021-07-19 00:02:10Z, 6cda8203-a249-e411-b0cc-f8bc1246af59, $GPGGA,000209.00,4437.5852,N,12402.8864,W,1,08,1.0,24.9,M,-21.8,M,,*6C
2021-07-19 00:02:12Z, 6cda8203-a249-e411-b0cc-f8bc1246af59, $GPGGA,000211.00,4437.5853,N,12402.8860,W,1,08,1.0,24.7,M,-21.8,M,,*6E
2021-07-19 00:02:13Z, 6cda8203-a249-e411-b0cc-f8bc1246af59, $GPGGA,000212.00,4437.5851,N,12402.8857,W,1,08,1.0,24.5,M,-21.8,M,,*69
2021-07-19 00:02:15Z, 6cda8203-a249-e411-b0cc-f8bc1246af59, $GPGGA,000214.00,4437.5849,N,12402.8852,W,1,08,1.0,24.4,M,-21.8,M,,*62
2021-07-19 00:02:16Z, 6cda8203-a249-e411-b0cc-f8bc1246af59, $GPGGA,000215.00,4437.5849,N,12402.8852,W,1,08,1.0,24.4,M,-21.8,M,,*63
2021-07-19 00:02:18Z, 6cda8203-a249-e411-b0cc-f8bc1246af59, $GPGGA,000217.00,4437.5847,N,12402.8853,W,1,08,1.0,24.5,M,-21.8,M,,*6F
2021-07-19 00:02:19Z, 6cda8203-a249-e411-b0cc-f8bc1246af59, $GPGGA,000218.00,4437.5846,N,12402.8851,W,1,08,1.0,24.6,M,-21.8,M,,*60
2021-07-19 00:02:21Z, 6cda8203-a249-e411-b0cc-f8bc1246af59, $GPGGA,000220.00,4437.5845,N,12402.8850,W,1,08,1.0,24.8,M,-21.8,M,,*67
2021-07-19 00:02:22Z, 6cda8203-a249-e411-b0cc-f8bc1246af59, $GPGGA,000221.00,4437.5844,N,12402.8851,W,1,08,1.0,24.9,M,-21.8,M,,*67
2021-07-19 00:02:24Z, 6cda8203-a249-e411-b0cc-f8bc1246af59, $GPGGA,000223.00,4437.5843,N,12402.8851,W,1,08,1.0,25.0,M,-21.8,M,,*6A
2021-07-19 00:02:25Z, 6cda8203-a249-e411-b0cc-f8bc1246af59, $GPGGA,000224.00,4437.5844,N,12402.8850,W,1,08,1.0,24.9,M,-21.8,M,,*63
2021-07-19 00:02:27Z, 6cda8203-a249-e411-b0cc-f8bc1246af59, $GPGGA,000226.00,4437.5842,N,12402.8847,W,1,08,1.0,24.9,M,-21.8,M,,*61
2021-07-19 00:02:28Z, 6cda8203-a249-e411-b0cc-f8bc1246af59, $GPGGA,000227.00,4437.5842,N,12402.8844,W,1,08,1.0,24.8,M,-21.8,M,,*62
2021-07-19 00:02:30Z, 6cda8203-a249-e411-b0cc-f8bc1246af59, $GPGGA,000229.00,4437.5842,N,12402.8839,W,1,08,1.0,24.8,M,-21.8,M,,*66
2021-07-19 00:02:31Z, 6cda8203-a249-e411-b0cc-f8bc1246af59, $GPGGA,000230.00,4437.5842,N,12402.8840,W,1,08,1.0,24.7,M,-21.8,M,,*6F
2021-07-19 00:02:33Z, 6cda8203-a249-e411-b0cc-f8bc1246af59, $GPGGA,000232.00,4437.5840,N,12402.8841,W,1,08,1.0,24.7,M,-21.8,M,,*6E
2021-07-19 00:02:34Z, 6cda8203-a249-e411-b0cc-f8bc1246af59, $GPGGA,000233.00,4437.5838,N,12402.8840,W,1,08,1.0,24.7,M,-21.8,M,,*61
2021-07-19 00:02:36Z, 6cda8203-a249-e411-b0cc-f8bc1246af59, $GPGGA,000235.00,4437.5837,N,12402.8840,W,1,08,1.0,24.6,M,-21.8,M,,*69
2021-07-19 00:02:37Z, 6cda8203-a249-e411-b0cc-f8bc1246af59, $GPGGA,000236.00,4437.5838,N,12402.8839,W,1,08,1.0,24.7,M,-21.8,M,,*6A
2021-07-19 00:02:39Z, 6cda8203-a249-e411-b0cc-f8bc1246af59, $GPGGA,000238.00,4437.5836,N,12402.8835,W,1,08,1.0,24.7,M,-21.8,M,,*66
2021-07-19 00:02:40Z, 6cda8203-a249-e411-b0cc-f8bc1246af59, $GPGGA,000239.00,4437.5837,N,12402.8835,W,1,08,1.0,24.7,M,-21.8,M,,*66
2021-07-19 00:02:42Z, 6cda8203-a249-e411-b0cc-f8bc1246af59, $GPGGA,000241.00,4437.5839,N,12402.8834,W,1,08,1.0,24.6,M,-21.8,M,,*67
2021-07-19 00:02:43Z, 6cda8203-a249-e411-b0cc-f8bc1246af59, $GPGGA,000242.00,4437.5838,N,12402.8834,W,1,08,1.0,24.6,M,-21.8,M,,*65
2021-07-19 00:02:45Z, 6cda8203-a249-e411-b0cc-f8bc1246af59, $GPGGA,000244.00,4437.5841,N,12402.8836,W,1,08,1.0,24.6,M,-21.8,M,,*6F
2021-07-19 00:02:46Z, 6cda8203-a249-e411-b0cc-f8bc1246af59, $GPGGA,000245.00,4437.5842,N,12402.8836,W,1,08,1.0,24.7,M,-21.8,M,,*6C
2021-07-19 00:02:48Z, 6cda8203-a249-e411-b0cc-f8bc1246af59, $GPGGA,000247.00,4437.5846,N,12402.8837,W,1,08,1.0,24.7,M,-21.8,M,,*6B
2021-07-19 00:02:49Z, 6cda8203-a249-e411-b0cc-f8bc1246af59, $GPGGA,000248.00,4437.5846,N,12402.8839,W,1,08,1.0,24.6,M,-21.8,M,,*6B
2021-07-19 00:02:51Z, 6cda8203-a249-e411-b0cc-f8bc1246af59, $GPGGA,000250.00,4437.5850,N,12402.8834,W,1,08,1.0,25.4,M,-21.8,M,,*6B
2021-07-19 00:02:52Z, 6cda8203-a249-e411-b0cc-f8bc1246af59, $GPGGA,000251.00,4437.5850,N,12402.8833,W,1,08,1.0,25.6,M,-21.8,M,,*6F
2021-07-19 00:02:54Z, 6cda8203-a249-e411-b0cc-f8bc1246af59, $GPGGA,000253.00,4437.5849,N,12402.8830,W,1,08,1.0,25.3,M,-21.8,M,,*63
2021-07-19 00:02:55Z, 6cda8203-a249-e411-b0cc-f8bc1246af59, $GPGGA,000254.00,4437.5849,N,12402.8829,W,1,08,1.0,25.3,M,-21.8,M,,*6C
2021-07-19 00:02:57Z, 6cda8203-a249-e411-b0cc-f8bc1246af59, $GPGGA,000256.00,4437.5850,N,12402.8823,W,1,08,1.0,24.8,M,-21.8,M,,*66
2021-07-19 00:02:58Z, 6cda8203-a249-e411-b0cc-f8bc1246af59, $GPGGA,000257.00,4437.5850,N,12402.8822,W,1,08,1.0,24.6,M,-21.8,M,,*68
2021-07-19 00:03:00Z, 6cda8203-a249-e411-b0cc-f8bc1246af59, $GPGGA,000259.00,4437.5849,N,12402.8823,W,1,08,1.0,24.5,M,-21.8,M,,*6C
2021-07-19 00:03:01Z, 6cda8203-a249-e411-b0cc-f8bc1246af59, $GPGGA,000300.00,4437.5849,N,12402.8824,W,1,08,1.0,24.5,M,-21.8,M,,*66
2021-07-19 00:03:03Z, 6cda8203-a249-e411-b0cc-f8bc1246af59, $GPGGA,000302.00,4437.5848,N,12402.8824,W,1,08,1.0,24.7,M,-21.8,M,,*67
2021-07-19 00:03:04Z, 6cda8203-a249-e411-b0cc-f8bc1246af59, $GPGGA,000303.00,4437.5847,N,12402.8824,W,1,08,1.0,24.8,M,-21.8,M,,*66
2021-07-19 00:03:06Z, 6cda8203-a249-e411-b0cc-f8bc1246af59, $GPGGA,000305.00,4437.5845,N,12402.8826,W,1,08,1.0,25.0,M,-21.8,M,,*69
2021-07-19 00:03:07Z, 6cda8203-a249-e411-b0cc-f8bc1246af59, $GPGGA,000306.00,4437.5845,N,12402.8826,W,1,08,1.0,25.0,M,-21.8,M,,*6A
2021-07-19 00:03:09Z, 6cda8203-a249-e411-b0cc-f8bc1246af59, $GPGGA,000308.00,4437.5844,N,12402.8824,W,1,08,1.0,25.0,M,-21.8,M,,*67
2021-07-19 00:03:10Z, 6cda8203-a249-e411-b0cc-f8bc1246af59, $GPGGA,000309.00,4437.5845,N,12402.8822,W,1,08,1.0,25.0,M,-21.8,M,,*61
2021-07-19 00:03:12Z, 6cda8203-a249-e411-b0cc-f8bc1246af59, $GPGGA,000311.00,4437.5844,N,12402.8824,W,1,08,1.0,25.0,M,-21.8,M,,*6F
2021-07-19 00:03:13Z, 6cda8203-a249-e411-b0cc-f8bc1246af59, $GPGGA,000312.00,4437.5844,N,12402.8824,W,1,08,1.0,25.0,M,-21.8,M,,*6C
2021-07-19 00:03:15Z, 6cda8203-a249-e411-b0cc-f8bc1246af59, $GPGGA,000314.00,4437.5843,N,12402.8824,W,1,08,1.0,24.9,M,-21.8,M,,*65
2021-07-19 00:03:16Z, 6cda8203-a249-e411-b0cc-f8bc1246af59, $GPGGA,000315.00,4437.5843,N,12402.8824,W,1,08,1.0,24.8,M,-21.8,M,,*65
2021-07-19 00:03:18Z, 6cda8203-a249-e411-b0cc-f8bc1246af59, $GPGGA,000317.00,4437.5845,N,12402.8827,W,1,08,1.0,25.1,M,-21.8,M,,*6A
2021-07-19 00:03:19Z, 6cda8203-a249-e411-b0cc-f8bc1246af59, $GPGGA,000318.00,4437.5844,N,12402.8826,W,1,08,1.0,25.2,M,-21.8,M,,*66
2021-07-19 00:03:21Z, 6cda8203-a249-e411-b0cc-f8bc1246af59, $GPGGA,000320.00,4437.5847,N,12402.8827,W,1,08,1.0,25.3,M,-21.8,M,,*6E
2021-07-19 00:03:22Z, 6cda8203-a249-e411-b0cc-f8bc1246af59, $GPGGA,000321.00,4437.5849,N,12402.8826,W,1,08,1.0,25.4,M,-21.8,M,,*67
2021-07-19 00:03:24Z, 6cda8203-a249-e411-b0cc-f8bc1246af59, $GPGGA,000323.00,4437.5848,N,12402.8824,W,1,08,1.0,25.5,M,-21.8,M,,*67
2021-07-19 00:03:25Z, 6cda8203-a249-e411-b0cc-f8bc1246af59, $GPGGA,000324.00,4437.5847,N,12402.8825,W,1,08,1.0,25.8,M,-21.8,M,,*63
2021-07-19 00:03:27Z, 6cda8203-a249-e411-b0cc-f8bc1246af59, $GPGGA,000326.00,4437.5849,N,12402.8822,W,1,08,1.0,25.9,M,-21.8,M,,*69
2021-07-19 00:03:28Z, 6cda8203-a249-e411-b0cc-f8bc1246af59, $GPGGA,000327.00,4437.5850,N,12402.8820,W,1,08,1.0,25.8,M,-21.8,M,,*63
2021-07-19 00:03:29Z, 6cda8203-a249-e411-b0cc-f8bc1246af59, $GPGGA,000328.00,4437.5851,N,12402.8821,W,1,08,1.0,25.9,M,-21.8,M,,*6D
2021-07-19 00:03:30Z, 6cda8203-a249-e411-b0cc-f8bc1246af59, $GPGGA,000329.00,4437.5850,N,12402.8822,W,1,08,1.0,26.0,M,-21.8,M,,*64
2021-07-19 00:03:31Z, 6cda8203-a249-e411-b0cc-f8bc1246af59, $GPGGA,000330.00,4437.5850,N,12402.8824,W,1,08,1.0,26.1,M,-21.8,M,,*6B
2021-07-19 00:03:32Z, 6cda8203-a249-e411-b0cc-f8bc1246af59, $GPGGA,000331.00,4437.5850,N,12402.8825,W,1,08,1.0,26.1,M,-21.8,M,,*6B
2021-07-19 00:03:34Z, 6cda8203-a249-e411-b0cc-f8bc1246af59, $GPGGA,000332.00,4437.5850,N,12402.8827,W,1,08,1.0,26.0,M,-21.8,M,,*6B
2021-07-19 00:03:35Z, 6cda8203-a249-e411-b0cc-f8bc1246af59, $GPGGA,000334.00,4437.5848,N,12402.8829,W,1,08,1.0,25.8,M,-21.8,M,,*61
2021-07-19 00:03:36Z, 6cda8203-a249-e411-b0cc-f8bc1246af59, $GPGGA,000335.00,4437.5847,N,12402.8830,W,1,08,1.0,25.8,M,-21.8,M,,*67
2021-07-19 00:03:38Z, 6cda8203-a249-e411-b0cc-f8bc1246af59, $GPGGA,000337.00,4437.5847,N,12402.8829,W,1,08,1.0,25.6,M,-21.8,M,,*63
2021-07-19 00:03:39Z, 6cda8203-a249-e411-b0cc-f8bc1246af59, $GPGGA,000338.00,4437.5847,N,12402.8831,W,1,08,1.0,25.7,M,-21.8,M,,*64
2021-07-19 00:03:41Z, 6cda8203-a249-e411-b0cc-f8bc1246af59, $GPGGA,000340.00,4437.5849,N,12402.8835,W,1,08,1.0,25.6,M,-21.8,M,,*60
2021-07-19 00:03:42Z, 6cda8203-a249-e411-b0cc-f8bc1246af59, $GPGGA,000341.00,4437.5848,N,12402.8836,W,1,08,1.0,25.5,M,-21.8,M,,*60
2021-07-19 00:03:44Z, 6cda8203-a249-e411-b0cc-f8bc1246af59, $GPGGA,000343.00,4437.5848,N,12402.8839,W,1,08,1.0,25.5,M,-21.8,M,,*6D
2021-07-19 00:03:45Z, 6cda8203-a249-e411-b0cc-f8bc1246af59, $GPGGA,000344.00,4437.5849,N,12402.8838,W,1,08,1.0,25.6,M,-21.8,M,,*69
2021-07-19 00:03:47Z, 6cda8203-a249-e411-b0cc-f8bc1246af59, $GPGGA,000346.00,4437.5850,N,12402.8836,W,1,08,1.0,25.6,M,-21.8,M,,*6D
2021-07-19 00:03:48Z, 6cda8203-a249-e411-b0cc-f8bc1246af59, $GPGGA,000347.00,4437.5850,N,12402.8837,W,1,08,1.0,25.6,M,-21.8,M,,*6D
2021-07-19 00:03:50Z, 6cda8203-a249-e411-b0cc-f8bc1246af59, $GPGGA,000349.00,4437.5848,N,12402.8838,W,1,08,1.0,25.7,M,-21.8,M,,*64
2021-07-19 00:03:51Z, 6cda8203-a249-e411-b0cc-f8bc1246af59, $GPGGA,000350.00,4437.5849,N,12402.8839,W,1,08,1.0,25.7,M,-21.8,M,,*6C
2021-07-19 00:03:53Z, 6cda8203-a249-e411-b0cc-f8bc1246af59, $GPGGA,000352.00,4437.5849,N,12402.8842,W,1,08,1.0,25.9,M,-21.8,M,,*6C
2021-07-19 00:03:54Z, 6cda8203-a249-e411-b0cc-f8bc1246af59, $GPGGA,000353.00,4437.5849,N,12402.8844,W,1,08,1.0,25.9,M,-21.8,M,,*6B
2021-07-19 00:03:56Z, 6cda8203-a249-e411-b0cc-f8bc1246af59, $GPGGA,000355.00,4437.5850,N,12402.8844,W,1,08,1.0,25.9,M,-21.8,M,,*65
2021-07-19 00:03:57Z, 6cda8203-a249-e411-b0cc-f8bc1246af59, $GPGGA,000356.00,4437.5851,N,12402.8847,W,1,08,1.0,26.0,M,-21.8,M,,*6E
2021-07-19 00:03:59Z, 6cda8203-a249-e411-b0cc-f8bc1246af59, $GPGGA,000358.00,4437.5849,N,12402.8849,W,1,08,1.0,26.1,M,-21.8,M,,*66
2021-07-19 00:04:00Z, 6cda8203-a249-e411-b0cc-f8bc1246af59, $GPGGA,000359.00,4437.5849,N,12402.8849,W,1,08,1.0,26.1,M,-21.8,M,,*67
2021-07-19 00:04:02Z, 6cda8203-a249-e411-b0cc-f8bc1246af59, $GPGGA,000401.00,4437.5850,N,12402.8853,W,1,08,1.0,26.2,M,-21.8,M,,*6D
2021-07-19 00:04:03Z, 6cda8203-a249-e411-b0cc-f8bc1246af59, $GPGGA,000402.00,4437.5852,N,12402.8854,W,1,08,1.0,26.2,M,-21.8,M,,*6B
2021-07-19 00:04:05Z, 6cda8203-a249-e411-b0cc-f8bc1246af59, $GPGGA,000404.00,4437.5852,N,12402.8855,W,1,08,1.0,26.2,M,-21.8,M,,*6C
2021-07-19 00:04:06Z, 6cda8203-a249-e411-b0cc-f8bc1246af59, $GPGGA,000405.00,4437.5853,N,12402.8855,W,1,08,1.0,26.2,M,-21.8,M,,*6C
2021-07-19 00:04:08Z, 6cda8203-a249-e411-b0cc-f8bc1246af59, $GPGGA,000407.00,4437.5852,N,12402.8859,W,1,08,1.0,26.3,M,-21.8,M,,*62
2021-07-19 00:04:09Z, 6cda8203-a249-e411-b0cc-f8bc1246af59, $GPGGA,000408.00,4437.5853,N,12402.8859,W,1,08,1.0,26.3,M,-21.8,M,,*6C
2021-07-19 00:04:11Z, 6cda8203-a249-e411-b0cc-f8bc1246af59, $GPGGA,000410.00,4437.5855,N,12402.8853,W,1,08,1.0,26.5,M,-21.8,M,,*6F
2021-07-19 00:04:12Z, 6cda8203-a249-e411-b0cc-f8bc1246af59, $GPGGA,000411.00,4437.5856,N,12402.8851,W,1,08,1.0,26.6,M,-21.8,M,,*6C
2021-07-19 00:04:14Z, 6cda8203-a249-e411-b0cc-f8bc1246af59, $GPGGA,000413.00,4437.5854,N,12402.8850,W,1,08,1.0,26.7,M,-21.8,M,,*6C
2021-07-19 00:04:15Z, 6cda8203-a249-e411-b0cc-f8bc1246af59, $GPGGA,000414.00,4437.5854,N,12402.8848,W,1,08,1.0,26.8,M,-21.8,M,,*6D
2021-07-19 00:04:17Z, 6cda8203-a249-e411-b0cc-f8bc1246af59, $GPGGA,000416.00,4437.5853,N,12402.8844,W,1,08,1.0,27.1,M,-21.8,M,,*6C
2021-07-19 00:04:18Z, 6cda8203-a249-e411-b0cc-f8bc1246af59, $GPGGA,000417.00,4437.5850,N,12402.8842,W,1,08,1.0,27.1,M,-21.8,M,,*68
2021-07-19 00:04:20Z, 6cda8203-a249-e411-b0cc-f8bc1246af59, $GPGGA,000419.00,4437.5848,N,12402.8838,W,1,08,1.0,27.3,M,-21.8,M,,*60
2021-07-19 00:04:21Z, 6cda8203-a249-e411-b0cc-f8bc1246af59, $GPGGA,000420.00,4437.5847,N,12402.8837,W,1,08,1.0,27.4,M,-21.8,M,,*6D
2021-07-19 00:04:23Z, 6cda8203-a249-e411-b0cc-f8bc1246af59, $GPGGA,000422.00,4437.5847,N,12402.8832,W,1,08,1.0,27.7,M,-21.8,M,,*69
2021-07-19 00:04:24Z, 6cda8203-a249-e411-b0cc-f8bc1246af59, $GPGGA,000423.00,4437.5848,N,12402.8832,W,1,08,1.0,27.7,M,-21.8,M,,*67
2021-07-19 00:04:26Z, 6cda8203-a249-e411-b0cc-f8bc1246af59, $GPGGA,000425.00,4437.5847,N,12402.8836,W,1,08,1.0,27.7,M,-21.8,M,,*6A
2021-07-19 00:04:27Z, 6cda8203-a249-e411-b0cc-f8bc1246af59, $GPGGA,000426.00,4437.5848,N,12402.8835,W,1,08,1.0,27.8,M,-21.8,M,,*6A
2021-07-19 00:04:29Z, 6cda8203-a249-e411-b0cc-f8bc1246af59, $GPGGA,000428.00,4437.5847,N,12402.8837,W,1,08,1.0,28.0,M,-21.8,M,,*6E
2021-07-19 00:04:30Z, 6cda8203-a249-e411-b0cc-f8bc1246af59, $GPGGA,000429.00,4437.5848,N,12402.8839,W,1,08,1.0,28.1,M,-21.8,M,,*6F
2021-07-19 00:04:32Z, 6cda8203-a249-e411-b0cc-f8bc1246af59, $GPGGA,000431.00,4437.5848,N,12402.8840,W,1,08,1.0,28.1,M,-21.8,M,,*68
2021-07-19 00:04:33Z, 6cda8203-a249-e411-b0cc-f8bc1246af59, $GPGGA,000432.00,4437.5847,N,12402.8842,W,1,08,1.0,28.1,M,-21.8,M,,*66
2021-07-19 00:04:35Z, 6cda8203-a249-e411-b0cc-f8bc1246af59, $GPGGA,000434.00,4437.5846,N,12402.8846,W,1,08,1.0,28.3,M,-21.8,M,,*67
2021-07-19 00:04:36Z, 6cda8203-a249-e411-b0cc-f8bc1246af59, $GPGGA,000435.00,4437.5845,N,12402.8849,W,1,08,1.0,28.3,M,-21.8,M,,*6A
2021-07-19 00:04:38Z, 6cda8203-a249-e411-b0cc-f8bc1246af59, $GPGGA,000437.00,4437.5844,N,12402.8854,W,1,08,1.0,28.4,M,-21.8,M,,*62
2021-07-19 00:04:39Z, 6cda8203-a249-e411-b0cc-f8bc1246af59, $GPGGA,000438.00,4437.5844,N,12402.8855,W,1,08,1.0,28.4,M,-21.8,M,,*6C
2021-07-19 00:04:41Z, 6cda8203-a249-e411-b0cc-f8bc1246af59, $GPGGA,000440.00,4437.5841,N,12402.8860,W,1,08,1.0,28.4,M,-21.8,M,,*60
2021-07-19 00:04:42Z, 6cda8203-a249-e411-b0cc-f8bc1246af59, $GPGGA,000441.00,4437.5842,N,12402.8862,W,1,08,1.0,28.4,M,-21.8,M,,*60
2021-07-19 00:04:44Z, 6cda8203-a249-e411-b0cc-f8bc1246af59, $GPGGA,000443.00,4437.5838,N,12402.8863,W,1,08,1.0,28.3,M,-21.8,M,,*69
2021-07-19 00:04:45Z, 6cda8203-a249-e411-b0cc-f8bc1246af59, $GPGGA,000444.00,4437.5836,N,12402.8863,W,1,08,1.0,28.3,M,-21.8,M,,*60
2021-07-19 00:04:47Z, 6cda8203-a249-e411-b0cc-f8bc1246af59, $GPGGA,000446.00,4437.5836,N,12402.8869,W,1,08,1.0,28.3,M,-21.8,M,,*68
2021-07-19 00:04:48Z, 6cda8203-a249-e411-b0cc-f8bc1246af59, $GPGGA,000447.00,4437.5837,N,12402.8869,W,1,08,1.0,28.3,M,-21.8,M,,*68
2021-07-19 00:04:50Z, 6cda8203-a249-e411-b0cc-f8bc1246af59, $GPGGA,000449.00,4437.5835,N,12402.8869,W,1,08,1.0,28.4,M,-21.8,M,,*63
2021-07-19 00:04:51Z, 6cda8203-a249-e411-b0cc-f8bc1246af59, $GPGGA,000450.00,4437.5838,N,12402.8868,W,1,08,1.0,28.5,M,-21.8,M,,*66
2021-07-19 00:04:53Z, 6cda8203-a249-e411-b0cc-f8bc1246af59, $GPGGA,000452.00,4437.5838,N,12402.8867,W,1,08,1.0,28.3,M,-21.8,M,,*6D
2021-07-19 00:04:54Z, 6cda8203-a249-e411-b0cc-f8bc1246af59, $GPGGA,000453.00,4437.5838,N,12402.8866,W,1,08,1.0,28.2,M,-21.8,M,,*6C
2021-07-19 00:04:56Z, 6cda8203-a249-e411-b0cc-f8bc1246af59, $GPGGA,000455.00,4437.5835,N,12402.8866,W,1,08,1.0,28.0,M,-21.8,M,,*65
2021-07-19 00:04:57Z, 6cda8203-a249-e411-b0cc-f8bc1246af59, $GPGGA,000456.00,4437.5833,N,12402.8865,W,1,08,1.0,28.0,M,-21.8,M,,*63
2021-07-19 00:04:59Z, 6cda8203-a249-e411-b0cc-f8bc1246af59, $GPGGA,000458.00,4437.5831,N,12402.8867,W,1,08,1.0,27.9,M,-21.8,M,,*6B
2021-07-19 00:05:00Z, 6cda8203-a249-e411-b0cc-f8bc1246af59, $GPGGA,000459.00,4437.5831,N,12402.8868,W,1,08,1.0,27.8,M,-21.8,M,,*64
2021-07-19 00:05:02Z, 6cda8203-a249-e411-b0cc-f8bc1246af59, $GPGGA,000501.00,4437.5827,N,12402.8868,W,1,08,1.0,27.6,M,-21.8,M,,*61
2021-07-19 00:05:03Z, 6cda8203-a249-e411-b0cc-f8bc1246af59, $GPGGA,000502.00,4437.5825,N,12402.8869,W,1,08,1.0,27.6,M,-21.8,M,,*61
2021-07-19 00:05:05Z, 6cda8203-a249-e411-b0cc-f8bc1246af59, $GPGGA,000504.00,4437.5824,N,12402.8870,W,1,08,1.0,27.4,M,-21.8,M,,*6C
2021-07-19 00:05:06Z, 6cda8203-a249-e411-b0cc-f8bc1246af59, $GPGGA,000505.00,4437.5821,N,12402.8870,W,1,08,1.0,27.3,M,-21.8,M,,*6F
2021-07-19 00:05:08Z, 6cda8203-a249-e411-b0cc-f8bc1246af59, $GPGGA,000507.00,4437.5821,N,12402.8866,W,1,08,1.0,27.2,M,-21.8,M,,*6B
2021-07-19 00:05:09Z, 6cda8203-a249-e411-b0cc-f8bc1246af59, $GPGGA,000508.00,4437.5821,N,12402.8866,W,1,08,1.0,27.2,M,-21.8,M,,*64
2021-07-19 00:05:11Z, 6cda8203-a249-e411-b0cc-f8bc1246af59, $GPGGA,000510.00,4437.5824,N,12402.8863,W,1,08,1.0,27.1,M,-21.8,M,,*6E
2021-07-19 00:05:12Z, 6cda8203-a249-e411-b0cc-f8bc1246af59, $GPGGA,000511.00,4437.5823,N,12402.8863,W,1,08,1.0,27.0,M,-21.8,M,,*69
2021-07-19 00:05:14Z, 6cda8203-a249-e411-b0cc-f8bc1246af59, $GPGGA,000513.00,4437.5824,N,12402.8863,W,1,08,1.0,26.9,M,-21.8,M,,*64
2021-07-19 00:05:15Z, 6cda8203-a249-e411-b0cc-f8bc1246af59, $GPGGA,000514.00,4437.5824,N,12402.8864,W,1,08,1.0,26.8,M,-21.8,M,,*65
2021-07-19 00:05:17Z, 6cda8203-a249-e411-b0cc-f8bc1246af59, $GPGGA,000516.00,4437.5823,N,12402.8868,W,1,08,1.0,26.7,M,-21.8,M,,*63
2021-07-19 00:05:18Z, 6cda8203-a249-e411-b0cc-f8bc1246af59, $GPGGA,000517.00,4437.5824,N,12402.8868,W,1,08,1.0,26.7,M,-21.8,M,,*65
2021-07-19 00:05:20Z, 6cda8203-a249-e411-b0cc-f8bc1246af59, $GPGGA,000519.00,4437.5827,N,12402.8869,W,1,08,1.0,26.7,M,-21.8,M,,*69
2021-07-19 00:05:21Z, 6cda8203-a249-e411-b0cc-f8bc1246af59, $GPGGA,000520.00,4437.5828,N,12402.8868,W,1,08,1.0,26.7,M,-21.8,M,,*6D
2021-07-19 00:05:23Z, 6cda8203-a249-e411-b0cc-f8bc1246af59, $GPGGA,000522.00,4437.5829,N,12402.8870,W,1,08,1.0,26.8,M,-21.8,M,,*68
2021-07-19 00:05:24Z, 6cda8203-a249-e411-b0cc-f8bc1246af59, $GPGGA,000523.00,4437.5829,N,12402.8872,W,1,08,1.0,26.8,M,-21.8,M,,*6B
2021-07-19 00:05:26Z, 6cda8203-a249-e411-b0cc-f8bc1246af59, $GPGGA,000525.00,4437.5831,N,12402.8874,W,1,08,1.0,27.0,M,-21.8,M,,*6B
2021-07-19 00:05:27Z, 6cda8203-a249-e411-b0cc-f8bc1246af59, $GPGGA,000526.00,4437.5832,N,12402.8871,W,1,08,1.0,27.0,M,-21.8,M,,*6E
2021-07-19 00:05:29Z, 6cda8203-a249-e411-b0cc-f8bc1246af59, $GPGGA,000528.00,4437.5833,N,12402.8871,W,1,08,1.0,27.2,M,-21.8,M,,*63
2021-07-19 00:05:30Z, 6cda8203-a249-e411-b0cc-f8bc1246af59, $GPGGA,000529.00,4437.5835,N,12402.8871,W,1,08,1.0,27.2,M,-21.8,M,,*64
2021-07-19 00:05:32Z, 6cda8203-a249-e411-b0cc-f8bc1246af59, $GPGGA,000531.00,4437.5834,N,12402.8869,W,1,08,1.0,27.2,M,-21.8,M,,*65
2021-07-19 00:05:33Z, 6cda8203-a249-e411-b0cc-f8bc1246af59, $GPGGA,000532.00,4437.5835,N,12402.8867,W,1,08,1.0,27.2,M,-21.8,M,,*69
2021-07-19 00:05:34Z, 6cda8203-a249-e411-b0cc-f8bc1246af59, $GPGGA,000533.00,4437.5836,N,12402.8866,W,1,08,1.0,27.2,M,-21.8,M,,*6A
2021-07-19 00:05:35Z, 6cda8203-a249-e411-b0cc-f8bc1246af59, $GPGGA,000534.00,4437.5838,N,12402.8864,W,1,08,1.0,27.1,M,-21.8,M,,*62
2021-07-19 00:05:36Z, 6cda8203-a249-e411-b0cc-f8bc1246af59, $GPGGA,000535.00,4437.5840,N,12402.8865,W,1,08,1.0,27.2,M,-21.8,M,,*6E
2021-07-19 00:05:37Z, 6cda8203-a249-e411-b0cc-f8bc1246af59, $GPGGA,000536.00,4437.5841,N,12402.8865,W,1,08,1.0,27.2,M,-21.8,M,,*6C
2021-07-19 00:05:39Z, 6cda8203-a249-e411-b0cc-f8bc1246af59, $GPGGA,000537.00,4437.5842,N,12402.8863,W,1,08,1.0,27.1,M,-21.8,M,,*6B
2021-07-19 00:05:40Z, 6cda8203-a249-e411-b0cc-f8bc1246af59, $GPGGA,000539.00,4437.5840,N,12402.8860,W,1,08,1.0,27.1,M,-21.8,M,,*64
2021-07-19 00:05:41Z, 6cda8203-a249-e411-b0cc-f8bc1246af59, $GPGGA,000540.00,4437.5841,N,12402.8861,W,1,08,1.0,27.1,M,-21.8,M,,*6A
2021-07-19 00:05:43Z, 6cda8203-a249-e411-b0cc-f8bc1246af59, $GPGGA,000542.00,4437.5840,N,12402.8862,W,1,08,1.0,27.0,M,-21.8,M,,*6B
2021-07-19 00:05:44Z, 6cda8203-a249-e411-b0cc-f8bc1246af59, $GPGGA,000543.00,4437.5840,N,12402.8862,W,1,08,1.0,26.8,M,-21.8,M,,*63
2021-07-19 00:05:46Z, 6cda8203-a249-e411-b0cc-f8bc1246af59, $GPGGA,000545.00,4437.5841,N,12402.8864,W,1,08,1.0,26.9,M,-21.8,M,,*63
2021-07-19 00:05:47Z, 6cda8203-a249-e411-b0cc-f8bc1246af59, $GPGGA,000546.00,4437.5841,N,12402.8864,W,1,08,1.0,26.8,M,-21.8,M,,*61
2021-07-19 00:05:49Z, 6cda8203-a249-e411-b0cc-f8bc1246af59, $GPGGA,000548.00,4437.5843,N,12402.8865,W,1,08,1.0,26.8,M,-21.8,M,,*6C
2021-07-19 00:05:50Z, 6cda8203-a249-e411-b0cc-f8bc1246af59, $GPGGA,000549.00,4437.5844,N,12402.8860,W,1,08,1.0,26.5,M,-21.8,M,,*62
2021-07-19 00:05:52Z, 6cda8203-a249-e411-b0cc-f8bc1246af59, $GPGGA,000551.00,4437.5845,N,12402.8858,W,1,08,1.0,26.5,M,-21.8,M,,*61
2021-07-19 00:05:53Z, 6cda8203-a249-e411-b0cc-f8bc1246af59, $GPGGA,000552.00,4437.5844,N,12402.8859,W,1,08,1.0,26.5,M,-21.8,M,,*62
2021-07-19 00:05:55Z, 6cda8203-a249-e411-b0cc-f8bc1246af59, $GPGGA,000554.00,4437.5845,N,12402.8861,W,1,08,1.0,26.4,M,-21.8,M,,*6F
2021-07-19 00:05:56Z, 6cda8203-a249-e411-b0cc-f8bc1246af59, $GPGGA,000555.00,4437.5845,N,12402.8861,W,1,08,1.0,26.4,M,-21.8,M,,*6E
2021-07-19 00:05:58Z, 6cda8203-a249-e411-b0cc-f8bc1246af59, $GPGGA,000557.00,4437.5846,N,12402.8863,W,1,08,1.0,26.4,M,-21.8,M,,*6D
2021-07-19 00:05:59Z, 6cda8203-a249-e411-b0cc-f8bc1246af59, $GPGGA,000558.00,4437.5847,N,12402.8866,W,1,08,1.0,26.4,M,-21.8,M,,*66
2021-07-19 00:06:01Z, 6cda8203-a249-e411-b0cc-f8bc1246af59, $GPGGA,000600.00,4437.5852,N,12402.8870,W,1,08,1.0,26.5,M,-21.8,M,,*6A
2021-07-19 00:06:02Z, 6cda8203-a249-e411-b0cc-f8bc1246af59, $GPGGA,000601.00,4437.5853,N,12402.8874,W,1,08,1.0,26.6,M,-21.8,M,,*6D
2021-07-19 00:06:04Z, 6cda8203-a249-e411-b0cc-f8bc1246af59, $GPGGA,000603.00,4437.5851,N,12402.8878,W,1,08,1.0,26.6,M,-21.8,M,,*61
2021-07-19 00:06:05Z, 6cda8203-a249-e411-b0cc-f8bc1246af59, $GPGGA,000604.00,4437.5853,N,12402.8880,W,1,08,1.0,26.7,M,-21.8,M,,*62
2021-07-19 00:06:07Z, 6cda8203-a249-e411-b0cc-f8bc1246af59, $GPGGA,000606.00,4437.5856,N,12402.8885,W,1,08,1.0,26.9,M,-21.8,M,,*6E
2021-07-19 00:06:08Z, 6cda8203-a249-e411-b0cc-f8bc1246af59, $GPGGA,000607.00,4437.5856,N,12402.8887,W,1,08,1.0,26.8,M,-21.8,M,,*6C
2021-07-19 00:06:10Z, 6cda8203-a249-e411-b0cc-f8bc1246af59, $GPGGA,000609.00,4437.5857,N,12402.8887,W,1,08,1.0,26.7,M,-21.8,M,,*6C
2021-07-19 00:06:11Z, 6cda8203-a249-e411-b0cc-f8bc1246af59, $GPGGA,000610.00,4437.5856,N,12402.8889,W,1,08,1.0,26.7,M,-21.8,M,,*6B
2021-07-19 00:06:13Z, 6cda8203-a249-e411-b0cc-f8bc1246af59, $GPGGA,000612.00,4437.5856,N,12402.8892,W,1,08,1.0,26.8,M,-21.8,M,,*6C
2021-07-19 00:06:14Z, 6cda8203-a249-e411-b0cc-f8bc1246af59, $GPGGA,000613.00,4437.5855,N,12402.8895,W,1,08,1.0,26.9,M,-21.8,M,,*68
2021-07-19 00:06:16Z, 6cda8203-a249-e411-b0cc-f8bc1246af59, $GPGGA,000615.00,4437.5856,N,12402.8896,W,1,08,1.0,27.0,M,-21.8,M,,*66
2021-07-19 00:06:17Z, 6cda8203-a249-e411-b0cc-f8bc1246af59, $GPGGA,000616.00,4437.5855,N,12402.8894,W,1,08,1.0,27.1,M,-21.8,M,,*65
2021-07-19 00:06:19Z, 6cda8203-a249-e411-b0cc-f8bc1246af59, $GPGGA,000618.00,4437.5853,N,12402.8892,W,1,08,1.0,27.1,M,-21.8,M,,*6B
2021-07-19 00:06:20Z, 6cda8203-a249-e411-b0cc-f8bc1246af59, $GPGGA,000619.00,4437.5853,N,12402.8891,W,1,08,1.0,27.1,M,-21.8,M,,*69
2021-07-19 00:06:22Z, 6cda8203-a249-e411-b0cc-f8bc1246af59, $GPGGA,000621.00,4437.5852,N,12402.8887,W,1,08,1.0,27.1,M,-21.8,M,,*64
2021-07-19 00:06:23Z, 6cda8203-a249-e411-b0cc-f8bc1246af59, $GPGGA,000622.00,4437.5851,N,12402.8884,W,1,08,1.0,27.1,M,-21.8,M,,*67
2021-07-19 00:06:25Z, 6cda8203-a249-e411-b0cc-f8bc1246af59, $GPGGA,000624.00,4437.5849,N,12402.8880,W,1,08,1.0,27.1,M,-21.8,M,,*6C
2021-07-19 00:06:26Z, 6cda8203-a249-e411-b0cc-f8bc1246af59, $GPGGA,000625.00,4437.5851,N,12402.8878,W,1,08,1.0,27.4,M,-21.8,M,,*66
2021-07-19 00:06:28Z, 6cda8203-a249-e411-b0cc-f8bc1246af59, $GPGGA,000627.00,4437.5851,N,12402.8876,W,1,08,1.0,27.6,M,-21.8,M,,*68
2021-07-19 00:06:29Z, 6cda8203-a249-e411-b0cc-f8bc1246af59, $GPGGA,000628.00,4437.5851,N,12402.8876,W,1,08,1.0,27.6,M,-21.8,M,,*67
2021-07-19 00:06:31Z, 6cda8203-a249-e411-b0cc-f8bc1246af59, $GPGGA,000630.00,4437.5852,N,12402.8875,W,1,08,1.0,27.7,M,-21.8,M,,*6F
2021-07-19 00:06:32Z, 6cda8203-a249-e411-b0cc-f8bc1246af59, $GPGGA,000631.00,4437.5853,N,12402.8876,W,1,08,1.0,27.6,M,-21.8,M,,*6D
2021-07-19 00:06:34Z, 6cda8203-a249-e411-b0cc-f8bc1246af59, $GPGGA,000633.00,4437.5851,N,12402.8877,W,1,08,1.0,27.5,M,-21.8,M,,*6F
2021-07-19 00:06:35Z, 6cda8203-a249-e411-b0cc-f8bc1246af59, $GPGGA,000634.00,4437.5851,N,12402.8878,W,1,08,1.0,27.4,M,-21.8,M,,*66
2021-07-19 00:06:37Z, 6cda8203-a249-e411-b0cc-f8bc1246af59, $GPGGA,000636.00,4437.5850,N,12402.8882,W,1,08,1.0,27.3,M,-21.8,M,,*67
2021-07-19 00:06:38Z, 6cda8203-a249-e411-b0cc-f8bc1246af59, $GPGGA,000637.00,4437.5849,N,12402.8884,W,1,08,1.0,27.2,M,-21.8,M,,*69
2021-07-19 00:06:40Z, 6cda8203-a249-e411-b0cc-f8bc1246af59, $GPGGA,000639.00,4437.5850,N,12402.8887,W,1,08,1.0,27.0,M,-21.8,M,,*6E
2021-07-19 00:06:41Z, 6cda8203-a249-e411-b0cc-f8bc1246af59, $GPGGA,000640.00,4437.5850,N,12402.8888,W,1,08,1.0,26.9,M,-21.8,M,,*67
2021-07-19 00:06:43Z, 6cda8203-a249-e411-b0cc-f8bc1246af59, $GPGGA,000642.00,4437.5849,N,12402.8889,W,1,08,1.0,26.8,M,-21.8,M,,*6D
2021-07-19 00:06:44Z, 6cda8203-a249-e411-b0cc-f8bc1246af59, $GPGGA,000643.00,4437.5850,N,12402.8891,W,1,08,1.0,26.9,M,-21.8,M,,*6C
2021-07-19 00:06:46Z, 6cda8203-a249-e411-b0cc-f8bc1246af59, $GPGGA,000645.00,4437.5851,N,12402.8891,W,1,08,1.0,26.8,M,-21.8,M,,*6A
2021-07-19 00:06:47Z, 6cda8203-a249-e411-b0cc-f8bc1246af59, $GPGGA,000646.00,4437.5852,N,12402.8892,W,1,08,1.0,26.8,M,-21.8,M,,*69
2021-07-19 00:06:49Z, 6cda8203-a249-e411-b0cc-f8bc1246af59, $GPGGA,000648.00,4437.5858,N,12402.8888,W,1,08,1.0,26.6,M,-21.8,M,,*68
2021-07-19 00:06:50Z, 6cda8203-a249-e411-b0cc-f8bc1246af59, $GPGGA,000649.00,4437.5861,N,12402.8885,W,1,08,1.0,26.6,M,-21.8,M,,*6E
2021-07-19 00:06:52Z, 6cda8203-a249-e411-b0cc-f8bc1246af59, $GPGGA,000651.00,4437.5861,N,12402.8884,W,1,08,1.0,26.7,M,-21.8,M,,*67
2021-07-19 00:06:53Z, 6cda8203-a249-e411-b0cc-f8bc1246af59, $GPGGA,000652.00,4437.5861,N,12402.8884,W,1,08,1.0,26.8,M,-21.8,M,,*6B
2021-07-19 00:06:55Z, 6cda8203-a249-e411-b0cc-f8bc1246af59, $GPGGA,000654.00,4437.5861,N,12402.8886,W,1,08,1.0,26.8,M,-21.8,M,,*6F
2021-07-19 00:06:56Z, 6cda8203-a249-e411-b0cc-f8bc1246af59, $GPGGA,000655.00,4437.5862,N,12402.8888,W,1,08,1.0,26.8,M,-21.8,M,,*63
2021-07-19 00:06:58Z, 6cda8203-a249-e411-b0cc-f8bc1246af59, $GPGGA,000657.00,4437.5861,N,12402.8887,W,1,08,1.0,26.8,M,-21.8,M,,*6D
2021-07-19 00:06:59Z, 6cda8203-a249-e411-b0cc-f8bc1246af59, $GPGGA,000658.00,4437.5861,N,12402.8887,W,1,08,1.0,26.8,M,-21.8,M,,*62
2021-07-19 00:07:01Z, 6cda8203-a249-e411-b0cc-f8bc1246af59, $GPGGA,000700.00,4437.5860,N,12402.8885,W,1,08,1.0,27.0,M,-21.8,M,,*64
2021-07-19 00:07:02Z, 6cda8203-a249-e411-b0cc-f8bc1246af59, $GPGGA,000701.00,4437.5859,N,12402.8885,W,1,08,1.0,27.0,M,-21.8,M,,*6F
2021-07-19 00:07:04Z, 6cda8203-a249-e411-b0cc-f8bc1246af59, $GPGGA,000703.00,4437.5858,N,12402.8879,W,1,08,1.0,27.1,M,-21.8,M,,*6E
2021-07-19 00:07:05Z, 6cda8203-a249-e411-b0cc-f8bc1246af59, $GPGGA,000704.00,4437.5849,N,12402.8886,W,1,08,1.0,27.5,M,-21.8,M,,*6D
2021-07-19 00:07:07Z, 6cda8203-a249-e411-b0cc-f8bc1246af59, $GPGGA,000706.00,4437.5846,N,12402.8887,W,1,08,1.0,27.6,M,-21.8,M,,*62
2021-07-19 00:07:08Z, 6cda8203-a249-e411-b0cc-f8bc1246af59, $GPGGA,000707.00,4437.5846,N,12402.8887,W,1,08,1.0,27.6,M,-21.8,M,,*63
2021-07-19 00:07:10Z, 6cda8203-a249-e411-b0cc-f8bc1246af59, $GPGGA,000709.00,4437.5848,N,12402.8889,W,1,08,1.0,27.6,M,-21.8,M,,*6D
2021-07-19 00:07:11Z, 6cda8203-a249-e411-b0cc-f8bc1246af59, $GPGGA,000710.00,4437.5849,N,12402.8889,W,1,08,1.0,27.6,M,-21.8,M,,*64
2021-07-19 00:07:13Z, 6cda8203-a249-e411-b0cc-f8bc1246af59, $GPGGA,000712.00,4437.5849,N,12402.8892,W,1,08,1.0,27.6,M,-21.8,M,,*6C
2021-07-19 00:07:14Z, 6cda8203-a249-e411-b0cc-f8bc1246af59, $GPGGA,000713.00,4437.5849,N,12402.8891,W,1,08,1.0,27.7,M,-21.8,M,,*6F
2021-07-19 00:07:16Z, 6cda8203-a249-e411-b0cc-f8bc1246af59, $GPGGA,000715.00,4437.5849,N,12402.8890,W,1,08,1.0,27.8,M,-21.8,M,,*67
2021-07-19 00:07:17Z, 6cda8203-a249-e411-b0cc-f8bc1246af59, $GPGGA,000716.00,4437.5848,N,12402.8891,W,1,08,1.0,27.8,M,-21.8,M,,*64
2021-07-19 00:07:19Z, 6cda8203-a249-e411-b0cc-f8bc1246af59, $GPGGA,000718.00,4437.5849,N,12402.8891,W,1,08,1.0,27.8,M,-21.8,M,,*6B
2021-07-19 00:07:20Z, 6cda8203-a249-e411-b0cc-f8bc1246af59, $GPGGA,000719.00,4437.5852,N,12402.8889,W,1,08,1.0,27.8,M,-21.8,M,,*69
2021-07-19 00:07:22Z, 6cda8203-a249-e411-b0cc-f8bc1246af59, $GPGGA,000721.00,4437.5855,N,12402.8888,W,1,08,1.0,28.0,M,-21.8,M,,*63
2021-07-19 00:07:23Z, 6cda8203-a249-e411-b0cc-f8bc1246af59, $GPGGA,000722.00,4437.5857,N,12402.8887,W,1,08,1.0,28.2,M,-21.8,M,,*6F
2021-07-19 00:07:25Z, 6cda8203-a249-e411-b0cc-f8bc1246af59, $GPGGA,000724.00,4437.5857,N,12402.8888,W,1,08,1.0,28.3,M,-21.8,M,,*67
2021-07-19 00:07:26Z, 6cda8203-a249-e411-b0cc-f8bc1246af59, $GPGGA,000725.00,4437.5857,N,12402.8888,W,1,08,1.0,28.2,M,-21.8,M,,*67
2021-07-19 00:07:28Z, 6cda8203-a249-e411-b0cc-f8bc1246af59, $GPGGA,000727.00,4437.5855,N,12402.8885,W,1,08,1.0,28.2,M,-21.8,M,,*6A
2021-07-19 00:07:29Z, 6cda8203-a249-e411-b0cc-f8bc1246af59, $GPGGA,000728.00,4437.5855,N,12402.8884,W,1,08,1.0,28.2,M,-21.8,M,,*64
2021-07-19 00:07:31Z, 6cda8203-a249-e411-b0cc-f8bc1246af59, $GPGGA,000730.00,4437.5857,N,12402.8884,W,1,08,1.0,28.2,M,-21.8,M,,*6F
2021-07-19 00:07:32Z, 6cda8203-a249-e411-b0cc-f8bc1246af59, $GPGGA,000731.00,4437.5858,N,12402.8886,W,1,08,1.0,28.3,M,-21.8,M,,*62
2021-07-19 00:07:34Z, 6cda8203-a249-e411-b0cc-f8bc1246af59, $GPGGA,000733.00,4437.5860,N,12402.8881,W,1,08,1.0,28.6,M,-21.8,M,,*69
2021-07-19 00:07:35Z, 6cda8203-a249-e411-b0cc-f8bc1246af59, $GPGGA,000734.00,4437.5860,N,12402.8881,W,1,08,1.0,28.6,M,-21.8,M,,*6E
2021-07-19 00:07:37Z, 6cda8203-a249-e411-b0cc-f8bc1246af59, $GPGGA,000736.00,4437.5860,N,12402.8881,W,1,08,1.0,28.8,M,-21.8,M,,*62
2021-07-19 00:07:38Z, 6cda8203-a249-e411-b0cc-f8bc1246af59, $GPGGA,000737.00,4437.5860,N,12402.8882,W,1,08,1.0,28.9,M,-21.8,M,,*61
2021-07-19 00:07:39Z, 6cda8203-a249-e411-b0cc-f8bc1246af59, $GPGGA,000738.00,4437.5860,N,12402.8882,W,1,08,1.0,29.0,M,-21.8,M,,*66
2021-07-19 00:07:40Z, 6cda8203-a249-e411-b0cc-f8bc1246af59, $GPGGA,000739.00,4437.5858,N,12402.8882,W,1,08,1.0,29.0,M,-21.8,M,,*6C
2021-07-19 00:07:41Z, 6cda8203-a249-e411-b0cc-f8bc1246af59, $GPGGA,000740.00,4437.5856,N,12402.8883,W,1,08,1.0,29.1,M,-21.8,M,,*6C
2021-07-19 00:07:42Z, 6cda8203-a249-e411-b0cc-f8bc1246af59, $GPGGA,000741.00,4437.5857,N,12402.8882,W,1,08,1.0,29.2,M,-21.8,M,,*6E
2021-07-19 00:07:44Z, 6cda8203-a249-e411-b0cc-f8bc1246af59, $GPGGA,000742.00,4437.5856,N,12402.8881,W,1,08,1.0,29.5,M,-21.8,M,,*68
2021-07-19 00:07:45Z, 6cda8203-a249-e411-b0cc-f8bc1246af59, $GPGGA,000744.00,4437.5853,N,12402.8879,W,1,08,1.0,29.8,M,-21.8,M,,*61
2021-07-19 00:07:46Z, 6cda8203-a249-e411-b0cc-f8bc1246af59, $GPGGA,000745.00,4437.5852,N,12402.8877,W,1,08,1.0,30.0,M,-21.8,M,,*6F
2021-07-19 00:07:48Z, 6cda8203-a249-e411-b0cc-f8bc1246af59, $GPGGA,000747.00,4437.5852,N,12402.8877,W,1,08,1.0,29.9,M,-21.8,M,,*6C
2021-07-19 00:07:49Z, 6cda8203-a249-e411-b0cc-f8bc1246af59, $GPGGA,000748.00,4437.5852,N,12402.8878,W,1,08,1.0,29.8,M,-21.8,M,,*6D
2021-07-19 00:07:51Z, 6cda8203-a249-e411-b0cc-f8bc1246af59, $GPGGA,000750.00,4437.5852,N,12402.8882,W,1,08,1.0,29.7,M,-21.8,M,,*6E
2021-07-19 00:07:52Z, 6cda8203-a249-e411-b0cc-f8bc1246af59, $GPGGA,000751.00,4437.5853,N,12402.8883,W,1,08,1.0,29.7,M,-21.8,M,,*6F
2021-07-19 00:07:54Z, 6cda8203-a249-e411-b0cc-f8bc1246af59, $GPGGA,000753.00,4437.5853,N,12402.8884,W,1,08,1.0,29.6,M,-21.8,M,,*6B
2021-07-19 00:07:55Z, 6cda8203-a249-e411-b0cc-f8bc1246af59, $GPGGA,000754.00,4437.5854,N,12402.8883,W,1,08,1.0,29.7,M,-21.8,M,,*6D
2021-07-19 00:07:57Z, 6cda8203-a249-e411-b0cc-f8bc1246af59, $GPGGA,000756.00,4437.5851,N,12402.8884,W,1,08,1.0,29.7,M,-21.8,M,,*6D
2021-07-19 00:07:58Z, 6cda8203-a249-e411-b0cc-f8bc1246af59, $GPGGA,000757.00,4437.5852,N,12402.8883,W,1,08,1.0,29.8,M,-21.8,M,,*67
2021-07-19 00:08:00Z, 6cda8203-a249-e411-b0cc-f8bc1246af59, $GPGGA,000759.00,4437.5851,N,12402.8885,W,1,08,1.0,29.9,M,-21.8,M,,*6D
2021-07-19 00:08:01Z, 6cda8203-a249-e411-b0cc-f8bc1246af59, $GPGGA,000800.00,4437.5851,N,12402.8886,W,1,08,1.0,29.9,M,-21.8,M,,*6D
2021-07-19 00:08:03Z, 6cda8203-a249-e411-b0cc-f8bc1246af59, $GPGGA,000802.00,4437.5846,N,12402.8893,W,1,08,1.0,30.2,M,-21.8,M,,*6E
2021-07-19 00:08:04Z, 6cda8203-a249-e411-b0cc-f8bc1246af59, $GPGGA,000803.00,4437.5847,N,12402.8895,W,1,08,1.0,30.2,M,-21.8,M,,*68
2021-07-19 00:08:06Z, 6cda8203-a249-e411-b0cc-f8bc1246af59, $GPGGA,000805.00,4437.5845,N,12402.8898,W,1,08,1.0,30.2,M,-21.8,M,,*61
2021-07-19 00:08:07Z, 6cda8203-a249-e411-b0cc-f8bc1246af59, $GPGGA,000806.00,4437.5844,N,12402.8898,W,1,08,1.0,30.2,M,-21.8,M,,*63
2021-07-19 00:08:09Z, 6cda8203-a249-e411-b0cc-f8bc1246af59, $GPGGA,000808.00,4437.5841,N,12402.8888,W,1,08,1.0,30.0,M,-21.8,M,,*6B
2021-07-19 00:08:10Z, 6cda8203-a249-e411-b0cc-f8bc1246af59, $GPGGA,000809.00,4437.5842,N,12402.8886,W,1,08,1.0,30.0,M,-21.8,M,,*67
2021-07-19 00:08:12Z, 6cda8203-a249-e411-b0cc-f8bc1246af59, $GPGGA,000811.00,4437.5838,N,12402.8877,W,1,08,1.0,30.0,M,-21.8,M,,*6D
2021-07-19 00:08:13Z, 6cda8203-a249-e411-b0cc-f8bc1246af59, $GPGGA,000812.00,4437.5836,N,12402.8876,W,1,08,1.0,30.0,M,-21.8,M,,*61
2021-07-19 00:08:15Z, 6cda8203-a249-e411-b0cc-f8bc1246af59, $GPGGA,000814.00,4437.5836,N,12402.8877,W,1,08,1.0,30.1,M,-21.8,M,,*67
2021-07-19 00:08:16Z, 6cda8203-a249-e411-b0cc-f8bc1246af59, $GPGGA,000815.00,4437.5838,N,12402.8878,W,1,08,1.0,30.1,M,-21.8,M,,*67
2021-07-19 00:08:18Z, 6cda8203-a249-e411-b0cc-f8bc1246af59, $GPGGA,000817.00,4437.5839,N,12402.8879,W,1,08,1.0,30.1,M,-21.8,M,,*65
2021-07-19 00:08:19Z, 6cda8203-a249-e411-b0cc-f8bc1246af59, $GPGGA,000818.00,4437.5839,N,12402.8877,W,1,08,1.0,30.2,M,-21.8,M,,*67
2021-07-19 00:08:21Z, 6cda8203-a249-e411-b0cc-f8bc1246af59, $GPGGA,000820.00,4437.5838,N,12402.8874,W,1,08,1.0,30.2,M,-21.8,M,,*6E
2021-07-19 00:08:22Z, 6cda8203-a249-e411-b0cc-f8bc1246af59, $GPGGA,000821.00,4437.5838,N,12402.8874,W,1,08,1.0,30.2,M,-21.8,M,,*6F
2021-07-19 00:08:24Z, 6cda8203-a249-e411-b0cc-f8bc1246af59, $GPGGA,000823.00,4437.5838,N,12402.8873,W,1,08,1.0,30.1,M,-21.8,M,,*69
2021-07-19 00:08:25Z, 6cda8203-a249-e411-b0cc-f8bc1246af59, $GPGGA,000824.00,4437.5838,N,12402.8872,W,1,08,1.0,30.1,M,-21.8,M,,*6F
2021-07-19 00:08:27Z, 6cda8203-a249-e411-b0cc-f8bc1246af59, $GPGGA,000826.00,4437.5835,N,12402.8871,W,1,08,1.0,30.2,M,-21.8,M,,*60
2021-07-19 00:08:28Z, 6cda8203-a249-e411-b0cc-f8bc1246af59, $GPGGA,000827.00,4437.5835,N,12402.8870,W,1,08,1.0,30.2,M,-21.8,M,,*60
2021-07-19 00:08:30Z, 6cda8203-a249-e411-b0cc-f8bc1246af59, $GPGGA,000829.00,4437.5834,N,12402.8870,W,1,08,1.0,30.3,M,-21.8,M,,*6E
2021-07-19 00:08:31Z, 6cda8203-a249-e411-b0cc-f8bc1246af59, $GPGGA,000830.00,4437.5833,N,12402.8868,W,1,08,1.0,30.4,M,-21.8,M,,*6F
2021-07-19 00:08:33Z, 6cda8203-a249-e411-b0cc-f8bc1246af59, $GPGGA,000832.00,4437.5833,N,12402.8868,W,1,08,1.0,30.4,M,-21.8,M,,*6D
2021-07-19 00:08:34Z, 6cda8203-a249-e411-b0cc-f8bc1246af59, $GPGGA,000833.00,4437.5832,N,12402.8869,W,1,08,1.0,30.4,M,-21.8,M,,*6C
2021-07-19 00:08:36Z, 6cda8203-a249-e411-b0cc-f8bc1246af59, $GPGGA,000835.00,4437.5830,N,12402.8870,W,1,08,1.0,30.6,M,-21.8,M,,*62
2021-07-19 00:08:37Z, 6cda8203-a249-e411-b0cc-f8bc1246af59, $GPGGA,000836.00,4437.5831,N,12402.8869,W,1,08,1.0,30.6,M,-21.8,M,,*68
2021-07-19 00:08:39Z, 6cda8203-a249-e411-b0cc-f8bc1246af59, $GPGGA,000838.00,4437.5829,N,12402.8870,W,1,08,1.0,30.6,M,-21.8,M,,*67
2021-07-19 00:08:40Z, 6cda8203-a249-e411-b0cc-f8bc1246af59, $GPGGA,000839.00,4437.5830,N,12402.8871,W,1,08,1.0,30.6,M,-21.8,M,,*6F
2021-07-19 00:08:42Z, 6cda8203-a249-e411-b0cc-f8bc1246af59, $GPGGA,000841.00,4437.5828,N,12402.8874,W,1,08,1.0,30.5,M,-21.8,M,,*6F
2021-07-19 00:08:43Z, 6cda8203-a249-e411-b0cc-f8bc1246af59, $GPGGA,000842.00,4437.5827,N,12402.8873,W,1,08,1.0,30.5,M,-21.8,M,,*64
2021-07-19 00:08:45Z, 6cda8203-a249-e411-b0cc-f8bc1246af59, $GPGGA,000844.00,4437.5824,N,12402.8877,W,1,08,1.0,30.5,M,-21.8,M,,*65
2021-07-19 00:08:46Z, 6cda8203-a249-e411-b0cc-f8bc1246af59, $GPGGA,000845.00,4437.5822,N,12402.8877,W,1,08,1.0,30.4,M,-21.8,M,,*63
2021-07-19 00:08:48Z, 6cda8203-a249-e411-b0cc-f8bc1246af59, $GPGGA,000847.00,4437.5823,N,12402.8877,W,1,08,1.0,30.5,M,-21.8,M,,*61
2021-07-19 00:08:49Z, 6cda8203-a249-e411-b0cc-f8bc1246af59, $GPGGA,000848.00,4437.5822,N,12402.8876,W,1,08,1.0,30.4,M,-21.8,M,,*6F
2021-07-19 00:08:51Z, 6cda8203-a249-e411-b0cc-f8bc1246af59, $GPGGA,000850.00,4437.5823,N,12402.8878,W,1,08,1.0,30.2,M,-21.8,M,,*6F
2021-07-19 00:08:52Z, 6cda8203-a249-e411-b0cc-f8bc1246af59, $GPGGA,000851.00,4437.5825,N,12402.8879,W,1,08,1.0,30.2,M,-21.8,M,,*69
2021-07-19 00:08:54Z, 6cda8203-a249-e411-b0cc-f8bc1246af59, $GPGGA,000853.00,4437.5827,N,12402.8876,W,1,08,1.0,29.9,M,-21.8,M,,*65
2021-07-19 00:08:55Z, 6cda8203-a249-e411-b0cc-f8bc1246af59, $GPGGA,000854.00,4437.5827,N,12402.8877,W,1,08,1.0,29.9,M,-21.8,M,,*63
2021-07-19 00:08:57Z, 6cda8203-a249-e411-b0cc-f8bc1246af59, $GPGGA,000856.00,4437.5826,N,12402.8879,W,1,08,1.0,29.8,M,-21.8,M,,*6F
2021-07-19 00:08:58Z, 6cda8203-a249-e411-b0cc-f8bc1246af59, $GPGGA,000857.00,4437.5826,N,12402.8879,W,1,08,1.0,29.8,M,-21.8,M,,*6E
2021-07-19 00:09:00Z, 6cda8203-a249-e411-b0cc-f8bc1246af59, $GPGGA,000859.00,4437.5826,N,12402.8879,W,1,08,1.0,29.7,M,-21.8,M,,*6F
2021-07-19 00:09:01Z, 6cda8203-a249-e411-b0cc-f8bc1246af59, $GPGGA,000900.00,4437.5827,N,12402.8877,W,1,08,1.0,29.7,M,-21.8,M,,*6D
2021-07-19 00:09:03Z, 6cda8203-a249-e411-b0cc-f8bc1246af59, $GPGGA,000902.00,4437.5822,N,12402.8884,W,1,08,1.0,29.4,M,-21.8,M,,*65
2021-07-19 00:09:04Z, 6cda8203-a249-e411-b0cc-f8bc1246af59, $GPGGA,000903.00,4437.5822,N,12402.8884,W,1,08,1.0,29.3,M,-21.8,M,,*63
2021-07-19 00:09:06Z, 6cda8203-a249-e411-b0cc-f8bc1246af59, $GPGGA,000905.00,4437.5820,N,12402.8881,W,1,08,1.0,29.3,M,-21.8,M,,*62
2021-07-19 00:09:07Z, 6cda8203-a249-e411-b0cc-f8bc1246af59, $GPGGA,000906.00,4437.5818,N,12402.8879,W,1,08,1.0,29.4,M,-21.8,M,,*6A
2021-07-19 00:09:09Z, 6cda8203-a249-e411-b0cc-f8bc1246af59, $GPGGA,000908.00,4437.5817,N,12402.8878,W,1,08,1.0,29.3,M,-21.8,M,,*6D
2021-07-19 00:09:10Z, 6cda8203-a249-e411-b0cc-f8bc1246af59, $GPGGA,000909.00,4437.5817,N,12402.8876,W,1,08,1.0,29.2,M,-21.8,M,,*63
2021-07-19 00:09:12Z, 6cda8203-a249-e411-b0cc-f8bc1246af59, $GPGGA,000911.00,4437.5815,N,12402.8876,W,1,08,1.0,29.1,M,-21.8,M,,*6B
2021-07-19 00:09:13Z, 6cda8203-a249-e411-b0cc-f8bc1246af59, $GPGGA,000912.00,4437.5815,N,12402.8875,W,1,08,1.0,28.9,M,-21.8,M,,*62
2021-07-19 00:09:15Z, 6cda8203-a249-e411-b0cc-f8bc1246af59, $GPGGA,000914.00,4437.5813,N,12402.8875,W,1,08,1.0,28.7,M,-21.8,M,,*6C
2021-07-19 00:09:16Z, 6cda8203-a249-e411-b0cc-f8bc1246af59, $GPGGA,000915.00,4437.5813,N,12402.8877,W,1,08,1.0,28.5,M,-21.8,M,,*6D
2021-07-19 00:09:18Z, 6cda8203-a249-e411-b0cc-f8bc1246af59, $GPGGA,000917.00,4437.5813,N,12402.8876,W,1,08,1.0,28.3,M,-21.8,M,,*68
2021-07-19 00:09:19Z, 6cda8203-a249-e411-b0cc-f8bc1246af59, $GPGGA,000918.00,4437.5814,N,12402.8879,W,1,08,1.0,28.2,M,-21.8,M,,*6E
2021-07-19 00:09:21Z, 6cda8203-a249-e411-b0cc-f8bc1246af59, $GPGGA,000920.00,4437.5814,N,12402.8881,W,1,08,1.0,28.0,M,-21.8,M,,*60
2021-07-19 00:09:22Z, 6cda8203-a249-e411-b0cc-f8bc1246af59, $GPGGA,000921.00,4437.5814,N,12402.8883,W,1,08,1.0,28.0,M,-21.8,M,,*63
2021-07-19 00:09:24Z, 6cda8203-a249-e411-b0cc-f8bc1246af59, $GPGGA,000923.00,4437.5814,N,12402.8888,W,1,08,1.0,28.0,M,-21.8,M,,*6A
2021-07-19 00:09:25Z, 6cda8203-a249-e411-b0cc-f8bc1246af59, $GPGGA,000924.00,4437.5816,N,12402.8889,W,1,08,1.0,28.0,M,-21.8,M,,*6E
2021-07-19 00:09:27Z, 6cda8203-a249-e411-b0cc-f8bc1246af59, $GPGGA,000926.00,4437.5817,N,12402.8891,W,1,08,1.0,28.0,M,-21.8,M,,*64
2021-07-19 00:09:28Z, 6cda8203-a249-e411-b0cc-f8bc1246af59, $GPGGA,000927.00,4437.5819,N,12402.8893,W,1,08,1.0,28.1,M,-21.8,M,,*68
2021-07-19 00:09:30Z, 6cda8203-a249-e411-b0cc-f8bc1246af59, $GPGGA,000929.00,4437.5822,N,12402.8895,W,1,08,1.0,28.0,M,-21.8,M,,*69
2021-07-19 00:09:31Z, 6cda8203-a249-e411-b0cc-f8bc1246af59, $GPGGA,000930.00,4437.5824,N,12402.8897,W,1,08,1.0,28.0,M,-21.8,M,,*65
2021-07-19 00:09:33Z, 6cda8203-a249-e411-b0cc-f8bc1246af59, $GPGGA,000932.00,4437.5828,N,12402.8898,W,1,08,1.0,28.1,M,-21.8,M,,*65
2021-07-19 00:09:34Z, 6cda8203-a249-e411-b0cc-f8bc1246af59, $GPGGA,000933.00,4437.5830,N,12402.8899,W,1,08,1.0,28.0,M,-21.8,M,,*6D
2021-07-19 00:09:36Z, 6cda8203-a249-e411-b0cc-f8bc1246af59, $GPGGA,000935.00,4437.5832,N,12402.8898,W,1,08,1.0,28.2,M,-21.8,M,,*6A
2021-07-19 00:09:37Z, 6cda8203-a249-e411-b0cc-f8bc1246af59, $GPGGA,000936.00,4437.5834,N,12402.8899,W,1,08,1.0,28.2,M,-21.8,M,,*6E
2021-07-19 00:09:39Z, 6cda8203-a249-e411-b0cc-f8bc1246af59, $GPGGA,000938.00,4437.5838,N,12402.8901,W,1,08,1.0,28.4,M,-21.8,M,,*6A
2021-07-19 00:09:40Z, 6cda8203-a249-e411-b0cc-f8bc1246af59, $GPGGA,000939.00,4437.5837,N,12402.8899,W,1,08,1.0,28.4,M,-21.8,M,,*64
2021-07-19 00:09:42Z, 6cda8203-a249-e411-b0cc-f8bc1246af59, $GPGGA,000941.00,4437.5840,N,12402.8898,W,1,08,1.0,28.4,M,-21.8,M,,*6A
2021-07-19 00:09:43Z, 6cda8203-a249-e411-b0cc-f8bc1246af59, $GPGGA,000942.00,4437.5841,N,12402.8896,W,1,08,1.0,28.5,M,-21.8,M,,*67
2021-07-19 00:09:44Z, 6cda8203-a249-e411-b0cc-f8bc1246af59, $GPGGA,000943.00,4437.5843,N,12402.8893,W,1,08,1.0,28.5,M,-21.8,M,,*61
2021-07-19 00:09:45Z, 6cda8203-a249-e411-b0cc-f8bc1246af59, $GPGGA,000944.00,4437.5845,N,12402.8892,W,1,08,1.0,28.6,M,-21.8,M,,*62
2021-07-19 00:09:46Z, 6cda8203-a249-e411-b0cc-f8bc1246af59, $GPGGA,000945.00,4437.5845,N,12402.8891,W,1,08,1.0,28.4,M,-21.8,M,,*62
2021-07-19 00:09:47Z, 6cda8203-a249-e411-b0cc-f8bc1246af59, $GPGGA,000946.00,4437.5845,N,12402.8890,W,1,08,1.0,28.4,M,-21.8,M,,*60
2021-07-19 00:09:49Z, 6cda8203-a249-e411-b0cc-f8bc1246af59, $GPGGA,000947.00,4437.5844,N,12402.8891,W,1,08,1.0,28.3,M,-21.8,M,,*66
2021-07-19 00:09:50Z, 6cda8203-a249-e411-b0cc-f8bc1246af59, $GPGGA,000949.00,4437.5845,N,12402.8891,W,1,08,1.0,28.3,M,-21.8,M,,*69
2021-07-19 00:09:51Z, 6cda8203-a249-e411-b0cc-f8bc1246af59, $GPGGA,000950.00,4437.5845,N,12402.8890,W,1,08,1.0,28.3,M,-21.8,M,,*60
2021-07-19 00:09:53Z, 6cda8203-a249-e411-b0cc-f8bc1246af59, $GPGGA,000952.00,4437.5845,N,12402.8889,W,1,08,1.0,28.3,M,-21.8,M,,*6A
2021-07-19 00:09:54Z, 6cda8203-a249-e411-b0cc-f8bc1246af59, $GPGGA,000953.00,4437.5844,N,12402.8888,W,1,08,1.0,28.3,M,-21.8,M,,*6B
2021-07-19 00:09:56Z, 6cda8203-a249-e411-b0cc-f8bc1246af59, $GPGGA,000955.00,4437.5845,N,12402.8888,W,1,08,1.0,28.3,M,-21.8,M,,*6C
2021-07-19 00:09:57Z, 6cda8203-a249-e411-b0cc-f8bc1246af59, $GPGGA,000956.00,4437.5845,N,12402.8888,W,1,08,1.0,28.3,M,-21.8,M,,*6F
2021-07-19 00:09:59Z, 6cda8203-a249-e411-b0cc-f8bc1246af59, $GPGGA,000958.00,4437.5842,N,12402.8886,W,1,08,1.0,28.3,M,-21.8,M,,*68
2021-07-19 00:10:00Z, 6cda8203-a249-e411-b0cc-f8bc1246af59, $GPGGA,000959.00,4437.5841,N,12402.8885,W,1,08,1.0,28.3,M,-21.8,M,,*69
2021-07-19 00:10:02Z, 6cda8203-a249-e411-b0cc-f8bc1246af59, $GPGGA,001001.00,4437.5841,N,12402.8893,W,1,08,1.0,28.2,M,-21.8,M,,*6A
2021-07-19 00:10:03Z, 6cda8203-a249-e411-b0cc-f8bc1246af59, $GPGGA,001002.00,4437.5841,N,12402.8897,W,1,08,1.0,28.2,M,-21.8,M,,*6D
2021-07-19 00:10:05Z, 6cda8203-a249-e411-b0cc-f8bc1246af59, $GPGGA,001004.00,4437.5838,N,12402.8903,W,1,08,1.0,28.1,M,-21.8,M,,*6A
2021-07-19 00:10:06Z, 6cda8203-a249-e411-b0cc-f8bc1246af59, $GPGGA,001005.00,4437.5835,N,12402.8904,W,1,08,1.0,27.9,M,-21.8,M,,*66
2021-07-19 00:10:08Z, 6cda8203-a249-e411-b0cc-f8bc1246af59, $GPGGA,001007.00,4437.5834,N,12402.8905,W,1,08,1.0,27.6,M,-21.8,M,,*6B
2021-07-19 00:10:09Z, 6cda8203-a249-e411-b0cc-f8bc1246af59, $GPGGA,001008.00,4437.5834,N,12402.8908,W,1,08,1.0,27.6,M,-21.8,M,,*69
2021-07-19 00:10:11Z, 6cda8203-a249-e411-b0cc-f8bc1246af59, $GPGGA,001010.00,4437.5835,N,12402.8912,W,1,08,1.0,27.5,M,-21.8,M,,*69
2021-07-19 00:10:12Z, 6cda8203-a249-e411-b0cc-f8bc1246af59, $GPGGA,001011.00,4437.5837,N,12402.8913,W,1,08,1.0,27.5,M,-21.8,M,,*6B
2021-07-19 00:10:14Z, 6cda8203-a249-e411-b0cc-f8bc1246af59, $GPGGA,001013.00,4437.5840,N,12402.8916,W,1,08,1.0,27.5,M,-21.8,M,,*6C
2021-07-19 00:10:15Z, 6cda8203-a249-e411-b0cc-f8bc1246af59, $GPGGA,001014.00,4437.5841,N,12402.8918,W,1,08,1.0,27.5,M,-21.8,M,,*64
2021-07-19 00:10:17Z, 6cda8203-a249-e411-b0cc-f8bc1246af59, $GPGGA,001016.00,4437.5842,N,12402.8921,W,1,08,1.0,27.6,M,-21.8,M,,*6C
2021-07-19 00:10:18Z, 6cda8203-a249-e411-b0cc-f8bc1246af59, $GPGGA,001017.00,4437.5839,N,12402.8932,W,1,08,1.0,27.4,M,-21.8,M,,*61
2021-07-19 00:10:20Z, 6cda8203-a249-e411-b0cc-f8bc1246af59, $GPGGA,001019.00,4437.5838,N,12402.8933,W,1,08,1.0,27.3,M,-21.8,M,,*68
2021-07-19 00:10:21Z, 6cda8203-a249-e411-b0cc-f8bc1246af59, $GPGGA,001020.00,4437.5839,N,12402.8934,W,1,08,1.0,27.3,M,-21.8,M,,*64
2021-07-19 00:10:23Z, 6cda8203-a249-e411-b0cc-f8bc1246af59, $GPGGA,001022.00,4437.5840,N,12402.8933,W,1,08,1.0,27.5,M,-21.8,M,,*69
2021-07-19 00:10:24Z, 6cda8203-a249-e411-b0cc-f8bc1246af59, $GPGGA,001023.00,4437.5840,N,12402.8934,W,1,08,1.0,27.7,M,-21.8,M,,*6D
2021-07-19 00:10:26Z, 6cda8203-a249-e411-b0cc-f8bc1246af59, $GPGGA,001025.00,4437.5839,N,12402.8933,W,1,08,1.0,27.8,M,-21.8,M,,*6D
2021-07-19 00:10:27Z, 6cda8203-a249-e411-b0cc-f8bc1246af59, $GPGGA,001026.00,4437.5841,N,12402.8932,W,1,08,1.0,27.9,M,-21.8,M,,*61
2021-07-19 00:10:29Z, 6cda8203-a249-e411-b0cc-f8bc1246af59, $GPGGA,001028.00,4437.5841,N,12402.8928,W,1,08,1.0,27.9,M,-21.8,M,,*64
2021-07-19 00:10:30Z, 6cda8203-a249-e411-b0cc-f8bc1246af59, $GPGGA,001029.00,4437.5843,N,12402.8928,W,1,08,1.0,28.2,M,-21.8,M,,*63
2021-07-19 00:10:32Z, 6cda8203-a249-e411-b0cc-f8bc1246af59, $GPGGA,001031.00,4437.5845,N,12402.8926,W,1,08,1.0,28.2,M,-21.8,M,,*62
2021-07-19 00:10:33Z, 6cda8203-a249-e411-b0cc-f8bc1246af59, $GPGGA,001032.00,4437.5844,N,12402.8927,W,1,08,1.0,28.3,M,-21.8,M,,*60
2021-07-19 00:10:35Z, 6cda8203-a249-e411-b0cc-f8bc1246af59, $GPGGA,001034.00,4437.5842,N,12402.8929,W,1,08,1.0,28.4,M,-21.8,M,,*69
2021-07-19 00:10:36Z, 6cda8203-a249-e411-b0cc-f8bc1246af59, $GPGGA,001035.00,4437.5841,N,12402.8929,W,1,08,1.0,28.4,M,-21.8,M,,*6B
2021-07-19 00:10:38Z, 6cda8203-a249-e411-b0cc-f8bc1246af59, $GPGGA,001037.00,4437.5842,N,12402.8927,W,1,08,1.0,28.3,M,-21.8,M,,*63
2021-07-19 00:10:39Z, 6cda8203-a249-e411-b0cc-f8bc1246af59, $GPGGA,001038.00,4437.5842,N,12402.8924,W,1,08,1.0,28.3,M,-21.8,M,,*6F
2021-07-19 00:10:41Z, 6cda8203-a249-e411-b0cc-f8bc1246af59, $GPGGA,001040.00,4437.5841,N,12402.8919,W,1,08,1.0,28.3,M,-21.8,M,,*6D
2021-07-19 00:10:42Z, 6cda8203-a249-e411-b0cc-f8bc1246af59, $GPGGA,001041.00,4437.5841,N,12402.8918,W,1,08,1.0,28.3,M,-21.8,M,,*6D
2021-07-19 00:10:44Z, 6cda8203-a249-e411-b0cc-f8bc1246af59, $GPGGA,001043.00,4437.5841,N,12402.8914,W,1,08,1.0,28.4,M,-21.8,M,,*64
2021-07-19 00:10:45Z, 6cda8203-a249-e411-b0cc-f8bc1246af59, $GPGGA,001044.00,4437.5841,N,12402.8913,W,1,08,1.0,28.4,M,-21.8,M,,*64
2021-07-19 00:10:47Z, 6cda8203-a249-e411-b0cc-f8bc1246af59, $GPGGA,001046.00,4437.5841,N,12402.8912,W,1,08,1.0,28.4,M,-21.8,M,,*67
2021-07-19 00:10:48Z, 6cda8203-a249-e411-b0cc-f8bc1246af59, $GPGGA,001047.00,4437.5843,N,12402.8914,W,1,08,1.0,28.4,M,-21.8,M,,*62
2021-07-19 00:10:50Z, 6cda8203-a249-e411-b0cc-f8bc1246af59, $GPGGA,001049.00,4437.5841,N,12402.8913,W,1,08,1.0,28.5,M,-21.8,M,,*68
2021-07-19 00:10:51Z, 6cda8203-a249-e411-b0cc-f8bc1246af59, $GPGGA,001050.00,4437.5840,N,12402.8913,W,1,08,1.0,28.6,M,-21.8,M,,*62
2021-07-19 00:10:53Z, 6cda8203-a249-e411-b0cc-f8bc1246af59, $GPGGA,001052.00,4437.5840,N,12402.8914,W,1,08,1.0,28.5,M,-21.8,M,,*64
2021-07-19 00:10:54Z, 6cda8203-a249-e411-b0cc-f8bc1246af59, $GPGGA,001053.00,4437.5841,N,12402.8913,W,1,08,1.0,28.6,M,-21.8,M,,*60
2021-07-19 00:10:56Z, 6cda8203-a249-e411-b0cc-f8bc1246af59, $GPGGA,001055.00,4437.5842,N,12402.8910,W,1,08,1.0,28.5,M,-21.8,M,,*65
2021-07-19 00:10:57Z, 6cda8203-a249-e411-b0cc-f8bc1246af59, $GPGGA,001056.00,4437.5841,N,12402.8911,W,1,08,1.0,28.5,M,-21.8,M,,*64
2021-07-19 00:10:59Z, 6cda8203-a249-e411-b0cc-f8bc1246af59, $GPGGA,001058.00,4437.5841,N,12402.8910,W,1,08,1.0,28.5,M,-21.8,M,,*6B
2021-07-19 00:11:00Z, 6cda8203-a249-e411-b0cc-f8bc1246af59, $GPGGA,001059.00,4437.5840,N,12402.8909,W,1,08,1.0,28.4,M,-21.8,M,,*62
2021-07-19 00:11:02Z, 6cda8203-a249-e411-b0cc-f8bc1246af59, $GPGGA,001101.00,4437.5837,N,12402.8913,W,1,08,1.0,28.3,M,-21.8,M,,*62
