ACQ Timestamp (Server Time in UTC), MessageID, Data Value For: GNSS-6452-$GPGGA
2021-06-15 14:11:18Z, 6cda8203-a249-e411-b0cc-f8bc1246af59, $GPGGA,141117.00,4437.5836,N,12402.8833,W,1,10,1.0,30.1,M,-21.8,M,,*60
2021-06-15 14:11:19Z, 6cda8203-a249-e411-b0cc-f8bc1246af59, $GPGGA,141118.00,4437.5835,N,12402.8831,W,1,10,1.0,30.3,M,-21.8,M,,*6C
2021-06-15 14:11:21Z, 6cda8203-a249-e411-b0cc-f8bc1246af59, $GPGGA,141120.00,4437.5836,N,12402.8827,W,1,10,1.0,30.3,M,-21.8,M,,*63
2021-06-15 14:11:22Z, 6cda8203-a249-e411-b0cc-f8bc1246af59, $GPGGA,141121.00,4437.5836,N,12402.8826,W,1,10,1.0,30.3,M,-21.8,M,,*63
2021-06-15 14:11:24Z, 6cda8203-a249-e411-b0cc-f8bc1246af59, $GPGGA,141123.00,4437.5836,N,12402.8825,W,1,10,1.0,30.5,M,-21.8,M,,*64
2021-06-15 14:11:25Z, 6cda8203-a249-e411-b0cc-f8bc1246af59, $GPGGA,141124.00,4437.5837,N,12402.8826,W,1,10,1.0,30.6,M,-21.8,M,,*62
2021-06-15 14:11:27Z, 6cda8203-a249-e411-b0cc-f8bc1246af59, $GPGGA,141126.00,4437.5835,N,12402.8824,W,1,10,1.0,30.8,M,-21.8,M,,*6E
2021-06-15 14:11:28Z, 6cda8203-a249-e411-b0cc-f8bc1246af59, $GPGGA,141127.00,4437.5834,N,12402.8825,W,1,10,1.0,30.9,M,-21.8,M,,*6E
2021-06-15 14:11:30Z, 6cda8203-a249-e411-b0cc-f8bc1246af59, $GPGGA,141129.00,4437.5832,N,12402.8823,W,1,10,1.0,31.1,M,-21.8,M,,*69
2021-06-15 14:11:31Z, 6cda8203-a249-e411-b0cc-f8bc1246af59, $GPGGA,141130.00,4437.5834,N,12402.8822,W,1,10,1.0,31.2,M,-21.8,M,,*65
2021-06-15 14:11:33Z, 6cda8203-a249-e411-b0cc-f8bc1246af59, $GPGGA,141132.00,4437.5834,N,12402.8824,W,1,10,1.0,31.5,M,-21.8,M,,*66
2021-06-15 14:11:34Z, 6cda8203-a249-e411-b0cc-f8bc1246af59, $GPGGA,141133.00,4437.5835,N,12402.8824,W,1,10,1.0,31.6,M,-21.8,M,,*65
2021-06-15 14:11:36Z, 6cda8203-a249-e411-b0cc-f8bc1246af59, $GPGGA,141135.00,4437.5837,N,12402.8823,W,1,10,1.0,31.5,M,-21.8,M,,*65
2021-06-15 14:11:37Z, 6cda8203-a249-e411-b0cc-f8bc1246af59, $GPGGA,141136.00,4437.5837,N,12402.8822,W,1,10,1.0,31.5,M,-21.8,M,,*67
2021-06-15 14:11:39Z, 6cda8203-a249-e411-b0cc-f8bc1246af59, $GPGGA,141138.00,4437.5838,N,12402.8822,W,1,10,1.0,31.6,M,-21.8,M,,*65
2021-06-15 14:11:40Z, 6cda8203-a249-e411-b0cc-f8bc1246af59, $GPGGA,141139.00,4437.5839,N,12402.8823,W,1,10,1.0,31.5,M,-21.8,M,,*67
2021-06-15 14:11:42Z, 6cda8203-a249-e411-b0cc-f8bc1246af59, $GPGGA,141141.00,4437.5841,N,12402.8823,W,1,10,1.0,31.5,M,-21.8,M,,*67
2021-06-15 14:11:43Z, 6cda8203-a249-e411-b0cc-f8bc1246af59, $GPGGA,141142.00,4437.5840,N,12402.8823,W,1,10,1.0,31.6,M,-21.8,M,,*66
2021-06-15 14:11:45Z, 6cda8203-a249-e411-b0cc-f8bc1246af59, $GPGGA,141144.00,4437.5842,N,12402.8824,W,1,10,1.0,31.6,M,-21.8,M,,*65
2021-06-15 14:11:46Z, 6cda8203-a249-e411-b0cc-f8bc1246af59, $GPGGA,141145.00,4437.5840,N,12402.8826,W,1,10,1.0,31.6,M,-21.8,M,,*64
2021-06-15 14:11:48Z, 6cda8203-a249-e411-b0cc-f8bc1246af59, $GPGGA,141147.00,4437.5844,N,12402.8822,W,1,10,1.0,31.6,M,-21.8,M,,*66
2021-06-15 14:11:49Z, 6cda8203-a249-e411-b0cc-f8bc1246af59, $GPGGA,141148.00,4437.5844,N,12402.8820,W,1,10,1.0,31.5,M,-21.8,M,,*68
2021-06-15 14:11:51Z, 6cda8203-a249-e411-b0cc-f8bc1246af59, $GPGGA,141150.00,4437.5846,N,12402.8818,W,1,10,1.0,31.6,M,-21.8,M,,*6B
2021-06-15 14:11:52Z, 6cda8203-a249-e411-b0cc-f8bc1246af59, $GPGGA,141151.00,4437.5847,N,12402.8815,W,1,10,1.0,31.6,M,-21.8,M,,*66
2021-06-15 14:11:54Z, 6cda8203-a249-e411-b0cc-f8bc1246af59, $GPGGA,141153.00,4437.5849,N,12402.8809,W,1,10,1.0,31.5,M,-21.8,M,,*64
2021-06-15 14:11:55Z, 6cda8203-a249-e411-b0cc-f8bc1246af59, $GPGGA,141154.00,4437.5851,N,12402.8809,W,1,09,1.0,31.5,M,-21.8,M,,*62
2021-06-15 14:11:57Z, 6cda8203-a249-e411-b0cc-f8bc1246af59, $GPGGA,141156.00,4437.5854,N,12402.8809,W,1,09,1.0,31.5,M,-21.8,M,,*65
2021-06-15 14:11:58Z, 6cda8203-a249-e411-b0cc-f8bc1246af59, $GPGGA,141157.00,4437.5855,N,12402.8809,W,1,09,1.0,31.5,M,-21.8,M,,*65
2021-06-15 14:12:00Z, 6cda8203-a249-e411-b0cc-f8bc1246af59, $GPGGA,141159.00,4437.5854,N,12402.8808,W,1,10,1.0,31.5,M,-21.8,M,,*63
2021-06-15 14:12:01Z, 6cda8203-a249-e411-b0cc-f8bc1246af59, $GPGGA,141200.00,4437.5853,N,12402.8806,W,1,10,1.0,31.6,M,-21.8,M,,*66
2021-06-15 14:12:03Z, 6cda8203-a249-e411-b0cc-f8bc1246af59, $GPGGA,141202.00,4437.5851,N,12402.8804,W,1,10,1.0,31.6,M,-21.8,M,,*64
2021-06-15 14:12:04Z, 6cda8203-a249-e411-b0cc-f8bc1246af59, $GPGGA,141203.00,4437.5850,N,12402.8804,W,1,10,1.0,31.6,M,-21.8,M,,*64
2021-06-15 14:12:06Z, 6cda8203-a249-e411-b0cc-f8bc1246af59, $GPGGA,141205.00,4437.5850,N,12402.8806,W,1,10,1.0,31.6,M,-21.8,M,,*60
2021-06-15 14:12:07Z, 6cda8203-a249-e411-b0cc-f8bc1246af59, $GPGGA,141206.00,4437.5853,N,12402.8804,W,1,10,1.0,32.0,M,-21.8,M,,*67
2021-06-15 14:12:09Z, 6cda8203-a249-e411-b0cc-f8bc1246af59, $GPGGA,141208.00,4437.5853,N,12402.8806,W,1,10,1.0,32.1,M,-21.8,M,,*6A
2021-06-15 14:12:10Z, 6cda8203-a249-e411-b0cc-f8bc1246af59, $GPGGA,141209.00,4437.5854,N,12402.8807,W,1,10,1.0,32.1,M,-21.8,M,,*6D
2021-06-15 14:12:12Z, 6cda8203-a249-e411-b0cc-f8bc1246af59, $GPGGA,141211.00,4437.5852,N,12402.8809,W,1,10,1.0,32.0,M,-21.8,M,,*6D
2021-06-15 14:12:13Z, 6cda8203-a249-e411-b0cc-f8bc1246af59, $GPGGA,141212.00,4437.5852,N,12402.8813,W,1,10,1.0,32.0,M,-21.8,M,,*65
2021-06-15 14:12:15Z, 6cda8203-a249-e411-b0cc-f8bc1246af59, $GPGGA,141214.00,4437.5851,N,12402.8818,W,1,10,1.0,31.9,M,-21.8,M,,*61
2021-06-15 14:12:16Z, 6cda8203-a249-e411-b0cc-f8bc1246af59, $GPGGA,141215.00,4437.5851,N,12402.8821,W,1,10,1.0,31.9,M,-21.8,M,,*6A
2021-06-15 14:12:18Z, 6cda8203-a249-e411-b0cc-f8bc1246af59, $GPGGA,141217.00,4437.5847,N,12402.8826,W,1,10,1.0,31.9,M,-21.8,M,,*68
2021-06-15 14:12:19Z, 6cda8203-a249-e411-b0cc-f8bc1246af59, $GPGGA,141218.00,4437.5846,N,12402.8828,W,1,10,1.0,31.9,M,-21.8,M,,*68
2021-06-15 14:12:21Z, 6cda8203-a249-e411-b0cc-f8bc1246af59, $GPGGA,141220.00,4437.5837,N,12402.8832,W,1,10,1.0,32.1,M,-21.8,M,,*65
2021-06-15 14:12:22Z, 6cda8203-a249-e411-b0cc-f8bc1246af59, $GPGGA,141221.00,4437.5833,N,12402.8833,W,1,10,1.0,32.2,M,-21.8,M,,*62
2021-06-15 14:12:24Z, 6cda8203-a249-e411-b0cc-f8bc1246af59, $GPGGA,141223.00,4437.5834,N,12402.8833,W,1,10,1.0,32.4,M,-21.8,M,,*61
2021-06-15 14:12:25Z, 6cda8203-a249-e411-b0cc-f8bc1246af59, $GPGGA,141224.00,4437.5835,N,12402.8832,W,1,10,1.0,32.5,M,-21.8,M,,*67
2021-06-15 14:12:27Z, 6cda8203-a249-e411-b0cc-f8bc1246af59, $GPGGA,141226.00,4437.5836,N,12402.8833,W,1,10,1.0,32.7,M,-21.8,M,,*65
2021-06-15 14:12:28Z, 6cda8203-a249-e411-b0cc-f8bc1246af59, $GPGGA,141227.00,4437.5837,N,12402.8836,W,1,10,1.0,32.5,M,-21.8,M,,*62
2021-06-15 14:12:30Z, 6cda8203-a249-e411-b0cc-f8bc1246af59, $GPGGA,141229.00,4437.5839,N,12402.8838,W,1,10,1.0,32.7,M,-21.8,M,,*6E
2021-06-15 14:12:31Z, 6cda8203-a249-e411-b0cc-f8bc1246af59, $GPGGA,141230.00,4437.5840,N,12402.8840,W,1,10,1.0,32.6,M,-21.8,M,,*66
2021-06-15 14:12:33Z, 6cda8203-a249-e411-b0cc-f8bc1246af59, $GPGGA,141232.00,4437.5842,N,12402.8842,W,1,10,1.0,32.5,M,-21.8,M,,*67
2021-06-15 14:12:34Z, 6cda8203-a249-e411-b0cc-f8bc1246af59, $GPGGA,141233.00,4437.5841,N,12402.8843,W,1,10,1.0,32.4,M,-21.8,M,,*65
2021-06-15 14:12:36Z, 6cda8203-a249-e411-b0cc-f8bc1246af59, $GPGGA,141235.00,4437.5840,N,12402.8841,W,1,10,1.0,32.1,M,-21.8,M,,*65
2021-06-15 14:12:37Z, 6cda8203-a249-e411-b0cc-f8bc1246af59, $GPGGA,141236.00,4437.5841,N,12402.8840,W,1,10,1.0,32.0,M,-21.8,M,,*67
2021-06-15 14:12:39Z, 6cda8203-a249-e411-b0cc-f8bc1246af59, $GPGGA,141238.00,4437.5844,N,12402.8845,W,1,10,1.0,31.9,M,-21.8,M,,*63
2021-06-15 14:12:40Z, 6cda8203-a249-e411-b0cc-f8bc1246af59, $GPGGA,141239.00,4437.5847,N,12402.8845,W,1,10,1.0,31.8,M,-21.8,M,,*60
2021-06-15 14:12:42Z, 6cda8203-a249-e411-b0cc-f8bc1246af59, $GPGGA,141241.00,4437.5850,N,12402.8843,W,1,10,1.0,31.7,M,-21.8,M,,*60
2021-06-15 14:12:43Z, 6cda8203-a249-e411-b0cc-f8bc1246af59, $GPGGA,141242.00,4437.5853,N,12402.8844,W,1,10,1.0,31.6,M,-21.8,M,,*66
2021-06-15 14:12:45Z, 6cda8203-a249-e411-b0cc-f8bc1246af59, $GPGGA,141244.00,4437.5853,N,12402.8846,W,1,10,1.0,31.5,M,-21.8,M,,*61
2021-06-15 14:12:46Z, 6cda8203-a249-e411-b0cc-f8bc1246af59, $GPGGA,141245.00,4437.5850,N,12402.8846,W,1,10,1.0,31.4,M,-21.8,M,,*62
2021-06-15 14:12:48Z, 6cda8203-a249-e411-b0cc-f8bc1246af59, $GPGGA,141247.00,4437.5849,N,12402.8845,W,1,10,1.0,31.2,M,-21.8,M,,*6D
2021-06-15 14:12:49Z, 6cda8203-a249-e411-b0cc-f8bc1246af59, $GPGGA,141248.00,4437.5846,N,12402.8844,W,1,10,1.0,31.2,M,-21.8,M,,*6C
2021-06-15 14:12:51Z, 6cda8203-a249-e411-b0cc-f8bc1246af59, $GPGGA,141250.00,4437.5844,N,12402.8844,W,1,10,1.0,31.2,M,-21.8,M,,*67
2021-06-15 14:12:52Z, 6cda8203-a249-e411-b0cc-f8bc1246af59, $GPGGA,141251.00,4437.5844,N,12402.8844,W,1,10,1.0,31.2,M,-21.8,M,,*66
2021-06-15 14:12:54Z, 6cda8203-a249-e411-b0cc-f8bc1246af59, $GPGGA,141253.00,4437.5846,N,12402.8849,W,1,10,1.0,31.1,M,-21.8,M,,*68
2021-06-15 14:12:55Z, 6cda8203-a249-e411-b0cc-f8bc1246af59, $GPGGA,141254.00,4437.5847,N,12402.8850,W,1,10,1.0,31.1,M,-21.8,M,,*66
2021-06-15 14:12:57Z, 6cda8203-a249-e411-b0cc-f8bc1246af59, $GPGGA,141256.00,4437.5851,N,12402.8851,W,1,10,1.0,31.1,M,-21.8,M,,*62
2021-06-15 14:12:58Z, 6cda8203-a249-e411-b0cc-f8bc1246af59, $GPGGA,141257.00,4437.5851,N,12402.8853,W,1,10,1.0,31.2,M,-21.8,M,,*62
2021-06-15 14:13:00Z, 6cda8203-a249-e411-b0cc-f8bc1246af59, $GPGGA,141259.00,4437.5852,N,12402.8848,W,1,10,1.0,31.2,M,-21.8,M,,*65
2021-06-15 14:13:01Z, 6cda8203-a249-e411-b0cc-f8bc1246af59, $GPGGA,141300.00,4437.5852,N,12402.8849,W,1,10,1.0,31.2,M,-21.8,M,,*69
2021-06-15 14:13:01Z, 6cda8203-a249-e411-b0cc-f8bc1246af59, $GPGGA,141301.00,4437.5852,N,12402.8852,W,1,10,1.0,31.3,M,-21.8,M,,*63
2021-06-15 14:13:03Z, 6cda8203-a249-e411-b0cc-f8bc1246af59, $GPGGA,141302.00,4437.5852,N,12402.8863,W,1,10,1.0,30.7,M,-21.8,M,,*67
2021-06-15 14:13:04Z, 6cda8203-a249-e411-b0cc-f8bc1246af59, $GPGGA,141303.00,4437.5854,N,12402.8871,W,1,10,1.0,30.5,M,-21.8,M,,*61
2021-06-15 14:13:05Z, 6cda8203-a249-e411-b0cc-f8bc1246af59, $GPGGA,141304.00,4437.5854,N,12402.8873,W,1,10,1.0,30.5,M,-21.8,M,,*64
2021-06-15 14:13:07Z, 6cda8203-a249-e411-b0cc-f8bc1246af59, $GPGGA,141305.00,4437.5855,N,12402.8873,W,1,10,1.0,30.4,M,-21.8,M,,*65
2021-06-15 14:13:08Z, 6cda8203-a249-e411-b0cc-f8bc1246af59, $GPGGA,141307.00,4437.5857,N,12402.8874,W,1,10,1.0,30.0,M,-21.8,M,,*66
2021-06-15 14:13:09Z, 6cda8203-a249-e411-b0cc-f8bc1246af59, $GPGGA,141308.00,4437.5857,N,12402.8874,W,1,10,1.0,29.9,M,-21.8,M,,*68
2021-06-15 14:13:12Z, 6cda8203-a249-e411-b0cc-f8bc1246af59, $GPGGA,141310.00,4437.5858,N,12402.8874,W,1,10,1.0,29.7,M,-21.8,M,,*60
2021-06-15 14:13:13Z, 6cda8203-a249-e411-b0cc-f8bc1246af59, $GPGGA,141311.00,4437.5857,N,12402.8874,W,1,10,1.0,29.6,M,-21.8,M,,*6F
2021-06-15 14:13:14Z, 6cda8203-a249-e411-b0cc-f8bc1246af59, $GPGGA,141313.00,4437.5857,N,12402.8872,W,1,10,1.0,29.5,M,-21.8,M,,*68
2021-06-15 14:13:16Z, 6cda8203-a249-e411-b0cc-f8bc1246af59, $GPGGA,141314.00,4437.5855,N,12402.8874,W,1,10,1.0,29.5,M,-21.8,M,,*6B
2021-06-15 14:13:17Z, 6cda8203-a249-e411-b0cc-f8bc1246af59, $GPGGA,141316.00,4437.5851,N,12402.8877,W,1,10,1.0,29.3,M,-21.8,M,,*68
2021-06-15 14:13:19Z, 6cda8203-a249-e411-b0cc-f8bc1246af59, $GPGGA,141317.00,4437.5851,N,12402.8880,W,1,10,1.0,29.3,M,-21.8,M,,*61
2021-06-15 14:13:20Z, 6cda8203-a249-e411-b0cc-f8bc1246af59, $GPGGA,141319.00,4437.5848,N,12402.8879,W,1,10,1.0,29.2,M,-21.8,M,,*60
2021-06-15 14:13:21Z, 6cda8203-a249-e411-b0cc-f8bc1246af59, $GPGGA,141320.00,4437.5848,N,12402.8876,W,1,10,1.0,29.1,M,-21.8,M,,*66
2021-06-15 14:13:23Z, 6cda8203-a249-e411-b0cc-f8bc1246af59, $GPGGA,141322.00,4437.5846,N,12402.8874,W,1,10,1.0,29.0,M,-21.8,M,,*69
2021-06-15 14:13:24Z, 6cda8203-a249-e411-b0cc-f8bc1246af59, $GPGGA,141323.00,4437.5846,N,12402.8874,W,1,10,1.0,29.0,M,-21.8,M,,*68
2021-06-15 14:13:26Z, 6cda8203-a249-e411-b0cc-f8bc1246af59, $GPGGA,141325.00,4437.5843,N,12402.8875,W,1,10,1.0,28.9,M,-21.8,M,,*62
2021-06-15 14:13:27Z, 6cda8203-a249-e411-b0cc-f8bc1246af59, $GPGGA,141326.00,4437.5842,N,12402.8874,W,1,10,1.0,28.9,M,-21.8,M,,*61
2021-06-15 14:13:29Z, 6cda8203-a249-e411-b0cc-f8bc1246af59, $GPGGA,141328.00,4437.5841,N,12402.8875,W,1,10,1.0,28.8,M,-21.8,M,,*6C
2021-06-15 14:13:30Z, 6cda8203-a249-e411-b0cc-f8bc1246af59, $GPGGA,141329.00,4437.5839,N,12402.8875,W,1,10,1.0,28.7,M,-21.8,M,,*6D
2021-06-15 14:13:32Z, 6cda8203-a249-e411-b0cc-f8bc1246af59, $GPGGA,141331.00,4437.5836,N,12402.8872,W,1,10,1.0,28.5,M,-21.8,M,,*6E
2021-06-15 14:13:33Z, 6cda8203-a249-e411-b0cc-f8bc1246af59, $GPGGA,141332.00,4437.5835,N,12402.8873,W,1,10,1.0,28.4,M,-21.8,M,,*6E
2021-06-15 14:13:35Z, 6cda8203-a249-e411-b0cc-f8bc1246af59, $GPGGA,141334.00,4437.5834,N,12402.8869,W,1,10,1.0,28.4,M,-21.8,M,,*62
2021-06-15 14:13:36Z, 6cda8203-a249-e411-b0cc-f8bc1246af59, $GPGGA,141335.00,4437.5835,N,12402.8869,W,1,10,1.0,28.4,M,-21.8,M,,*62
2021-06-15 14:13:38Z, 6cda8203-a249-e411-b0cc-f8bc1246af59, $GPGGA,141337.00,4437.5832,N,12402.8868,W,1,10,1.0,28.5,M,-21.8,M,,*67
2021-06-15 14:13:39Z, 6cda8203-a249-e411-b0cc-f8bc1246af59, $GPGGA,141338.00,4437.5832,N,12402.8867,W,1,10,1.0,28.5,M,-21.8,M,,*67
2021-06-15 14:13:41Z, 6cda8203-a249-e411-b0cc-f8bc1246af59, $GPGGA,141340.00,4437.5833,N,12402.8865,W,1,10,1.0,28.7,M,-21.8,M,,*69
2021-06-15 14:13:42Z, 6cda8203-a249-e411-b0cc-f8bc1246af59, $GPGGA,141341.00,4437.5833,N,12402.8864,W,1,10,1.0,28.8,M,-21.8,M,,*66
2021-06-15 14:13:44Z, 6cda8203-a249-e411-b0cc-f8bc1246af59, $GPGGA,141343.00,4437.5831,N,12402.8864,W,1,10,1.0,28.8,M,-21.8,M,,*66
2021-06-15 14:13:45Z, 6cda8203-a249-e411-b0cc-f8bc1246af59, $GPGGA,141344.00,4437.5830,N,12402.8859,W,1,10,1.0,29.0,M,-21.8,M,,*67
2021-06-15 14:13:47Z, 6cda8203-a249-e411-b0cc-f8bc1246af59, $GPGGA,141346.00,4437.5831,N,12402.8853,W,1,10,1.0,29.2,M,-21.8,M,,*6C
2021-06-15 14:13:48Z, 6cda8203-a249-e411-b0cc-f8bc1246af59, $GPGGA,141347.00,4437.5830,N,12402.8853,W,1,10,1.0,29.3,M,-21.8,M,,*6D
2021-06-15 14:13:50Z, 6cda8203-a249-e411-b0cc-f8bc1246af59, $GPGGA,141349.00,4437.5829,N,12402.8852,W,1,10,1.0,29.3,M,-21.8,M,,*6A
2021-06-15 14:13:51Z, 6cda8203-a249-e411-b0cc-f8bc1246af59, $GPGGA,141350.00,4437.5830,N,12402.8852,W,1,10,1.0,29.3,M,-21.8,M,,*6A
2021-06-15 14:13:53Z, 6cda8203-a249-e411-b0cc-f8bc1246af59, $GPGGA,141352.00,4437.5830,N,12402.8852,W,1,10,1.0,29.2,M,-21.8,M,,*69
2021-06-15 14:13:54Z, 6cda8203-a249-e411-b0cc-f8bc1246af59, $GPGGA,141353.00,4437.5829,N,12402.8852,W,1,10,1.0,29.3,M,-21.8,M,,*61
2021-06-15 14:13:56Z, 6cda8203-a249-e411-b0cc-f8bc1246af59, $GPGGA,141355.00,4437.5830,N,12402.8848,W,1,10,1.0,29.2,M,-21.8,M,,*65
2021-06-15 14:13:57Z, 6cda8203-a249-e411-b0cc-f8bc1246af59, $GPGGA,141356.00,4437.5830,N,12402.8835,W,1,10,1.0,29.5,M,-21.8,M,,*6B
2021-06-15 14:13:59Z, 6cda8203-a249-e411-b0cc-f8bc1246af59, $GPGGA,141358.00,4437.5832,N,12402.8829,W,1,10,1.0,29.5,M,-21.8,M,,*6A
2021-06-15 14:14:00Z, 6cda8203-a249-e411-b0cc-f8bc1246af59, $GPGGA,141359.00,4437.5832,N,12402.8826,W,1,10,1.0,29.6,M,-21.8,M,,*67
2021-06-15 14:14:02Z, 6cda8203-a249-e411-b0cc-f8bc1246af59, $GPGGA,141401.00,4437.5834,N,12402.8824,W,1,10,1.0,29.6,M,-21.8,M,,*69
2021-06-15 14:14:03Z, 6cda8203-a249-e411-b0cc-f8bc1246af59, $GPGGA,141402.00,4437.5835,N,12402.8821,W,1,10,1.0,29.7,M,-21.8,M,,*6F
2021-06-15 14:14:05Z, 6cda8203-a249-e411-b0cc-f8bc1246af59, $GPGGA,141404.00,4437.5835,N,12402.8817,W,1,10,1.0,29.8,M,-21.8,M,,*63
2021-06-15 14:14:06Z, 6cda8203-a249-e411-b0cc-f8bc1246af59, $GPGGA,141405.00,4437.5834,N,12402.8818,W,1,10,1.0,29.9,M,-21.8,M,,*6D
2021-06-15 14:14:08Z, 6cda8203-a249-e411-b0cc-f8bc1246af59, $GPGGA,141407.00,4437.5833,N,12402.8815,W,1,10,1.0,30.1,M,-21.8,M,,*65
2021-06-15 14:14:09Z, 6cda8203-a249-e411-b0cc-f8bc1246af59, $GPGGA,141408.00,4437.5836,N,12402.8814,W,1,10,1.0,30.1,M,-21.8,M,,*6E
2021-06-15 14:14:11Z, 6cda8203-a249-e411-b0cc-f8bc1246af59, $GPGGA,141410.00,4437.5838,N,12402.8814,W,1,10,1.0,30.5,M,-21.8,M,,*6D
2021-06-15 14:14:12Z, 6cda8203-a249-e411-b0cc-f8bc1246af59, $GPGGA,141411.00,4437.5839,N,12402.8816,W,1,10,1.0,30.6,M,-21.8,M,,*6C
2021-06-15 14:14:14Z, 6cda8203-a249-e411-b0cc-f8bc1246af59, $GPGGA,141413.00,4437.5840,N,12402.8819,W,1,10,1.0,30.8,M,-21.8,M,,*61
2021-06-15 14:14:15Z, 6cda8203-a249-e411-b0cc-f8bc1246af59, $GPGGA,141414.00,4437.5843,N,12402.8819,W,1,10,1.0,30.9,M,-21.8,M,,*64
2021-06-15 14:14:17Z, 6cda8203-a249-e411-b0cc-f8bc1246af59, $GPGGA,141416.00,4437.5848,N,12402.8818,W,1,10,1.0,30.9,M,-21.8,M,,*6C
2021-06-15 14:14:18Z, 6cda8203-a249-e411-b0cc-f8bc1246af59, $GPGGA,141417.00,4437.5851,N,12402.8820,W,1,10,1.0,31.0,M,-21.8,M,,*66
2021-06-15 14:14:20Z, 6cda8203-a249-e411-b0cc-f8bc1246af59, $GPGGA,141419.00,4437.5856,N,12402.8818,W,1,10,1.0,31.1,M,-21.8,M,,*65
2021-06-15 14:14:21Z, 6cda8203-a249-e411-b0cc-f8bc1246af59, $GPGGA,141420.00,4437.5859,N,12402.8819,W,1,10,1.0,31.1,M,-21.8,M,,*61
2021-06-15 14:14:23Z, 6cda8203-a249-e411-b0cc-f8bc1246af59, $GPGGA,141422.00,4437.5860,N,12402.8821,W,1,10,1.0,31.0,M,-21.8,M,,*63
2021-06-15 14:14:24Z, 6cda8203-a249-e411-b0cc-f8bc1246af59, $GPGGA,141423.00,4437.5859,N,12402.8820,W,1,10,1.0,31.0,M,-21.8,M,,*69
2021-06-15 14:14:26Z, 6cda8203-a249-e411-b0cc-f8bc1246af59, $GPGGA,141425.00,4437.5858,N,12402.8819,W,1,10,1.0,30.7,M,-21.8,M,,*62
2021-06-15 14:14:27Z, 6cda8203-a249-e411-b0cc-f8bc1246af59, $GPGGA,141426.00,4437.5856,N,12402.8819,W,1,10,1.0,30.5,M,-21.8,M,,*6D
2021-06-15 14:14:29Z, 6cda8203-a249-e411-b0cc-f8bc1246af59, $GPGGA,141428.00,4437.5852,N,12402.8822,W,1,10,1.0,30.4,M,-21.8,M,,*6E
2021-06-15 14:14:30Z, 6cda8203-a249-e411-b0cc-f8bc1246af59, $GPGGA,141429.00,4437.5851,N,12402.8821,W,1,10,1.0,30.3,M,-21.8,M,,*68
2021-06-15 14:14:32Z, 6cda8203-a249-e411-b0cc-f8bc1246af59, $GPGGA,141431.00,4437.5851,N,12402.8822,W,1,10,1.0,30.2,M,-21.8,M,,*63
2021-06-15 14:14:33Z, 6cda8203-a249-e411-b0cc-f8bc1246af59, $GPGGA,141432.00,4437.5849,N,12402.8821,W,1,10,1.0,30.0,M,-21.8,M,,*68
2021-06-15 14:14:35Z, 6cda8203-a249-e411-b0cc-f8bc1246af59, $GPGGA,141434.00,4437.5850,N,12402.8823,W,1,10,1.0,29.6,M,-21.8,M,,*6A
2021-06-15 14:14:36Z, 6cda8203-a249-e411-b0cc-f8bc1246af59, $GPGGA,141435.00,4437.5849,N,12402.8824,W,1,10,1.0,29.4,M,-21.8,M,,*66
2021-06-15 14:14:38Z, 6cda8203-a249-e411-b0cc-f8bc1246af59, $GPGGA,141437.00,4437.5850,N,12402.8824,W,1,10,1.0,29.3,M,-21.8,M,,*6B
2021-06-15 14:14:39Z, 6cda8203-a249-e411-b0cc-f8bc1246af59, $GPGGA,141438.00,4437.5849,N,12402.8825,W,1,10,1.0,29.3,M,-21.8,M,,*6D
2021-06-15 14:14:41Z, 6cda8203-a249-e411-b0cc-f8bc1246af59, $GPGGA,141440.00,4437.5849,N,12402.8825,W,1,10,1.0,29.3,M,-21.8,M,,*62
2021-06-15 14:14:42Z, 6cda8203-a249-e411-b0cc-f8bc1246af59, $GPGGA,141441.00,4437.5850,N,12402.8825,W,1,10,1.0,29.3,M,-21.8,M,,*6B
2021-06-15 14:14:44Z, 6cda8203-a249-e411-b0cc-f8bc1246af59, $GPGGA,141443.00,4437.5851,N,12402.8824,W,1,10,1.0,29.1,M,-21.8,M,,*6B
2021-06-15 14:14:45Z, 6cda8203-a249-e411-b0cc-f8bc1246af59, $GPGGA,141444.00,4437.5852,N,12402.8826,W,1,10,1.0,29.1,M,-21.8,M,,*6D
2021-06-15 14:14:47Z, 6cda8203-a249-e411-b0cc-f8bc1246af59, $GPGGA,141446.00,4437.5853,N,12402.8830,W,1,10,1.0,29.0,M,-21.8,M,,*68
2021-06-15 14:14:48Z, 6cda8203-a249-e411-b0cc-f8bc1246af59, $GPGGA,141447.00,4437.5854,N,12402.8830,W,1,10,1.0,29.0,M,-21.8,M,,*6E
2021-06-15 14:14:50Z, 6cda8203-a249-e411-b0cc-f8bc1246af59, $GPGGA,141449.00,4437.5855,N,12402.8829,W,1,10,1.0,29.0,M,-21.8,M,,*69
2021-06-15 14:14:51Z, 6cda8203-a249-e411-b0cc-f8bc1246af59, $GPGGA,141450.00,4437.5856,N,12402.8829,W,1,10,1.0,29.1,M,-21.8,M,,*63
2021-06-15 14:14:53Z, 6cda8203-a249-e411-b0cc-f8bc1246af59, $GPGGA,141452.00,4437.5856,N,12402.8833,W,1,10,1.0,29.0,M,-21.8,M,,*6B
2021-06-15 14:14:54Z, 6cda8203-a249-e411-b0cc-f8bc1246af59, $GPGGA,141453.00,4437.5854,N,12402.8835,W,1,10,1.0,29.0,M,-21.8,M,,*6E
2021-06-15 14:14:56Z, 6cda8203-a249-e411-b0cc-f8bc1246af59, $GPGGA,141455.00,4437.5853,N,12402.8836,W,1,10,1.0,29.1,M,-21.8,M,,*6D
2021-06-15 14:14:57Z, 6cda8203-a249-e411-b0cc-f8bc1246af59, $GPGGA,141456.00,4437.5854,N,12402.8836,W,1,10,1.0,29.2,M,-21.8,M,,*6A
2021-06-15 14:14:59Z, 6cda8203-a249-e411-b0cc-f8bc1246af59, $GPGGA,141458.00,4437.5851,N,12402.8835,W,1,10,1.0,29.2,M,-21.8,M,,*62
2021-06-15 14:15:00Z, 6cda8203-a249-e411-b0cc-f8bc1246af59, $GPGGA,141459.00,4437.5851,N,12402.8838,W,1,10,1.0,29.2,M,-21.8,M,,*6E
2021-06-15 14:15:02Z, 6cda8203-a249-e411-b0cc-f8bc1246af59, $GPGGA,141501.00,4437.5848,N,12402.8844,W,1,10,1.0,29.2,M,-21.8,M,,*61
2021-06-15 14:15:03Z, 6cda8203-a249-e411-b0cc-f8bc1246af59, $GPGGA,141502.00,4437.5849,N,12402.8846,W,1,10,1.0,29.3,M,-21.8,M,,*60
2021-06-15 14:15:05Z, 6cda8203-a249-e411-b0cc-f8bc1246af59, $GPGGA,141504.00,4437.5853,N,12402.8846,W,1,10,1.0,29.3,M,-21.8,M,,*6D
2021-06-15 14:15:06Z, 6cda8203-a249-e411-b0cc-f8bc1246af59, $GPGGA,141505.00,4437.5852,N,12402.8843,W,1,10,1.0,29.2,M,-21.8,M,,*69
2021-06-15 14:15:06Z, 6cda8203-a249-e411-b0cc-f8bc1246af59, $GPGGA,141506.00,4437.5853,N,12402.8842,W,1,10,1.0,29.2,M,-21.8,M,,*6A
2021-06-15 14:15:08Z, 6cda8203-a249-e411-b0cc-f8bc1246af59, $GPGGA,141507.00,4437.5853,N,12402.8841,W,1,10,1.0,29.3,M,-21.8,M,,*69
2021-06-15 14:15:09Z, 6cda8203-a249-e411-b0cc-f8bc1246af59, $GPGGA,141508.00,4437.5854,N,12402.8841,W,1,10,1.0,29.5,M,-21.8,M,,*67
2021-06-15 14:15:10Z, 6cda8203-a249-e411-b0cc-f8bc1246af59, $GPGGA,141509.00,4437.5853,N,12402.8844,W,1,10,1.0,29.6,M,-21.8,M,,*67
2021-06-15 14:15:12Z, 6cda8203-a249-e411-b0cc-f8bc1246af59, $GPGGA,141510.00,4437.5853,N,12402.8844,W,1,10,1.0,29.6,M,-21.8,M,,*6F
2021-06-15 14:15:13Z, 6cda8203-a249-e411-b0cc-f8bc1246af59, $GPGGA,141512.00,4437.5853,N,12402.8840,W,1,10,1.0,29.8,M,-21.8,M,,*67
2021-06-15 14:15:14Z, 6cda8203-a249-e411-b0cc-f8bc1246af59, $GPGGA,141513.00,4437.5852,N,12402.8840,W,1,10,1.0,29.9,M,-21.8,M,,*66
2021-06-15 14:15:16Z, 6cda8203-a249-e411-b0cc-f8bc1246af59, $GPGGA,141515.00,4437.5851,N,12402.8839,W,1,10,1.0,30.2,M,-21.8,M,,*6E
2021-06-15 14:15:17Z, 6cda8203-a249-e411-b0cc-f8bc1246af59, $GPGGA,141516.00,4437.5850,N,12402.8837,W,1,10,1.0,30.4,M,-21.8,M,,*64
2021-06-15 14:15:19Z, 6cda8203-a249-e411-b0cc-f8bc1246af59, $GPGGA,141518.00,4437.5847,N,12402.8837,W,1,10,1.0,30.5,M,-21.8,M,,*6D
2021-06-15 14:15:20Z, 6cda8203-a249-e411-b0cc-f8bc1246af59, $GPGGA,141519.00,4437.5847,N,12402.8839,W,1,10,1.0,30.5,M,-21.8,M,,*62
2021-06-15 14:15:22Z, 6cda8203-a249-e411-b0cc-f8bc1246af59, $GPGGA,141521.00,4437.5846,N,12402.8841,W,1,10,1.0,30.7,M,-21.8,M,,*65
2021-06-15 14:15:23Z, 6cda8203-a249-e411-b0cc-f8bc1246af59, $GPGGA,141522.00,4437.5847,N,12402.8844,W,1,10,1.0,30.7,M,-21.8,M,,*62
2021-06-15 14:15:25Z, 6cda8203-a249-e411-b0cc-f8bc1246af59, $GPGGA,141524.00,4437.5846,N,12402.8840,W,1,10,1.0,30.8,M,-21.8,M,,*6E
2021-06-15 14:15:26Z, 6cda8203-a249-e411-b0cc-f8bc1246af59, $GPGGA,141525.00,4437.5844,N,12402.8840,W,1,10,1.0,30.8,M,-21.8,M,,*6D
2021-06-15 14:15:28Z, 6cda8203-a249-e411-b0cc-f8bc1246af59, $GPGGA,141527.00,4437.5840,N,12402.8834,W,1,10,1.0,30.9,M,-21.8,M,,*69
2021-06-15 14:15:29Z, 6cda8203-a249-e411-b0cc-f8bc1246af59, $GPGGA,141528.00,4437.5838,N,12402.8832,W,1,10,1.0,31.0,M,-21.8,M,,*67
2021-06-15 14:15:31Z, 6cda8203-a249-e411-b0cc-f8bc1246af59, $GPGGA,141530.00,4437.5836,N,12402.8828,W,1,10,1.0,31.0,M,-21.8,M,,*6B
2021-06-15 14:15:32Z, 6cda8203-a249-e411-b0cc-f8bc1246af59, $GPGGA,141531.00,4437.5836,N,12402.8828,W,1,10,1.0,31.1,M,-21.8,M,,*6B
2021-06-15 14:15:34Z, 6cda8203-a249-e411-b0cc-f8bc1246af59, $GPGGA,141533.00,4437.5834,N,12402.8825,W,1,10,1.0,31.1,M,-21.8,M,,*66
2021-06-15 14:15:35Z, 6cda8203-a249-e411-b0cc-f8bc1246af59, $GPGGA,141534.00,4437.5833,N,12402.8823,W,1,10,1.0,31.0,M,-21.8,M,,*61
2021-06-15 14:15:37Z, 6cda8203-a249-e411-b0cc-f8bc1246af59, $GPGGA,141536.00,4437.5832,N,12402.8827,W,1,10,1.0,31.1,M,-21.8,M,,*67
2021-06-15 14:15:38Z, 6cda8203-a249-e411-b0cc-f8bc1246af59, $GPGGA,141537.00,4437.5833,N,12402.8831,W,1,10,1.0,31.2,M,-21.8,M,,*63
2021-06-15 14:15:40Z, 6cda8203-a249-e411-b0cc-f8bc1246af59, $GPGGA,141539.00,4437.5835,N,12402.8835,W,1,10,1.0,31.3,M,-21.8,M,,*6E
2021-06-15 14:15:41Z, 6cda8203-a249-e411-b0cc-f8bc1246af59, $GPGGA,141540.00,4437.5836,N,12402.8837,W,1,10,1.0,31.3,M,-21.8,M,,*61
2021-06-15 14:15:43Z, 6cda8203-a249-e411-b0cc-f8bc1246af59, $GPGGA,141542.00,4437.5837,N,12402.8841,W,1,10,1.0,31.4,M,-21.8,M,,*64
2021-06-15 14:15:44Z, 6cda8203-a249-e411-b0cc-f8bc1246af59, $GPGGA,141543.00,4437.5838,N,12402.8841,W,1,10,1.0,31.5,M,-21.8,M,,*6B
2021-06-15 14:15:46Z, 6cda8203-a249-e411-b0cc-f8bc1246af59, $GPGGA,141545.00,4437.5842,N,12402.8842,W,1,10,1.0,31.8,M,-21.8,M,,*6E
2021-06-15 14:15:47Z, 6cda8203-a249-e411-b0cc-f8bc1246af59, $GPGGA,141546.00,4437.5844,N,12402.8844,W,1,10,1.0,32.0,M,-21.8,M,,*66
2021-06-15 14:15:49Z, 6cda8203-a249-e411-b0cc-f8bc1246af59, $GPGGA,141548.00,4437.5847,N,12402.8842,W,1,10,1.0,32.1,M,-21.8,M,,*6C
2021-06-15 14:15:50Z, 6cda8203-a249-e411-b0cc-f8bc1246af59, $GPGGA,141549.00,4437.5846,N,12402.8842,W,1,10,1.0,32.4,M,-21.8,M,,*69
2021-06-15 14:15:52Z, 6cda8203-a249-e411-b0cc-f8bc1246af59, $GPGGA,141551.00,4437.5847,N,12402.8842,W,1,10,1.0,32.7,M,-21.8,M,,*62
2021-06-15 14:15:53Z, 6cda8203-a249-e411-b0cc-f8bc1246af59, $GPGGA,141552.00,4437.5848,N,12402.8843,W,1,10,1.0,32.9,M,-21.8,M,,*61
2021-06-15 14:15:55Z, 6cda8203-a249-e411-b0cc-f8bc1246af59, $GPGGA,141554.00,4437.5852,N,12402.8840,W,1,10,1.0,32.9,M,-21.8,M,,*6F
2021-06-15 14:15:56Z, 6cda8203-a249-e411-b0cc-f8bc1246af59, $GPGGA,141555.00,4437.5853,N,12402.8839,W,1,10,1.0,32.9,M,-21.8,M,,*61
2021-06-15 14:15:58Z, 6cda8203-a249-e411-b0cc-f8bc1246af59, $GPGGA,141557.00,4437.5850,N,12402.8840,W,1,10,1.0,32.7,M,-21.8,M,,*60
2021-06-15 14:15:59Z, 6cda8203-a249-e411-b0cc-f8bc1246af59, $GPGGA,141558.00,4437.5852,N,12402.8838,W,1,10,1.0,32.7,M,-21.8,M,,*62
2021-06-15 14:16:01Z, 6cda8203-a249-e411-b0cc-f8bc1246af59, $GPGGA,141600.00,4437.5851,N,12402.8835,W,1,10,1.0,32.5,M,-21.8,M,,*60
2021-06-15 14:16:02Z, 6cda8203-a249-e411-b0cc-f8bc1246af59, $GPGGA,141601.00,4437.5853,N,12402.8835,W,1,10,1.0,32.5,M,-21.8,M,,*63
2021-06-15 14:16:04Z, 6cda8203-a249-e411-b0cc-f8bc1246af59, $GPGGA,141603.00,4437.5854,N,12402.8836,W,1,10,1.0,32.4,M,-21.8,M,,*64
2021-06-15 14:16:05Z, 6cda8203-a249-e411-b0cc-f8bc1246af59, $GPGGA,141604.00,4437.5853,N,12402.8838,W,1,10,1.0,32.3,M,-21.8,M,,*6D
2021-06-15 14:16:07Z, 6cda8203-a249-e411-b0cc-f8bc1246af59, $GPGGA,141606.00,4437.5849,N,12402.8840,W,1,10,1.0,32.2,M,-21.8,M,,*6A
2021-06-15 14:16:08Z, 6cda8203-a249-e411-b0cc-f8bc1246af59, $GPGGA,141607.00,4437.5848,N,12402.8840,W,1,10,1.0,32.2,M,-21.8,M,,*6A
2021-06-15 14:16:10Z, 6cda8203-a249-e411-b0cc-f8bc1246af59, $GPGGA,141609.00,4437.5848,N,12402.8840,W,1,10,1.0,32.1,M,-21.8,M,,*67
2021-06-15 14:16:11Z, 6cda8203-a249-e411-b0cc-f8bc1246af59, $GPGGA,141610.00,4437.5848,N,12402.8837,W,1,10,1.0,32.0,M,-21.8,M,,*6E
2021-06-15 14:16:13Z, 6cda8203-a249-e411-b0cc-f8bc1246af59, $GPGGA,141612.00,4437.5846,N,12402.8833,W,1,10,1.0,31.9,M,-21.8,M,,*6C
2021-06-15 14:16:14Z, 6cda8203-a249-e411-b0cc-f8bc1246af59, $GPGGA,141613.00,4437.5844,N,12402.8833,W,1,10,1.0,31.9,M,-21.8,M,,*6F
2021-06-15 14:16:16Z, 6cda8203-a249-e411-b0cc-f8bc1246af59, $GPGGA,141615.00,4437.5841,N,12402.8826,W,1,10,1.0,31.8,M,-21.8,M,,*69
2021-06-15 14:16:17Z, 6cda8203-a249-e411-b0cc-f8bc1246af59, $GPGGA,141616.00,4437.5841,N,12402.8826,W,1,10,1.0,31.9,M,-21.8,M,,*6B
2021-06-15 14:16:19Z, 6cda8203-a249-e411-b0cc-f8bc1246af59, $GPGGA,141618.00,4437.5844,N,12402.8819,W,1,10,1.0,32.1,M,-21.8,M,,*67
2021-06-15 14:16:20Z, 6cda8203-a249-e411-b0cc-f8bc1246af59, $GPGGA,141619.00,4437.5843,N,12402.8816,W,1,10,1.0,32.1,M,-21.8,M,,*6E
2021-06-15 14:16:22Z, 6cda8203-a249-e411-b0cc-f8bc1246af59, $GPGGA,141621.00,4437.5843,N,12402.8817,W,1,10,1.0,32.0,M,-21.8,M,,*65
2021-06-15 14:16:23Z, 6cda8203-a249-e411-b0cc-f8bc1246af59, $GPGGA,141622.00,4437.5844,N,12402.8816,W,1,10,1.0,32.0,M,-21.8,M,,*60
2021-06-15 14:16:25Z, 6cda8203-a249-e411-b0cc-f8bc1246af59, $GPGGA,141624.00,4437.5841,N,12402.8813,W,1,10,1.0,31.8,M,-21.8,M,,*6D
2021-06-15 14:16:26Z, 6cda8203-a249-e411-b0cc-f8bc1246af59, $GPGGA,141625.00,4437.5841,N,12402.8814,W,1,10,1.0,31.7,M,-21.8,M,,*64
2021-06-15 14:16:28Z, 6cda8203-a249-e411-b0cc-f8bc1246af59, $GPGGA,141627.00,4437.5842,N,12402.8813,W,1,11,0.8,31.7,M,-21.8,M,,*6A
2021-06-15 14:16:29Z, 6cda8203-a249-e411-b0cc-f8bc1246af59, $GPGGA,141628.00,4437.5841,N,12402.8813,W,1,11,0.8,31.8,M,-21.8,M,,*69
2021-06-15 14:16:31Z, 6cda8203-a249-e411-b0cc-f8bc1246af59, $GPGGA,141630.00,4437.5842,N,12402.8808,W,1,11,0.8,31.7,M,-21.8,M,,*66
2021-06-15 14:16:32Z, 6cda8203-a249-e411-b0cc-f8bc1246af59, $GPGGA,141631.00,4437.5841,N,12402.8807,W,1,11,0.8,31.7,M,-21.8,M,,*6B
2021-06-15 14:16:34Z, 6cda8203-a249-e411-b0cc-f8bc1246af59, $GPGGA,141633.00,4437.5842,N,12402.8805,W,1,11,0.8,31.6,M,-21.8,M,,*69
2021-06-15 14:16:35Z, 6cda8203-a249-e411-b0cc-f8bc1246af59, $GPGGA,141634.00,4437.5842,N,12402.8807,W,1,11,0.8,31.7,M,-21.8,M,,*6D
2021-06-15 14:16:37Z, 6cda8203-a249-e411-b0cc-f8bc1246af59, $GPGGA,141636.00,4437.5843,N,12402.8808,W,1,11,0.8,31.7,M,-21.8,M,,*61
2021-06-15 14:16:38Z, 6cda8203-a249-e411-b0cc-f8bc1246af59, $GPGGA,141637.00,4437.5844,N,12402.8808,W,1,11,0.8,31.7,M,-21.8,M,,*67
2021-06-15 14:16:40Z, 6cda8203-a249-e411-b0cc-f8bc1246af59, $GPGGA,141639.00,4437.5843,N,12402.8809,W,1,11,0.8,31.7,M,-21.8,M,,*6F
2021-06-15 14:16:41Z, 6cda8203-a249-e411-b0cc-f8bc1246af59, $GPGGA,141640.00,4437.5842,N,12402.8808,W,1,11,0.8,31.7,M,-21.8,M,,*61
2021-06-15 14:16:43Z, 6cda8203-a249-e411-b0cc-f8bc1246af59, $GPGGA,141642.00,4437.5841,N,12402.8806,W,1,11,0.8,31.8,M,-21.8,M,,*61
2021-06-15 14:16:44Z, 6cda8203-a249-e411-b0cc-f8bc1246af59, $GPGGA,141643.00,4437.5841,N,12402.8806,W,1,11,0.8,31.7,M,-21.8,M,,*6F
2021-06-15 14:16:46Z, 6cda8203-a249-e411-b0cc-f8bc1246af59, $GPGGA,141645.00,4437.5845,N,12402.8803,W,1,11,0.8,31.5,M,-21.8,M,,*6A
2021-06-15 14:16:47Z, 6cda8203-a249-e411-b0cc-f8bc1246af59, $GPGGA,141646.00,4437.5846,N,12402.8803,W,1,11,0.8,31.4,M,-21.8,M,,*6B
2021-06-15 14:16:49Z, 6cda8203-a249-e411-b0cc-f8bc1246af59, $GPGGA,141648.00,4437.5849,N,12402.8804,W,1,11,0.8,31.2,M,-21.8,M,,*6B
2021-06-15 14:16:50Z, 6cda8203-a249-e411-b0cc-f8bc1246af59, $GPGGA,141649.00,4437.5850,N,12402.8804,W,1,11,0.8,31.2,M,-21.8,M,,*62
2021-06-15 14:16:52Z, 6cda8203-a249-e411-b0cc-f8bc1246af59, $GPGGA,141651.00,4437.5847,N,12402.8805,W,1,11,0.8,31.0,M,-21.8,M,,*6E
2021-06-15 14:16:53Z, 6cda8203-a249-e411-b0cc-f8bc1246af59, $GPGGA,141652.00,4437.5848,N,12402.8806,W,1,11,0.8,31.0,M,-21.8,M,,*61
2021-06-15 14:16:55Z, 6cda8203-a249-e411-b0cc-f8bc1246af59, $GPGGA,141654.00,4437.5847,N,12402.8806,W,1,11,0.8,30.8,M,-21.8,M,,*61
2021-06-15 14:16:56Z, 6cda8203-a249-e411-b0cc-f8bc1246af59, $GPGGA,141655.00,4437.5846,N,12402.8807,W,1,11,0.8,30.8,M,-21.8,M,,*60
2021-06-15 14:16:58Z, 6cda8203-a249-e411-b0cc-f8bc1246af59, $GPGGA,141657.00,4437.5847,N,12402.8811,W,1,11,0.8,30.8,M,-21.8,M,,*64
2021-06-15 14:16:59Z, 6cda8203-a249-e411-b0cc-f8bc1246af59, $GPGGA,141658.00,4437.5845,N,12402.8812,W,1,11,0.8,30.8,M,-21.8,M,,*6A
2021-06-15 14:17:01Z, 6cda8203-a249-e411-b0cc-f8bc1246af59, $GPGGA,141700.00,4437.5847,N,12402.8816,W,1,11,0.8,30.9,M,-21.8,M,,*61
2021-06-15 14:17:02Z, 6cda8203-a249-e411-b0cc-f8bc1246af59, $GPGGA,141701.00,4437.5847,N,12402.8816,W,1,11,0.8,31.0,M,-21.8,M,,*68
2021-06-15 14:17:04Z, 6cda8203-a249-e411-b0cc-f8bc1246af59, $GPGGA,141703.00,4437.5849,N,12402.8815,W,1,11,0.8,31.1,M,-21.8,M,,*66
2021-06-15 14:17:05Z, 6cda8203-a249-e411-b0cc-f8bc1246af59, $GPGGA,141704.00,4437.5848,N,12402.8816,W,1,11,0.8,31.2,M,-21.8,M,,*60
2021-06-15 14:17:07Z, 6cda8203-a249-e411-b0cc-f8bc1246af59, $GPGGA,141706.00,4437.5848,N,12402.8823,W,1,11,0.8,31.3,M,-21.8,M,,*65
2021-06-15 14:17:08Z, 6cda8203-a249-e411-b0cc-f8bc1246af59, $GPGGA,141707.00,4437.5850,N,12402.8824,W,1,11,0.8,31.4,M,-21.8,M,,*6D
2021-06-15 14:17:10Z, 6cda8203-a249-e411-b0cc-f8bc1246af59, $GPGGA,141709.00,4437.5853,N,12402.8826,W,1,11,0.8,31.4,M,-21.8,M,,*62
2021-06-15 14:17:11Z, 6cda8203-a249-e411-b0cc-f8bc1246af59, $GPGGA,141710.00,4437.5855,N,12402.8828,W,1,11,0.8,31.4,M,-21.8,M,,*62
2021-06-15 14:17:12Z, 6cda8203-a249-e411-b0cc-f8bc1246af59, $GPGGA,141711.00,4437.5857,N,12402.8830,W,1,11,0.8,31.3,M,-21.8,M,,*6F
2021-06-15 14:17:13Z, 6cda8203-a249-e411-b0cc-f8bc1246af59, $GPGGA,141712.00,4437.5858,N,12402.8832,W,1,11,0.8,31.4,M,-21.8,M,,*66
2021-06-15 14:17:14Z, 6cda8203-a249-e411-b0cc-f8bc1246af59, $GPGGA,141713.00,4437.5858,N,12402.8829,W,1,11,0.8,31.3,M,-21.8,M,,*6A
2021-06-15 14:17:15Z, 6cda8203-a249-e411-b0cc-f8bc1246af59, $GPGGA,141714.00,4437.5860,N,12402.8830,W,1,11,0.8,31.4,M,-21.8,M,,*69
2021-06-15 14:17:16Z, 6cda8203-a249-e411-b0cc-f8bc1246af59, $GPGGA,141715.00,4437.5859,N,12402.8829,W,1,11,0.8,31.3,M,-21.8,M,,*6D
2021-06-15 14:17:18Z, 6cda8203-a249-e411-b0cc-f8bc1246af59, $GPGGA,141716.00,4437.5860,N,12402.8830,W,1,11,0.8,31.3,M,-21.8,M,,*6C
2021-06-15 14:17:18Z, 6cda8203-a249-e411-b0cc-f8bc1246af59, $GPGGA,141717.00,4437.5861,N,12402.8831,W,1,11,0.8,31.2,M,-21.8,M,,*6C
2021-06-15 14:17:19Z, 6cda8203-a249-e411-b0cc-f8bc1246af59, $GPGGA,141718.00,4437.5861,N,12402.8832,W,1,11,0.8,31.1,M,-21.8,M,,*63
2021-06-15 14:17:21Z, 6cda8203-a249-e411-b0cc-f8bc1246af59, $GPGGA,141720.00,4437.5864,N,12402.8836,W,1,11,0.8,30.9,M,-21.8,M,,*60
2021-06-15 14:17:23Z, 6cda8203-a249-e411-b0cc-f8bc1246af59, $GPGGA,141721.00,4437.5869,N,12402.8845,W,1,11,0.8,30.2,M,-21.8,M,,*63
2021-06-15 14:17:24Z, 6cda8203-a249-e411-b0cc-f8bc1246af59, $GPGGA,141723.00,4437.5868,N,12402.8846,W,1,11,0.8,30.1,M,-21.8,M,,*60
2021-06-15 14:17:26Z, 6cda8203-a249-e411-b0cc-f8bc1246af59, $GPGGA,141724.00,4437.5868,N,12402.8847,W,1,11,0.8,30.1,M,-21.8,M,,*66
2021-06-15 14:17:27Z, 6cda8203-a249-e411-b0cc-f8bc1246af59, $GPGGA,141725.00,4437.5867,N,12402.8850,W,1,11,0.8,30.0,M,-21.8,M,,*6F
2021-06-15 14:17:27Z, 6cda8203-a249-e411-b0cc-f8bc1246af59, $GPGGA,141726.00,4437.5867,N,12402.8851,W,1,11,0.8,29.9,M,-21.8,M,,*6C
2021-06-15 14:17:29Z, 6cda8203-a249-e411-b0cc-f8bc1246af59, $GPGGA,141727.00,4437.5866,N,12402.8854,W,1,11,0.8,29.8,M,-21.8,M,,*68
2021-06-15 14:17:30Z, 6cda8203-a249-e411-b0cc-f8bc1246af59, $GPGGA,141729.00,4437.5865,N,12402.8854,W,1,11,0.8,29.6,M,-21.8,M,,*6B
2021-06-15 14:17:32Z, 6cda8203-a249-e411-b0cc-f8bc1246af59, $GPGGA,141730.00,4437.5870,N,12402.8855,W,1,11,0.8,29.5,M,-21.8,M,,*65
2021-06-15 14:17:32Z, 6cda8203-a249-e411-b0cc-f8bc1246af59, $GPGGA,141731.00,4437.5869,N,12402.8858,W,1,11,0.8,29.3,M,-21.8,M,,*67
2021-06-15 14:17:34Z, 6cda8203-a249-e411-b0cc-f8bc1246af59, $GPGGA,141732.00,4437.5868,N,12402.8857,W,1,11,0.8,29.2,M,-21.8,M,,*6B
2021-06-15 14:17:35Z, 6cda8203-a249-e411-b0cc-f8bc1246af59, $GPGGA,141733.00,4437.5862,N,12402.8862,W,1,11,0.8,29.0,M,-21.8,M,,*64
2021-06-15 14:17:35Z, 6cda8203-a249-e411-b0cc-f8bc1246af59, $GPGGA,141734.00,4437.5863,N,12402.8862,W,1,11,0.8,29.0,M,-21.8,M,,*62
2021-06-15 14:17:36Z, 6cda8203-a249-e411-b0cc-f8bc1246af59, $GPGGA,141735.00,4437.5861,N,12402.8863,W,1,11,0.8,28.9,M,-21.8,M,,*68
2021-06-15 14:17:37Z, 6cda8203-a249-e411-b0cc-f8bc1246af59, $GPGGA,141736.00,4437.5859,N,12402.8863,W,1,11,0.8,28.9,M,-21.8,M,,*60
2021-06-15 14:17:38Z, 6cda8203-a249-e411-b0cc-f8bc1246af59, $GPGGA,141737.00,4437.5858,N,12402.8862,W,1,11,0.8,28.8,M,-21.8,M,,*60
2021-06-15 14:17:39Z, 6cda8203-a249-e411-b0cc-f8bc1246af59, $GPGGA,141738.00,4437.5856,N,12402.8861,W,1,11,0.8,28.6,M,-21.8,M,,*6C
2021-06-15 14:17:42Z, 6cda8203-a249-e411-b0cc-f8bc1246af59, $GPGGA,141740.00,4437.5855,N,12402.8857,W,1,11,0.8,28.3,M,-21.8,M,,*60
2021-06-15 14:17:43Z, 6cda8203-a249-e411-b0cc-f8bc1246af59, $GPGGA,141741.00,4437.5853,N,12402.8856,W,1,11,0.8,28.2,M,-21.8,M,,*67
2021-06-15 14:17:45Z, 6cda8203-a249-e411-b0cc-f8bc1246af59, $GPGGA,141743.00,4437.5853,N,12402.8855,W,1,11,0.8,28.0,M,-21.8,M,,*64
2021-06-15 14:17:45Z, 6cda8203-a249-e411-b0cc-f8bc1246af59, $GPGGA,141744.00,4437.5853,N,12402.8853,W,1,11,0.8,27.9,M,-21.8,M,,*63
2021-06-15 14:17:47Z, 6cda8203-a249-e411-b0cc-f8bc1246af59, $GPGGA,141745.00,4437.5855,N,12402.8852,W,1,11,0.8,27.7,M,-21.8,M,,*6B
2021-06-15 14:17:48Z, 6cda8203-a249-e411-b0cc-f8bc1246af59, $GPGGA,141747.00,4437.5855,N,12402.8851,W,1,11,0.8,27.6,M,-21.8,M,,*6B
2021-06-15 14:17:50Z, 6cda8203-a249-e411-b0cc-f8bc1246af59, $GPGGA,141748.00,4437.5856,N,12402.8852,W,1,11,0.8,27.5,M,-21.8,M,,*67
2021-06-15 14:17:51Z, 6cda8203-a249-e411-b0cc-f8bc1246af59, $GPGGA,141750.00,4437.5857,N,12402.8853,W,1,11,0.8,27.5,M,-21.8,M,,*6E
2021-06-15 14:17:52Z, 6cda8203-a249-e411-b0cc-f8bc1246af59, $GPGGA,141751.00,4437.5858,N,12402.8855,W,1,11,0.8,27.5,M,-21.8,M,,*66
2021-06-15 14:17:53Z, 6cda8203-a249-e411-b0cc-f8bc1246af59, $GPGGA,141752.00,4437.5858,N,12402.8857,W,1,11,0.8,27.5,M,-21.8,M,,*67
2021-06-15 14:17:55Z, 6cda8203-a249-e411-b0cc-f8bc1246af59, $GPGGA,141754.00,4437.5859,N,12402.8860,W,1,11,0.8,27.6,M,-21.8,M,,*67
2021-06-15 14:17:56Z, 6cda8203-a249-e411-b0cc-f8bc1246af59, $GPGGA,141755.00,4437.5860,N,12402.8862,W,1,11,0.8,27.7,M,-21.8,M,,*6F
2021-06-15 14:17:57Z, 6cda8203-a249-e411-b0cc-f8bc1246af59, $GPGGA,141756.00,4437.5861,N,12402.8862,W,1,11,0.8,27.7,M,-21.8,M,,*6D
2021-06-15 14:17:58Z, 6cda8203-a249-e411-b0cc-f8bc1246af59, $GPGGA,141757.00,4437.5862,N,12402.8862,W,1,11,0.8,27.7,M,-21.8,M,,*6F
2021-06-15 14:17:59Z, 6cda8203-a249-e411-b0cc-f8bc1246af59, $GPGGA,141758.00,4437.5861,N,12402.8862,W,1,11,0.8,27.8,M,-21.8,M,,*6C
2021-06-15 14:18:00Z, 6cda8203-a249-e411-b0cc-f8bc1246af59, $GPGGA,141759.00,4437.5860,N,12402.8862,W,1,11,0.8,27.7,M,-21.8,M,,*63
2021-06-15 14:18:01Z, 6cda8203-a249-e411-b0cc-f8bc1246af59, $GPGGA,141800.00,4437.5859,N,12402.8861,W,1,11,0.8,27.6,M,-21.8,M,,*68
2021-06-15 14:18:03Z, 6cda8203-a249-e411-b0cc-f8bc1246af59, $GPGGA,141802.00,4437.5859,N,12402.8861,W,1,11,0.8,27.3,M,-21.8,M,,*6F
2021-06-15 14:18:04Z, 6cda8203-a249-e411-b0cc-f8bc1246af59, $GPGGA,141803.00,4437.5859,N,12402.8862,W,1,11,0.8,27.2,M,-21.8,M,,*6C
2021-06-15 14:18:06Z, 6cda8203-a249-e411-b0cc-f8bc1246af59, $GPGGA,141805.00,4437.5859,N,12402.8862,W,1,11,0.8,27.0,M,-21.8,M,,*68
2021-06-15 14:18:07Z, 6cda8203-a249-e411-b0cc-f8bc1246af59, $GPGGA,141806.00,4437.5859,N,12402.8861,W,1,11,0.8,26.9,M,-21.8,M,,*60
2021-06-15 14:18:09Z, 6cda8203-a249-e411-b0cc-f8bc1246af59, $GPGGA,141808.00,4437.5858,N,12402.8863,W,1,11,0.8,26.9,M,-21.8,M,,*6D
2021-06-15 14:18:10Z, 6cda8203-a249-e411-b0cc-f8bc1246af59, $GPGGA,141809.00,4437.5858,N,12402.8865,W,1,11,0.8,26.9,M,-21.8,M,,*6A
2021-06-15 14:18:11Z, 6cda8203-a249-e411-b0cc-f8bc1246af59, $GPGGA,141810.00,4437.5857,N,12402.8867,W,1,11,0.8,26.9,M,-21.8,M,,*6F
2021-06-15 14:18:13Z, 6cda8203-a249-e411-b0cc-f8bc1246af59, $GPGGA,141812.00,4437.5857,N,12402.8869,W,1,11,0.8,26.9,M,-21.8,M,,*63
2021-06-15 14:18:14Z, 6cda8203-a249-e411-b0cc-f8bc1246af59, $GPGGA,141813.00,4437.5855,N,12402.8872,W,1,11,0.8,26.8,M,-21.8,M,,*6B
2021-06-15 14:18:15Z, 6cda8203-a249-e411-b0cc-f8bc1246af59, $GPGGA,141814.00,4437.5854,N,12402.8871,W,1,11,0.8,26.4,M,-21.8,M,,*62
2021-06-15 14:18:17Z, 6cda8203-a249-e411-b0cc-f8bc1246af59, $GPGGA,141816.00,4437.5851,N,12402.8873,W,1,11,0.8,26.1,M,-21.8,M,,*62
2021-06-15 14:18:18Z, 6cda8203-a249-e411-b0cc-f8bc1246af59, $GPGGA,141817.00,4437.5852,N,12402.8872,W,1,11,0.8,25.9,M,-21.8,M,,*6A
2021-06-15 14:18:19Z, 6cda8203-a249-e411-b0cc-f8bc1246af59, $GPGGA,141818.00,4437.5850,N,12402.8872,W,1,11,0.8,25.8,M,-21.8,M,,*66
2021-06-15 14:18:20Z, 6cda8203-a249-e411-b0cc-f8bc1246af59, $GPGGA,141819.00,4437.5849,N,12402.8871,W,1,11,0.8,25.7,M,-21.8,M,,*63
2021-06-15 14:18:21Z, 6cda8203-a249-e411-b0cc-f8bc1246af59, $GPGGA,141820.00,4437.5848,N,12402.8872,W,1,11,0.8,25.6,M,-21.8,M,,*6A
2021-06-15 14:18:23Z, 6cda8203-a249-e411-b0cc-f8bc1246af59, $GPGGA,141822.00,4437.5849,N,12402.8869,W,1,11,0.8,25.6,M,-21.8,M,,*63
2021-06-15 14:18:24Z, 6cda8203-a249-e411-b0cc-f8bc1246af59, $GPGGA,141823.00,4437.5848,N,12402.8870,W,1,11,0.8,25.5,M,-21.8,M,,*68
2021-06-15 14:18:26Z, 6cda8203-a249-e411-b0cc-f8bc1246af59, $GPGGA,141825.00,4437.5847,N,12402.8872,W,1,11,0.8,25.5,M,-21.8,M,,*63
2021-06-15 14:18:27Z, 6cda8203-a249-e411-b0cc-f8bc1246af59, $GPGGA,141826.00,4437.5846,N,12402.8874,W,1,11,0.8,25.4,M,-21.8,M,,*66
2021-06-15 14:18:28Z, 6cda8203-a249-e411-b0cc-f8bc1246af59, $GPGGA,141827.00,4437.5847,N,12402.8874,W,1,11,0.8,25.3,M,-21.8,M,,*61
2021-06-15 14:18:29Z, 6cda8203-a249-e411-b0cc-f8bc1246af59, $GPGGA,141828.00,4437.5847,N,12402.8874,W,1,11,0.8,25.3,M,-21.8,M,,*6E
2021-06-15 14:18:30Z, 6cda8203-a249-e411-b0cc-f8bc1246af59, $GPGGA,141829.00,4437.5848,N,12402.8878,W,1,11,0.8,25.2,M,-21.8,M,,*6D
2021-06-15 14:18:32Z, 6cda8203-a249-e411-b0cc-f8bc1246af59, $GPGGA,141831.00,4437.5848,N,12402.8877,W,1,11,0.8,25.2,M,-21.8,M,,*6B
2021-06-15 14:18:33Z, 6cda8203-a249-e411-b0cc-f8bc1246af59, $GPGGA,141832.00,4437.5849,N,12402.8879,W,1,11,0.8,25.3,M,-21.8,M,,*66
2021-06-15 14:18:34Z, 6cda8203-a249-e411-b0cc-f8bc1246af59, $GPGGA,141833.00,4437.5848,N,12402.8881,W,1,11,0.8,25.4,M,-21.8,M,,*66
2021-06-15 14:18:36Z, 6cda8203-a249-e411-b0cc-f8bc1246af59, $GPGGA,141835.00,4437.5849,N,12402.8881,W,1,11,0.8,25.4,M,-21.8,M,,*61
2021-06-15 14:18:37Z, 6cda8203-a249-e411-b0cc-f8bc1246af59, $GPGGA,141836.00,4437.5850,N,12402.8882,W,1,11,0.8,25.5,M,-21.8,M,,*68
2021-06-15 14:18:38Z, 6cda8203-a249-e411-b0cc-f8bc1246af59, $GPGGA,141837.00,4437.5851,N,12402.8882,W,1,11,0.8,25.5,M,-21.8,M,,*68
2021-06-15 14:18:39Z, 6cda8203-a249-e411-b0cc-f8bc1246af59, $GPGGA,141838.00,4437.5852,N,12402.8881,W,1,11,0.8,25.5,M,-21.8,M,,*67
2021-06-15 14:18:40Z, 6cda8203-a249-e411-b0cc-f8bc1246af59, $GPGGA,141839.00,4437.5853,N,12402.8880,W,1,11,0.8,25.5,M,-21.8,M,,*66
2021-06-15 14:18:41Z, 6cda8203-a249-e411-b0cc-f8bc1246af59, $GPGGA,141840.00,4437.5854,N,12402.8880,W,1,11,0.8,25.4,M,-21.8,M,,*6E
2021-06-15 14:18:42Z, 6cda8203-a249-e411-b0cc-f8bc1246af59, $GPGGA,141841.00,4437.5853,N,12402.8881,W,1,11,0.8,25.4,M,-21.8,M,,*69
2021-06-15 14:18:43Z, 6cda8203-a249-e411-b0cc-f8bc1246af59, $GPGGA,141842.00,4437.5854,N,12402.8884,W,1,11,0.8,25.2,M,-21.8,M,,*6E
2021-06-15 14:18:45Z, 6cda8203-a249-e411-b0cc-f8bc1246af59, $GPGGA,141844.00,4437.5855,N,12402.8884,W,1,11,0.8,25.1,M,-21.8,M,,*6A
2021-06-15 14:18:46Z, 6cda8203-a249-e411-b0cc-f8bc1246af59, $GPGGA,141845.00,4437.5857,N,12402.8885,W,1,11,0.8,25.0,M,-21.8,M,,*69
2021-06-15 14:18:48Z, 6cda8203-a249-e411-b0cc-f8bc1246af59, $GPGGA,141847.00,4437.5857,N,12402.8883,W,1,11,0.8,24.9,M,-21.8,M,,*65
2021-06-15 14:18:49Z, 6cda8203-a249-e411-b0cc-f8bc1246af59, $GPGGA,141848.00,4437.5857,N,12402.8882,W,1,11,0.8,24.8,M,-21.8,M,,*6A
2021-06-15 14:18:50Z, 6cda8203-a249-e411-b0cc-f8bc1246af59, $GPGGA,141849.00,4437.5857,N,12402.8882,W,1,11,0.8,24.8,M,-21.8,M,,*6B
2021-06-15 14:18:52Z, 6cda8203-a249-e411-b0cc-f8bc1246af59, $GPGGA,141851.00,4437.5857,N,12402.8880,W,1,11,0.8,24.6,M,-21.8,M,,*6E
2021-06-15 14:18:53Z, 6cda8203-a249-e411-b0cc-f8bc1246af59, $GPGGA,141852.00,4437.5856,N,12402.8880,W,1,11,0.8,24.6,M,-21.8,M,,*6C
2021-06-15 14:18:54Z, 6cda8203-a249-e411-b0cc-f8bc1246af59, $GPGGA,141853.00,4437.5855,N,12402.8877,W,1,11,0.8,24.6,M,-21.8,M,,*66
2021-06-15 14:18:55Z, 6cda8203-a249-e411-b0cc-f8bc1246af59, $GPGGA,141854.00,4437.5855,N,12402.8874,W,1,11,0.8,24.6,M,-21.8,M,,*62
2021-06-15 14:18:56Z, 6cda8203-a249-e411-b0cc-f8bc1246af59, $GPGGA,141855.00,4437.5854,N,12402.8871,W,1,11,0.8,24.5,M,-21.8,M,,*64
2021-06-15 14:18:58Z, 6cda8203-a249-e411-b0cc-f8bc1246af59, $GPGGA,141857.00,4437.5857,N,12402.8871,W,1,11,0.8,24.4,M,-21.8,M,,*64
2021-06-15 14:18:59Z, 6cda8203-a249-e411-b0cc-f8bc1246af59, $GPGGA,141858.00,4437.5857,N,12402.8871,W,1,11,0.8,24.3,M,-21.8,M,,*6C
2021-06-15 14:19:00Z, 6cda8203-a249-e411-b0cc-f8bc1246af59, $GPGGA,141859.00,4437.5861,N,12402.8866,W,1,11,0.8,24.3,M,-21.8,M,,*6E
2021-06-15 14:19:01Z, 6cda8203-a249-e411-b0cc-f8bc1246af59, $GPGGA,141900.00,4437.5862,N,12402.8867,W,1,11,0.8,24.4,M,-21.8,M,,*66
2021-06-15 14:19:02Z, 6cda8203-a249-e411-b0cc-f8bc1246af59, $GPGGA,141901.00,4437.5864,N,12402.8867,W,1,11,0.8,24.5,M,-21.8,M,,*60
2021-06-15 14:19:03Z, 6cda8203-a249-e411-b0cc-f8bc1246af59, $GPGGA,141902.00,4437.5864,N,12402.8868,W,1,11,0.8,24.6,M,-21.8,M,,*6F
2021-06-15 14:19:05Z, 6cda8203-a249-e411-b0cc-f8bc1246af59, $GPGGA,141904.00,4437.5862,N,12402.8873,W,1,11,0.8,24.6,M,-21.8,M,,*65
2021-06-15 14:19:06Z, 6cda8203-a249-e411-b0cc-f8bc1246af59, $GPGGA,141905.00,4437.5863,N,12402.8871,W,1,11,0.8,24.7,M,-21.8,M,,*66
2021-06-15 14:19:07Z, 6cda8203-a249-e411-b0cc-f8bc1246af59, $GPGGA,141906.00,4437.5864,N,12402.8870,W,1,11,0.8,24.6,M,-21.8,M,,*62
2021-06-15 14:19:08Z, 6cda8203-a249-e411-b0cc-f8bc1246af59, $GPGGA,141907.00,4437.5865,N,12402.8871,W,1,11,0.8,24.6,M,-21.8,M,,*63
2021-06-15 14:19:09Z, 6cda8203-a249-e411-b0cc-f8bc1246af59, $GPGGA,141908.00,4437.5868,N,12402.8873,W,1,11,0.8,24.7,M,-21.8,M,,*62
2021-06-15 14:19:10Z, 6cda8203-a249-e411-b0cc-f8bc1246af59, $GPGGA,141909.00,4437.5868,N,12402.8875,W,1,11,0.8,24.7,M,-21.8,M,,*65
2021-06-15 14:19:11Z, 6cda8203-a249-e411-b0cc-f8bc1246af59, $GPGGA,141910.00,4437.5871,N,12402.8875,W,1,11,0.8,24.8,M,-21.8,M,,*6A
2021-06-15 14:19:12Z, 6cda8203-a249-e411-b0cc-f8bc1246af59, $GPGGA,141911.00,4437.5872,N,12402.8872,W,1,11,0.8,24.8,M,-21.8,M,,*6F
2021-06-15 14:19:13Z, 6cda8203-a249-e411-b0cc-f8bc1246af59, $GPGGA,141912.00,4437.5874,N,12402.8870,W,1,11,0.8,24.8,M,-21.8,M,,*68
2021-06-15 14:19:14Z, 6cda8203-a249-e411-b0cc-f8bc1246af59, $GPGGA,141913.00,4437.5875,N,12402.8869,W,1,11,0.8,24.8,M,-21.8,M,,*60
2021-06-15 14:19:15Z, 6cda8203-a249-e411-b0cc-f8bc1246af59, $GPGGA,141914.00,4437.5873,N,12402.8866,W,1,11,0.8,24.8,M,-21.8,M,,*6E
2021-06-15 14:19:17Z, 6cda8203-a249-e411-b0cc-f8bc1246af59, $GPGGA,141916.00,4437.5871,N,12402.8867,W,1,11,0.8,24.7,M,-21.8,M,,*60
2021-06-15 14:19:18Z, 6cda8203-a249-e411-b0cc-f8bc1246af59, $GPGGA,141917.00,4437.5870,N,12402.8866,W,1,11,0.8,24.7,M,-21.8,M,,*61
2021-06-15 14:19:19Z, 6cda8203-a249-e411-b0cc-f8bc1246af59, $GPGGA,141918.00,4437.5871,N,12402.8863,W,1,11,0.8,24.7,M,-21.8,M,,*6A
2021-06-15 14:19:20Z, 6cda8203-a249-e411-b0cc-f8bc1246af59, $GPGGA,141919.00,4437.5871,N,12402.8862,W,1,11,0.8,24.6,M,-21.8,M,,*6B
2021-06-15 14:19:21Z, 6cda8203-a249-e411-b0cc-f8bc1246af59, $GPGGA,141920.00,4437.5872,N,12402.8861,W,1,11,0.8,24.5,M,-21.8,M,,*62
2021-06-15 14:19:22Z, 6cda8203-a249-e411-b0cc-f8bc1246af59, $GPGGA,141921.00,4437.5872,N,12402.8860,W,1,11,0.8,24.5,M,-21.8,M,,*62
2021-06-15 14:19:24Z, 6cda8203-a249-e411-b0cc-f8bc1246af59, $GPGGA,141923.00,4437.5872,N,12402.8861,W,1,11,0.8,24.4,M,-21.8,M,,*60
2021-06-15 14:19:25Z, 6cda8203-a249-e411-b0cc-f8bc1246af59, $GPGGA,141924.00,4437.5873,N,12402.8861,W,1,11,0.8,24.3,M,-21.8,M,,*61
2021-06-15 14:19:27Z, 6cda8203-a249-e411-b0cc-f8bc1246af59, $GPGGA,141926.00,4437.5873,N,12402.8862,W,1,11,0.8,24.2,M,-21.8,M,,*61
2021-06-15 14:19:29Z, 6cda8203-a249-e411-b0cc-f8bc1246af59, $GPGGA,141927.00,4437.5874,N,12402.8862,W,1,11,0.8,24.2,M,-21.8,M,,*67
2021-06-15 14:19:30Z, 6cda8203-a249-e411-b0cc-f8bc1246af59, $GPGGA,141929.00,4437.5871,N,12402.8862,W,1,11,0.8,24.1,M,-21.8,M,,*6F
2021-06-15 14:19:32Z, 6cda8203-a249-e411-b0cc-f8bc1246af59, $GPGGA,141930.00,4437.5872,N,12402.8861,W,1,11,0.8,24.0,M,-21.8,M,,*66
2021-06-15 14:19:33Z, 6cda8203-a249-e411-b0cc-f8bc1246af59, $GPGGA,141932.00,4437.5873,N,12402.8862,W,1,11,0.8,23.8,M,-21.8,M,,*69
2021-06-15 14:19:34Z, 6cda8203-a249-e411-b0cc-f8bc1246af59, $GPGGA,141933.00,4437.5874,N,12402.8862,W,1,11,0.8,23.7,M,-21.8,M,,*60
2021-06-15 14:19:36Z, 6cda8203-a249-e411-b0cc-f8bc1246af59, $GPGGA,141935.00,4437.5873,N,12402.8865,W,1,11,0.8,23.3,M,-21.8,M,,*62
2021-06-15 14:19:37Z, 6cda8203-a249-e411-b0cc-f8bc1246af59, $GPGGA,141936.00,4437.5872,N,12402.8866,W,1,11,0.8,23.2,M,-21.8,M,,*62
2021-06-15 14:19:39Z, 6cda8203-a249-e411-b0cc-f8bc1246af59, $GPGGA,141938.00,4437.5867,N,12402.8869,W,1,11,0.8,23.0,M,-21.8,M,,*65
2021-06-15 14:19:40Z, 6cda8203-a249-e411-b0cc-f8bc1246af59, $GPGGA,141939.00,4437.5868,N,12402.8869,W,1,11,0.8,23.0,M,-21.8,M,,*6B
2021-06-15 14:19:42Z, 6cda8203-a249-e411-b0cc-f8bc1246af59, $GPGGA,141941.00,4437.5870,N,12402.8869,W,1,11,0.8,22.8,M,-21.8,M,,*64
2021-06-15 14:19:43Z, 6cda8203-a249-e411-b0cc-f8bc1246af59, $GPGGA,141942.00,4437.5870,N,12402.8868,W,1,11,0.8,22.6,M,-21.8,M,,*68
2021-06-15 14:19:45Z, 6cda8203-a249-e411-b0cc-f8bc1246af59, $GPGGA,141944.00,4437.5869,N,12402.8866,W,1,11,0.8,22.5,M,-21.8,M,,*6B
2021-06-15 14:19:46Z, 6cda8203-a249-e411-b0cc-f8bc1246af59, $GPGGA,141945.00,4437.5869,N,12402.8867,W,1,11,0.8,22.5,M,-21.8,M,,*6B
2021-06-15 14:19:48Z, 6cda8203-a249-e411-b0cc-f8bc1246af59, $GPGGA,141947.00,4437.5869,N,12402.8868,W,1,11,0.8,22.4,M,-21.8,M,,*67
2021-06-15 14:19:49Z, 6cda8203-a249-e411-b0cc-f8bc1246af59, $GPGGA,141948.00,4437.5870,N,12402.8865,W,1,11,0.8,22.2,M,-21.8,M,,*6B
2021-06-15 14:19:51Z, 6cda8203-a249-e411-b0cc-f8bc1246af59, $GPGGA,141950.00,4437.5870,N,12402.8863,W,1,11,0.8,21.8,M,-21.8,M,,*6D
2021-06-15 14:19:52Z, 6cda8203-a249-e411-b0cc-f8bc1246af59, $GPGGA,141951.00,4437.5868,N,12402.8859,W,1,11,0.8,21.7,M,-21.8,M,,*63
2021-06-15 14:19:54Z, 6cda8203-a249-e411-b0cc-f8bc1246af59, $GPGGA,141953.00,4437.5866,N,12402.8853,W,1,11,0.8,21.5,M,-21.8,M,,*67
2021-06-15 14:19:55Z, 6cda8203-a249-e411-b0cc-f8bc1246af59, $GPGGA,141954.00,4437.5866,N,12402.8852,W,1,11,0.8,21.4,M,-21.8,M,,*60
2021-06-15 14:19:57Z, 6cda8203-a249-e411-b0cc-f8bc1246af59, $GPGGA,141956.00,4437.5867,N,12402.8853,W,1,11,0.8,21.4,M,-21.8,M,,*62
2021-06-15 14:19:58Z, 6cda8203-a249-e411-b0cc-f8bc1246af59, $GPGGA,141957.00,4437.5866,N,12402.8852,W,1,11,0.8,21.4,M,-21.8,M,,*63
2021-06-15 14:20:00Z, 6cda8203-a249-e411-b0cc-f8bc1246af59, $GPGGA,141959.00,4437.5866,N,12402.8851,W,1,11,0.8,21.4,M,-21.8,M,,*6E
2021-06-15 14:20:01Z, 6cda8203-a249-e411-b0cc-f8bc1246af59, $GPGGA,142000.00,4437.5867,N,12402.8849,W,1,11,0.8,21.4,M,-21.8,M,,*60
2021-06-15 14:20:03Z, 6cda8203-a249-e411-b0cc-f8bc1246af59, $GPGGA,142002.00,4437.5868,N,12402.8846,W,1,11,0.8,21.4,M,-21.8,M,,*62
2021-06-15 14:20:04Z, 6cda8203-a249-e411-b0cc-f8bc1246af59, $GPGGA,142003.00,4437.5869,N,12402.8846,W,1,11,0.8,21.4,M,-21.8,M,,*62
2021-06-15 14:20:06Z, 6cda8203-a249-e411-b0cc-f8bc1246af59, $GPGGA,142005.00,4437.5867,N,12402.8846,W,1,11,0.8,21.2,M,-21.8,M,,*6C
2021-06-15 14:20:07Z, 6cda8203-a249-e411-b0cc-f8bc1246af59, $GPGGA,142006.00,4437.5865,N,12402.8847,W,1,11,0.8,21.0,M,-21.8,M,,*6E
2021-06-15 14:20:09Z, 6cda8203-a249-e411-b0cc-f8bc1246af59, $GPGGA,142008.00,4437.5865,N,12402.8848,W,1,11,0.8,21.0,M,-21.8,M,,*6F
2021-06-15 14:20:10Z, 6cda8203-a249-e411-b0cc-f8bc1246af59, $GPGGA,142009.00,4437.5864,N,12402.8850,W,1,11,0.8,21.0,M,-21.8,M,,*66
2021-06-15 14:20:12Z, 6cda8203-a249-e411-b0cc-f8bc1246af59, $GPGGA,142011.00,4437.5864,N,12402.8852,W,1,11,0.8,20.9,M,-21.8,M,,*65
2021-06-15 14:20:13Z, 6cda8203-a249-e411-b0cc-f8bc1246af59, $GPGGA,142012.00,4437.5863,N,12402.8853,W,1,11,0.8,20.8,M,-21.8,M,,*61
2021-06-15 14:20:15Z, 6cda8203-a249-e411-b0cc-f8bc1246af59, $GPGGA,142014.00,4437.5858,N,12402.8858,W,1,11,0.8,20.6,M,-21.8,M,,*6A
2021-06-15 14:20:16Z, 6cda8203-a249-e411-b0cc-f8bc1246af59, $GPGGA,142015.00,4437.5857,N,12402.8858,W,1,11,0.8,20.5,M,-21.8,M,,*67
2021-06-15 14:20:18Z, 6cda8203-a249-e411-b0cc-f8bc1246af59, $GPGGA,142017.00,4437.5859,N,12402.8857,W,1,11,0.8,20.5,M,-21.8,M,,*64
2021-06-15 14:20:19Z, 6cda8203-a249-e411-b0cc-f8bc1246af59, $GPGGA,142018.00,4437.5860,N,12402.8856,W,1,11,0.8,20.5,M,-21.8,M,,*60
2021-06-15 14:20:21Z, 6cda8203-a249-e411-b0cc-f8bc1246af59, $GPGGA,142020.00,4437.5862,N,12402.8857,W,1,11,0.8,20.5,M,-21.8,M,,*68
2021-06-15 14:20:22Z, 6cda8203-a249-e411-b0cc-f8bc1246af59, $GPGGA,142021.00,4437.5862,N,12402.8856,W,1,11,0.8,20.5,M,-21.8,M,,*68
2021-06-15 14:20:24Z, 6cda8203-a249-e411-b0cc-f8bc1246af59, $GPGGA,142023.00,4437.5864,N,12402.8858,W,1,11,0.8,20.4,M,-21.8,M,,*63
2021-06-15 14:20:25Z, 6cda8203-a249-e411-b0cc-f8bc1246af59, $GPGGA,142024.00,4437.5864,N,12402.8858,W,1,11,0.8,20.4,M,-21.8,M,,*64
2021-06-15 14:20:27Z, 6cda8203-a249-e411-b0cc-f8bc1246af59, $GPGGA,142026.00,4437.5865,N,12402.8860,W,1,11,0.8,20.3,M,-21.8,M,,*6B
2021-06-15 14:20:28Z, 6cda8203-a249-e411-b0cc-f8bc1246af59, $GPGGA,142027.00,4437.5865,N,12402.8860,W,1,11,0.8,20.2,M,-21.8,M,,*6B
2021-06-15 14:20:30Z, 6cda8203-a249-e411-b0cc-f8bc1246af59, $GPGGA,142029.00,4437.5865,N,12402.8858,W,1,11,0.8,19.8,M,-21.8,M,,*6E
2021-06-15 14:20:31Z, 6cda8203-a249-e411-b0cc-f8bc1246af59, $GPGGA,142030.00,4437.5865,N,12402.8855,W,1,11,0.8,19.8,M,-21.8,M,,*6B
2021-06-15 14:20:33Z, 6cda8203-a249-e411-b0cc-f8bc1246af59, $GPGGA,142032.00,4437.5863,N,12402.8857,W,1,11,0.8,19.8,M,-21.8,M,,*6D
2021-06-15 14:20:34Z, 6cda8203-a249-e411-b0cc-f8bc1246af59, $GPGGA,142033.00,4437.5861,N,12402.8856,W,1,11,0.8,19.7,M,-21.8,M,,*60
2021-06-15 14:20:36Z, 6cda8203-a249-e411-b0cc-f8bc1246af59, $GPGGA,142035.00,4437.5861,N,12402.8860,W,1,11,0.8,19.8,M,-21.8,M,,*6C
2021-06-15 14:20:37Z, 6cda8203-a249-e411-b0cc-f8bc1246af59, $GPGGA,142036.00,4437.5860,N,12402.8862,W,1,11,0.8,19.9,M,-21.8,M,,*6D
2021-06-15 14:20:39Z, 6cda8203-a249-e411-b0cc-f8bc1246af59, $GPGGA,142038.00,4437.5858,N,12402.8863,W,1,11,0.8,20.0,M,-21.8,M,,*6A
2021-06-15 14:20:40Z, 6cda8203-a249-e411-b0cc-f8bc1246af59, $GPGGA,142039.00,4437.5857,N,12402.8862,W,1,11,0.8,20.0,M,-21.8,M,,*65
2021-06-15 14:20:42Z, 6cda8203-a249-e411-b0cc-f8bc1246af59, $GPGGA,142041.00,4437.5854,N,12402.8863,W,1,11,0.8,19.8,M,-21.8,M,,*6A
2021-06-15 14:20:43Z, 6cda8203-a249-e411-b0cc-f8bc1246af59, $GPGGA,142042.00,4437.5854,N,12402.8861,W,1,11,0.8,19.6,M,-21.8,M,,*65
2021-06-15 14:20:45Z, 6cda8203-a249-e411-b0cc-f8bc1246af59, $GPGGA,142044.00,4437.5856,N,12402.8862,W,1,11,0.8,19.6,M,-21.8,M,,*62
2021-06-15 14:20:46Z, 6cda8203-a249-e411-b0cc-f8bc1246af59, $GPGGA,142045.00,4437.5855,N,12402.8862,W,1,11,0.8,19.6,M,-21.8,M,,*60
2021-06-15 14:20:48Z, 6cda8203-a249-e411-b0cc-f8bc1246af59, $GPGGA,142047.00,4437.5855,N,12402.8863,W,1,11,0.8,19.6,M,-21.8,M,,*63
2021-06-15 14:20:49Z, 6cda8203-a249-e411-b0cc-f8bc1246af59, $GPGGA,142048.00,4437.5856,N,12402.8865,W,1,11,0.8,19.5,M,-21.8,M,,*6A
2021-06-15 14:20:51Z, 6cda8203-a249-e411-b0cc-f8bc1246af59, $GPGGA,142050.00,4437.5858,N,12402.8868,W,1,11,0.8,19.4,M,-21.8,M,,*61
2021-06-15 14:20:52Z, 6cda8203-a249-e411-b0cc-f8bc1246af59, $GPGGA,142051.00,4437.5859,N,12402.8868,W,1,11,0.8,19.5,M,-21.8,M,,*60
2021-06-15 14:20:54Z, 6cda8203-a249-e411-b0cc-f8bc1246af59, $GPGGA,142053.00,4437.5860,N,12402.8869,W,1,11,0.8,19.6,M,-21.8,M,,*6A
2021-06-15 14:20:55Z, 6cda8203-a249-e411-b0cc-f8bc1246af59, $GPGGA,142054.00,4437.5862,N,12402.8870,W,1,11,0.8,19.6,M,-21.8,M,,*67
2021-06-15 14:20:57Z, 6cda8203-a249-e411-b0cc-f8bc1246af59, $GPGGA,142056.00,4437.5864,N,12402.8872,W,1,11,0.8,19.7,M,-21.8,M,,*60
2021-06-15 14:20:58Z, 6cda8203-a249-e411-b0cc-f8bc1246af59, $GPGGA,142057.00,4437.5866,N,12402.8875,W,1,11,0.8,19.7,M,-21.8,M,,*64
2021-06-15 14:21:00Z, 6cda8203-a249-e411-b0cc-f8bc1246af59, $GPGGA,142059.00,4437.5871,N,12402.8873,W,1,11,0.8,19.6,M,-21.8,M,,*6B
2021-06-15 14:21:01Z, 6cda8203-a249-e411-b0cc-f8bc1246af59, $GPGGA,142100.00,4437.5872,N,12402.8874,W,1,11,0.8,19.6,M,-21.8,M,,*62
2021-06-15 14:21:03Z, 6cda8203-a249-e411-b0cc-f8bc1246af59, $GPGGA,142102.00,4437.5873,N,12402.8874,W,1,11,0.8,19.6,M,-21.8,M,,*61
2021-06-15 14:21:04Z, 6cda8203-a249-e411-b0cc-f8bc1246af59, $GPGGA,142103.00,4437.5874,N,12402.8873,W,1,11,0.8,19.6,M,-21.8,M,,*60
2021-06-15 14:21:06Z, 6cda8203-a249-e411-b0cc-f8bc1246af59, $GPGGA,142105.00,4437.5874,N,12402.8871,W,1,11,0.8,19.5,M,-21.8,M,,*67
2021-06-15 14:21:07Z, 6cda8203-a249-e411-b0cc-f8bc1246af59, $GPGGA,142106.00,4437.5874,N,12402.8866,W,1,11,0.8,19.5,M,-21.8,M,,*62
2021-06-15 14:21:09Z, 6cda8203-a249-e411-b0cc-f8bc1246af59, $GPGGA,142108.00,4437.5876,N,12402.8864,W,1,11,0.8,19.5,M,-21.8,M,,*6C
2021-06-15 14:21:10Z, 6cda8203-a249-e411-b0cc-f8bc1246af59, $GPGGA,142109.00,4437.5876,N,12402.8863,W,1,11,0.8,19.5,M,-21.8,M,,*6A
2021-06-15 14:21:12Z, 6cda8203-a249-e411-b0cc-f8bc1246af59, $GPGGA,142111.00,4437.5876,N,12402.8861,W,1,11,0.8,19.5,M,-21.8,M,,*61
2021-06-15 14:21:13Z, 6cda8203-a249-e411-b0cc-f8bc1246af59, $GPGGA,142112.00,4437.5877,N,12402.8860,W,1,11,0.8,19.5,M,-21.8,M,,*62
2021-06-15 14:21:15Z, 6cda8203-a249-e411-b0cc-f8bc1246af59, $GPGGA,142114.00,4437.5878,N,12402.8861,W,1,11,0.8,19.5,M,-21.8,M,,*6A
2021-06-15 14:21:16Z, 6cda8203-a249-e411-b0cc-f8bc1246af59, $GPGGA,142115.00,4437.5879,N,12402.8861,W,1,11,0.8,19.5,M,-21.8,M,,*6A
2021-06-15 14:21:18Z, 6cda8203-a249-e411-b0cc-f8bc1246af59, $GPGGA,142117.00,4437.5877,N,12402.8861,W,1,11,0.8,19.6,M,-21.8,M,,*65
2021-06-15 14:21:19Z, 6cda8203-a249-e411-b0cc-f8bc1246af59, $GPGGA,142118.00,4437.5875,N,12402.8860,W,1,11,0.8,19.7,M,-21.8,M,,*68
2021-06-15 14:21:21Z, 6cda8203-a249-e411-b0cc-f8bc1246af59, $GPGGA,142120.00,4437.5874,N,12402.8855,W,1,11,0.8,19.7,M,-21.8,M,,*64
2021-06-15 14:21:22Z, 6cda8203-a249-e411-b0cc-f8bc1246af59, $GPGGA,142121.00,4437.5872,N,12402.8856,W,1,11,0.8,19.7,M,-21.8,M,,*60
2021-06-15 14:21:23Z, 6cda8203-a249-e411-b0cc-f8bc1246af59, $GPGGA,142122.00,4437.5872,N,12402.8858,W,1,11,0.8,19.6,M,-21.8,M,,*6C
2021-06-15 14:21:24Z, 6cda8203-a249-e411-b0cc-f8bc1246af59, $GPGGA,142123.00,4437.5871,N,12402.8859,W,1,11,0.8,19.5,M,-21.8,M,,*6C
2021-06-15 14:21:25Z, 6cda8203-a249-e411-b0cc-f8bc1246af59, $GPGGA,142124.00,4437.5871,N,12402.8861,W,1,11,0.8,19.4,M,-21.8,M,,*61
2021-06-15 14:21:26Z, 6cda8203-a249-e411-b0cc-f8bc1246af59, $GPGGA,142125.00,4437.5870,N,12402.8865,W,1,11,0.8,19.4,M,-21.8,M,,*65
2021-06-15 14:21:28Z, 6cda8203-a249-e411-b0cc-f8bc1246af59, $GPGGA,142126.00,4437.5869,N,12402.8868,W,1,11,0.8,19.3,M,-21.8,M,,*64
2021-06-15 14:21:29Z, 6cda8203-a249-e411-b0cc-f8bc1246af59, $GPGGA,142128.00,4437.5868,N,12402.8874,W,1,11,0.8,19.3,M,-21.8,M,,*66
2021-06-15 14:21:30Z, 6cda8203-a249-e411-b0cc-f8bc1246af59, $GPGGA,142129.00,4437.5867,N,12402.8876,W,1,11,0.8,19.3,M,-21.8,M,,*6A
2021-06-15 14:21:32Z, 6cda8203-a249-e411-b0cc-f8bc1246af59, $GPGGA,142131.00,4437.5865,N,12402.8876,W,1,11,0.8,19.4,M,-21.8,M,,*66
2021-06-15 14:21:34Z, 6cda8203-a249-e411-b0cc-f8bc1246af59, $GPGGA,142132.00,4437.5866,N,12402.8875,W,1,11,0.8,19.5,M,-21.8,M,,*64
2021-06-15 14:21:35Z, 6cda8203-a249-e411-b0cc-f8bc1246af59, $GPGGA,142134.00,4437.5867,N,12402.8878,W,1,11,0.8,19.7,M,-21.8,M,,*6C
2021-06-15 14:21:37Z, 6cda8203-a249-e411-b0cc-f8bc1246af59, $GPGGA,142135.00,4437.5867,N,12402.8880,W,1,11,0.8,19.8,M,-21.8,M,,*65
2021-06-15 14:21:38Z, 6cda8203-a249-e411-b0cc-f8bc1246af59, $GPGGA,142137.00,4437.5867,N,12402.8880,W,1,11,0.8,19.9,M,-21.8,M,,*66
