ACQ Timestamp (Server Time in UTC), MessageID, Data Value For: GNSS-6452-$GPGGA
2021-09-03T20:51:34.2148579Z, 6cda8203-a249-e411-b0cc-f8bc1246af59, $GPGGA,205133.00,4430.1602,N,12418.4189,W,1,08,1.0,10.8,M,-22.3,M,,*6A
2021-09-03T20:51:35.6346630Z, 6cda8203-a249-e411-b0cc-f8bc1246af59, $GPGGA,205134.00,4430.1578,N,12418.4210,W,1,08,1.0,8.3,M,-22.3,M,,*52
2021-09-03T20:51:37.2446697Z, 6cda8203-a249-e411-b0cc-f8bc1246af59, $GPGGA,205136.00,4430.1532,N,12418.4253,W,1,08,1.0,5.9,M,-22.3,M,,*5E
2021-09-03T20:51:38.6345642Z, 6cda8203-a249-e411-b0cc-f8bc1246af59, $GPGGA,205137.00,4430.1508,N,12418.4275,W,1,08,1.0,7.4,M,-22.3,M,,*5D
2021-09-03T20:51:40.2146680Z, 6cda8203-a249-e411-b0cc-f8bc1246af59, $GPGGA,205139.00,4430.1460,N,12418.4317,W,1,08,1.0,8.4,M,-22.3,M,,*56
2021-09-03T20:51:41.6354476Z, 6cda8203-a249-e411-b0cc-f8bc1246af59, $GPGGA,205140.00,4430.1435,N,12418.4339,W,1,08,1.0,10.0,M,-22.3,M,,*69
2021-09-03T20:51:43.2155564Z, 6cda8203-a249-e411-b0cc-f8bc1246af59, $GPGGA,205142.00,4430.1386,N,12418.4383,W,1,08,1.0,5.5,M,-22.3,M,,*54
2021-09-03T20:51:44.6353429Z, 6cda8203-a249-e411-b0cc-f8bc1246af59, $GPGGA,205143.00,4430.1362,N,12418.4406,W,1,08,1.0,3.9,M,-22.3,M,,*5F
2021-09-03T20:51:46.2154505Z, 6cda8203-a249-e411-b0cc-f8bc1246af59, $GPGGA,205145.00,4430.1315,N,12418.4454,W,1,08,1.0,6.0,M,-22.3,M,,*52
2021-09-03T20:51:47.6352560Z, 6cda8203-a249-e411-b0cc-f8bc1246af59, $GPGGA,205146.00,4430.1291,N,12418.4476,W,1,08,1.0,5.8,M,-22.3,M,,*57
2021-09-03T20:51:49.2155185Z, 6cda8203-a249-e411-b0cc-f8bc1246af59, $GPGGA,205148.00,4430.1244,N,12418.4520,W,1,08,1.0,7.9,M,-22.3,M,,*50
2021-09-03T20:51:50.6353225Z, 6cda8203-a249-e411-b0cc-f8bc1246af59, $GPGGA,205149.00,4430.1220,N,12418.4541,W,1,08,1.0,7.3,M,-22.3,M,,*5E
2021-09-03T20:51:52.2154282Z, 6cda8203-a249-e411-b0cc-f8bc1246af59, $GPGGA,205151.00,4430.1171,N,12418.4584,W,1,08,1.0,10.0,M,-22.3,M,,*6C
2021-09-03T20:51:53.6352156Z, 6cda8203-a249-e411-b0cc-f8bc1246af59, $GPGGA,205152.00,4430.1147,N,12418.4606,W,1,08,1.0,9.6,M,-22.3,M,,*5D
2021-09-03T20:51:55.2158537Z, 6cda8203-a249-e411-b0cc-f8bc1246af59, $GPGGA,205154.00,4430.1101,N,12418.4652,W,1,08,1.0,7.9,M,-22.3,M,,*59
2021-09-03T20:51:56.6356324Z, 6cda8203-a249-e411-b0cc-f8bc1246af59, $GPGGA,205155.00,4430.1077,N,12418.4675,W,1,08,1.0,8.1,M,-22.3,M,,*5A
2021-09-03T20:51:58.2157444Z, 6cda8203-a249-e411-b0cc-f8bc1246af59, $GPGGA,205157.00,4430.1028,N,12418.4716,W,1,08,1.0,7.0,M,-22.3,M,,*58
2021-09-03T20:51:59.6355858Z, 6cda8203-a249-e411-b0cc-f8bc1246af59, $GPGGA,205158.00,4430.1004,N,12418.4738,W,1,08,1.0,6.0,M,-22.3,M,,*54
2021-09-03T20:52:01.1858164Z, 6cda8203-a249-e411-b0cc-f8bc1246af59, $GPGGA,205200.00,4430.0956,N,12418.4784,W,1,08,1.0,4.8,M,-22.3,M,,*58
2021-09-03T20:52:02.6354920Z, 6cda8203-a249-e411-b0cc-f8bc1246af59, $GPGGA,205201.00,4430.0932,N,12418.4807,W,1,08,1.0,3.7,M,-22.3,M,,*57
2021-09-03T20:52:04.2155544Z, 6cda8203-a249-e411-b0cc-f8bc1246af59, $GPGGA,205203.00,4430.0884,N,12418.4853,W,1,08,1.0,2.6,M,-22.3,M,,*58
2021-09-03T20:52:05.6363685Z, 6cda8203-a249-e411-b0cc-f8bc1246af59, $GPGGA,205204.00,4430.0861,N,12418.4876,W,1,08,1.0,2.5,M,-22.3,M,,*50
2021-09-03T20:52:07.2164673Z, 6cda8203-a249-e411-b0cc-f8bc1246af59, $GPGGA,205206.00,4430.0813,N,12418.4921,W,1,08,1.0,1.0,M,-22.3,M,,*52
2021-09-03T20:52:08.6362871Z, 6cda8203-a249-e411-b0cc-f8bc1246af59, $GPGGA,205207.00,4430.0788,N,12418.4943,W,1,08,1.0,1.8,M,-22.3,M,,*52
2021-09-03T20:52:10.2163748Z, 6cda8203-a249-e411-b0cc-f8bc1246af59, $GPGGA,205209.00,4430.0742,N,12418.4989,W,1,08,1.0,2.1,M,-22.3,M,,*56
2021-09-03T20:52:11.5565363Z, 6cda8203-a249-e411-b0cc-f8bc1246af59, $GPGGA,205210.00,4430.0719,N,12418.5012,W,1,08,1.0,2.7,M,-22.3,M,,*5C
2021-09-03T20:52:12.6766831Z, 6cda8203-a249-e411-b0cc-f8bc1246af59, $GPGGA,205211.00,4430.0696,N,12418.5035,W,1,08,1.0,2.5,M,-22.3,M,,*5C
2021-09-03T20:52:13.7260567Z, 6cda8203-a249-e411-b0cc-f8bc1246af59, $GPGGA,205212.00,4430.0673,N,12418.5057,W,1,08,1.0,4.4,M,-22.3,M,,*57
2021-09-03T20:52:14.6161333Z, 6cda8203-a249-e411-b0cc-f8bc1246af59, $GPGGA,205213.00,4430.0651,N,12418.5079,W,1,08,1.0,6.0,M,-22.3,M,,*5C
2021-09-03T20:52:16.0168785Z, 6cda8203-a249-e411-b0cc-f8bc1246af59, $GPGGA,205214.00,4430.0627,N,12418.5101,W,1,08,1.0,5.6,M,-22.3,M,,*51
2021-09-03T20:52:17.1369997Z, 6cda8203-a249-e411-b0cc-f8bc1246af59, $GPGGA,205215.00,4430.0603,N,12418.5120,W,1,08,1.0,5.3,M,-22.3,M,,*50
2021-09-03T20:52:18.8265964Z, 6cda8203-a249-e411-b0cc-f8bc1246af59, $GPGGA,205217.00,4430.0557,N,12418.5161,W,1,08,1.0,3.8,M,-22.3,M,,*58
2021-09-03T20:52:19.9168409Z, 6cda8203-a249-e411-b0cc-f8bc1246af59, $GPGGA,205218.00,4430.0535,N,12418.5184,W,1,08,1.0,3.9,M,-22.3,M,,*59
2021-09-03T20:52:21.4870538Z, 6cda8203-a249-e411-b0cc-f8bc1246af59, $GPGGA,205220.00,4430.0489,N,12418.5230,W,1,08,1.0,6.3,M,-22.3,M,,*57
2021-09-03T20:52:22.6968044Z, 6cda8203-a249-e411-b0cc-f8bc1246af59, $GPGGA,205221.00,4430.0466,N,12418.5250,W,1,08,1.0,5.7,M,-22.3,M,,*56
2021-09-03T20:52:24.3764017Z, 6cda8203-a249-e411-b0cc-f8bc1246af59, $GPGGA,205223.00,4430.0421,N,12418.5294,W,1,08,1.0,4.5,M,-22.3,M,,*5C
2021-09-03T20:52:25.6369909Z, 6cda8203-a249-e411-b0cc-f8bc1246af59, $GPGGA,205224.00,4430.0399,N,12418.5318,W,1,08,1.0,3.3,M,-22.3,M,,*5B
2021-09-03T20:52:27.3773928Z, 6cda8203-a249-e411-b0cc-f8bc1246af59, $GPGGA,205226.00,4430.0354,N,12418.5361,W,1,08,1.0,5.8,M,-22.3,M,,*5B
2021-09-03T20:52:28.6393512Z, 6cda8203-a249-e411-b0cc-f8bc1246af59, $GPGGA,205227.00,4430.0331,N,12418.5379,W,1,08,1.0,5.8,M,-22.3,M,,*50
2021-09-03T20:52:30.3773168Z, 6cda8203-a249-e411-b0cc-f8bc1246af59, $GPGGA,205229.00,4430.0287,N,12418.5418,W,1,08,1.0,5.6,M,-22.3,M,,*5C
2021-09-03T20:52:31.6368120Z, 6cda8203-a249-e411-b0cc-f8bc1246af59, $GPGGA,205230.00,4430.0266,N,12418.5438,W,1,08,1.0,5.4,M,-22.3,M,,*5B
2021-09-03T20:52:33.3772884Z, 6cda8203-a249-e411-b0cc-f8bc1246af59, $GPGGA,205232.00,4430.0223,N,12418.5484,W,1,08,1.0,6.4,M,-22.3,M,,*5C
2021-09-03T20:52:34.6367619Z, 6cda8203-a249-e411-b0cc-f8bc1246af59, $GPGGA,205233.00,4430.0201,N,12418.5506,W,1,08,1.0,6.4,M,-22.3,M,,*56
2021-09-03T20:52:36.3772039Z, 6cda8203-a249-e411-b0cc-f8bc1246af59, $GPGGA,205235.00,4430.0157,N,12418.5544,W,1,08,1.0,7.6,M,-22.3,M,,*55
2021-09-03T20:52:37.6376336Z, 6cda8203-a249-e411-b0cc-f8bc1246af59, $GPGGA,205236.00,4430.0136,N,12418.5564,W,1,08,1.0,8.8,M,-22.3,M,,*52
2021-09-03T20:52:39.3770779Z, 6cda8203-a249-e411-b0cc-f8bc1246af59, $GPGGA,205238.00,4430.0093,N,12418.5607,W,1,08,1.0,8.1,M,-22.3,M,,*5D
2021-09-03T20:52:40.6375441Z, 6cda8203-a249-e411-b0cc-f8bc1246af59, $GPGGA,205239.00,4430.0072,N,12418.5626,W,1,08,1.0,9.9,M,-22.3,M,,*59
2021-09-03T20:52:42.3779754Z, 6cda8203-a249-e411-b0cc-f8bc1246af59, $GPGGA,205241.00,4430.0030,N,12418.5665,W,1,08,1.0,9.6,M,-22.3,M,,*58
2021-09-03T20:52:43.6374389Z, 6cda8203-a249-e411-b0cc-f8bc1246af59, $GPGGA,205242.00,4430.0009,N,12418.5684,W,1,08,1.0,8.3,M,-22.3,M,,*5A
2021-09-03T20:52:45.3778941Z, 6cda8203-a249-e411-b0cc-f8bc1246af59, $GPGGA,205244.00,4429.9969,N,12418.5727,W,1,08,1.0,10.2,M,-22.3,M,,*62
2021-09-03T20:52:46.6373673Z, 6cda8203-a249-e411-b0cc-f8bc1246af59, $GPGGA,205245.00,4429.9949,N,12418.5748,W,1,08,1.0,9.2,M,-22.3,M,,*50
2021-09-03T20:52:48.3778122Z, 6cda8203-a249-e411-b0cc-f8bc1246af59, $GPGGA,205247.00,4429.9909,N,12418.5784,W,1,08,1.0,9.3,M,-22.3,M,,*57
2021-09-03T20:52:49.6372520Z, 6cda8203-a249-e411-b0cc-f8bc1246af59, $GPGGA,205248.00,4429.9888,N,12418.5802,W,1,08,1.0,7.5,M,-22.3,M,,*59
2021-09-03T20:52:51.3378363Z, 6cda8203-a249-e411-b0cc-f8bc1246af59, $GPGGA,205250.00,4429.9848,N,12418.5842,W,1,08,1.0,9.0,M,-22.3,M,,*53
2021-09-03T20:52:52.6375803Z, 6cda8203-a249-e411-b0cc-f8bc1246af59, $GPGGA,205251.00,4429.9829,N,12418.5861,W,1,08,1.0,8.9,M,-22.3,M,,*5C
2021-09-03T20:52:54.3780508Z, 6cda8203-a249-e411-b0cc-f8bc1246af59, $GPGGA,205253.00,4429.9788,N,12418.5896,W,1,08,1.0,9.3,M,-22.3,M,,*59
2021-09-03T20:52:55.6374998Z, 6cda8203-a249-e411-b0cc-f8bc1246af59, $GPGGA,205254.00,4429.9768,N,12418.5915,W,1,08,1.0,9.3,M,-22.3,M,,*5A
2021-09-03T20:52:57.3779502Z, 6cda8203-a249-e411-b0cc-f8bc1246af59, $GPGGA,205256.00,4429.9731,N,12418.5957,W,1,08,1.0,7.7,M,-22.3,M,,*58
2021-09-03T20:52:58.6383727Z, 6cda8203-a249-e411-b0cc-f8bc1246af59, $GPGGA,205257.00,4429.9711,N,12418.5978,W,1,08,1.0,7.2,M,-22.3,M,,*53
2021-09-03T20:53:00.3379835Z, 6cda8203-a249-e411-b0cc-f8bc1246af59, $GPGGA,205259.00,4429.9672,N,12418.6014,W,1,08,1.0,5.9,M,-22.3,M,,*50
2021-09-03T20:53:01.6382689Z, 6cda8203-a249-e411-b0cc-f8bc1246af59, $GPGGA,205300.00,4429.9653,N,12418.6031,W,1,08,1.0,7.3,M,-22.3,M,,*51
2021-09-03T20:53:03.3787181Z, 6cda8203-a249-e411-b0cc-f8bc1246af59, $GPGGA,205302.00,4429.9615,N,12418.6069,W,1,08,1.0,8.8,M,-22.3,M,,*58
2021-09-03T20:53:04.6381748Z, 6cda8203-a249-e411-b0cc-f8bc1246af59, $GPGGA,205303.00,4429.9598,N,12418.6090,W,1,08,1.0,11.0,M,-22.3,M,,*69
2021-09-03T20:53:06.3786241Z, 6cda8203-a249-e411-b0cc-f8bc1246af59, $GPGGA,205305.00,4429.9563,N,12418.6134,W,1,08,1.0,8.9,M,-22.3,M,,*55
2021-09-03T20:53:07.6380596Z, 6cda8203-a249-e411-b0cc-f8bc1246af59, $GPGGA,205306.00,4429.9543,N,12418.6153,W,1,08,1.0,5.9,M,-22.3,M,,*58
2021-09-03T20:53:09.3785473Z, 6cda8203-a249-e411-b0cc-f8bc1246af59, $GPGGA,205308.00,4429.9504,N,12418.6189,W,1,08,1.0,7.7,M,-22.3,M,,*5E
2021-09-03T20:53:10.6389627Z, 6cda8203-a249-e411-b0cc-f8bc1246af59, $GPGGA,205309.00,4429.9486,N,12418.6207,W,1,08,1.0,8.5,M,-22.3,M,,*5C
2021-09-03T20:53:12.3784023Z, 6cda8203-a249-e411-b0cc-f8bc1246af59, $GPGGA,205311.00,4429.9450,N,12418.6241,W,1,08,1.0,7.5,M,-22.3,M,,*53
2021-09-03T20:53:13.6388624Z, 6cda8203-a249-e411-b0cc-f8bc1246af59, $GPGGA,205312.00,4429.9433,N,12418.6259,W,1,08,1.0,8.6,M,-22.3,M,,*50
2021-09-03T20:53:15.3783032Z, 6cda8203-a249-e411-b0cc-f8bc1246af59, $GPGGA,205314.00,4429.9398,N,12418.6299,W,1,08,1.0,5.2,M,-22.3,M,,*55
2021-09-03T20:53:16.6388527Z, 6cda8203-a249-e411-b0cc-f8bc1246af59, $GPGGA,205315.00,4429.9381,N,12418.6318,W,1,08,1.0,5.7,M,-22.3,M,,*51
2021-09-03T20:53:18.3792988Z, 6cda8203-a249-e411-b0cc-f8bc1246af59, $GPGGA,205317.00,4429.9343,N,12418.6348,W,1,08,1.0,8.6,M,-22.3,M,,*54
2021-09-03T20:53:19.6387561Z, 6cda8203-a249-e411-b0cc-f8bc1246af59, $GPGGA,205318.00,4429.9325,N,12418.6364,W,1,08,1.0,8.0,M,-22.3,M,,*53
2021-09-03T20:53:21.3792062Z, 6cda8203-a249-e411-b0cc-f8bc1246af59, $GPGGA,205320.00,4429.9292,N,12418.6404,W,1,08,1.0,10.7,M,-22.3,M,,*6A
2021-09-03T20:53:22.6386484Z, 6cda8203-a249-e411-b0cc-f8bc1246af59, $GPGGA,205321.00,4429.9274,N,12418.6424,W,1,08,1.0,12.8,M,-22.3,M,,*6C
2021-09-03T20:53:24.3791137Z, 6cda8203-a249-e411-b0cc-f8bc1246af59, $GPGGA,205323.00,4429.9237,N,12418.6457,W,1,08,1.0,8.0,M,-22.3,M,,*5E
2021-09-03T20:53:25.6395429Z, 6cda8203-a249-e411-b0cc-f8bc1246af59, $GPGGA,205324.00,4429.9220,N,12418.6475,W,1,08,1.0,9.7,M,-22.3,M,,*59
2021-09-03T20:53:27.3794213Z, 6cda8203-a249-e411-b0cc-f8bc1246af59, $GPGGA,205326.00,4429.9183,N,12418.6512,W,1,08,1.0,6.3,M,-22.3,M,,*5A
2021-09-03T20:53:28.6388611Z, 6cda8203-a249-e411-b0cc-f8bc1246af59, $GPGGA,205327.00,4429.9165,N,12418.6529,W,1,08,1.0,7.1,M,-22.3,M,,*58
2021-09-03T20:53:30.3793389Z, 6cda8203-a249-e411-b0cc-f8bc1246af59, $GPGGA,205329.00,4429.9129,N,12418.6560,W,1,08,1.0,3.2,M,-22.3,M,,*54
2021-09-03T20:53:31.6397760Z, 6cda8203-a249-e411-b0cc-f8bc1246af59, $GPGGA,205330.00,4429.9113,N,12418.6578,W,1,08,1.0,4.8,M,-22.3,M,,*51
2021-09-03T20:53:33.3792866Z, 6cda8203-a249-e411-b0cc-f8bc1246af59, $GPGGA,205332.00,4429.9078,N,12418.6615,W,1,08,1.0,6.0,M,-22.3,M,,*5D
2021-09-03T20:53:34.6399193Z, 6cda8203-a249-e411-b0cc-f8bc1246af59, $GPGGA,205333.00,4429.9060,N,12418.6632,W,1,08,1.0,6.4,M,-22.3,M,,*54
2021-09-03T20:53:36.3794124Z, 6cda8203-a249-e411-b0cc-f8bc1246af59, $GPGGA,205335.00,4429.9024,N,12418.6664,W,1,08,1.0,8.0,M,-22.3,M,,*5B
2021-09-03T20:53:37.6398167Z, 6cda8203-a249-e411-b0cc-f8bc1246af59, $GPGGA,205336.00,4429.9007,N,12418.6677,W,1,08,1.0,11.4,M,-22.3,M,,*67
2021-09-03T20:53:39.3394307Z, 6cda8203-a249-e411-b0cc-f8bc1246af59, $GPGGA,205338.00,4429.8975,N,12418.6706,W,1,08,1.0,10.3,M,-22.3,M,,*65
2021-09-03T20:53:40.6397318Z, 6cda8203-a249-e411-b0cc-f8bc1246af59, $GPGGA,205339.00,4429.8959,N,12418.6722,W,1,08,1.0,10.6,M,-22.3,M,,*69
2021-09-03T20:53:42.3801644Z, 6cda8203-a249-e411-b0cc-f8bc1246af59, $GPGGA,205341.00,4429.8925,N,12418.6752,W,1,08,1.0,11.7,M,-22.3,M,,*6A
2021-09-03T20:53:43.6396197Z, 6cda8203-a249-e411-b0cc-f8bc1246af59, $GPGGA,205342.00,4429.8907,N,12418.6767,W,1,08,1.0,10.3,M,-22.3,M,,*6A
2021-09-03T20:53:45.3444035Z, 6cda8203-a249-e411-b0cc-f8bc1246af59, $GPGGA,205344.00,4429.8873,N,12418.6796,W,1,08,1.0,8.5,M,-22.3,M,,*5F
2021-09-03T20:53:46.6395092Z, 6cda8203-a249-e411-b0cc-f8bc1246af59, $GPGGA,205345.00,4429.8856,N,12418.6813,W,1,08,1.0,8.0,M,-22.3,M,,*5E
2021-09-03T20:53:48.3800039Z, 6cda8203-a249-e411-b0cc-f8bc1246af59, $GPGGA,205347.00,4429.8821,N,12418.6846,W,1,08,1.0,6.8,M,-22.3,M,,*5A
2021-09-03T20:53:49.6404151Z, 6cda8203-a249-e411-b0cc-f8bc1246af59, $GPGGA,205348.00,4429.8802,N,12418.6860,W,1,08,1.0,6.6,M,-22.3,M,,*5E
2021-09-03T20:53:51.3798373Z, 6cda8203-a249-e411-b0cc-f8bc1246af59, $GPGGA,205350.00,4429.8764,N,12418.6891,W,1,08,1.0,7.2,M,-22.3,M,,*53
2021-09-03T20:53:52.6403039Z, 6cda8203-a249-e411-b0cc-f8bc1246af59, $GPGGA,205351.00,4429.8747,N,12418.6908,W,1,08,1.0,4.7,M,-22.3,M,,*54
2021-09-03T20:53:54.3807494Z, 6cda8203-a249-e411-b0cc-f8bc1246af59, $GPGGA,205353.00,4429.8711,N,12418.6942,W,1,08,1.0,3.7,M,-22.3,M,,*5C
2021-09-03T20:53:55.6402111Z, 6cda8203-a249-e411-b0cc-f8bc1246af59, $GPGGA,205354.00,4429.8694,N,12418.6957,W,1,08,1.0,2.8,M,-22.3,M,,*5D
2021-09-03T20:53:57.3806628Z, 6cda8203-a249-e411-b0cc-f8bc1246af59, $GPGGA,205356.00,4429.8657,N,12418.6985,W,1,08,1.0,3.3,M,-22.3,M,,*55
2021-09-03T20:53:58.6400996Z, 6cda8203-a249-e411-b0cc-f8bc1246af59, $GPGGA,205357.00,4429.8638,N,12418.7001,W,1,08,1.0,1.4,M,-22.3,M,,*5C
2021-09-03T20:54:00.3808339Z, 6cda8203-a249-e411-b0cc-f8bc1246af59, $GPGGA,205359.00,4429.8602,N,12418.7035,W,1,08,1.0,-0.5,M,-22.3,M,,*71
2021-09-03T20:54:01.6402943Z, 6cda8203-a249-e411-b0cc-f8bc1246af59, $GPGGA,205400.00,4429.8584,N,12418.7051,W,1,08,1.0,0.3,M,-22.3,M,,*5E
2021-09-03T20:54:03.3807458Z, 6cda8203-a249-e411-b0cc-f8bc1246af59, $GPGGA,205402.00,4429.8547,N,12418.7080,W,1,08,1.0,-0.6,M,-22.3,M,,*77
2021-09-03T20:54:04.6401879Z, 6cda8203-a249-e411-b0cc-f8bc1246af59, $GPGGA,205403.00,4429.8529,N,12418.7096,W,1,08,1.0,1.3,M,-22.3,M,,*50
2021-09-03T20:54:06.3806519Z, 6cda8203-a249-e411-b0cc-f8bc1246af59, $GPGGA,205405.00,4429.8494,N,12418.7131,W,1,08,1.0,1.3,M,-22.3,M,,*5D
2021-09-03T20:54:07.6410807Z, 6cda8203-a249-e411-b0cc-f8bc1246af59, $GPGGA,205406.00,4429.8476,N,12418.7146,W,1,08,1.0,-0.6,M,-22.3,M,,*7B
2021-09-03T20:54:09.3806910Z, 6cda8203-a249-e411-b0cc-f8bc1246af59, $GPGGA,205408.00,4429.8440,N,12418.7171,W,1,08,1.0,2.2,M,-22.3,M,,*5F
2021-09-03T20:54:10.6411018Z, 6cda8203-a249-e411-b0cc-f8bc1246af59, $GPGGA,205409.00,4429.8422,N,12418.7187,W,1,08,1.0,4.8,M,-22.3,M,,*5F
2021-09-03T20:54:12.3805531Z, 6cda8203-a249-e411-b0cc-f8bc1246af59, $GPGGA,205411.00,4429.8388,N,12418.7222,W,1,08,1.0,3.7,M,-22.3,M,,*55
2021-09-03T20:54:13.6394402Z, 6cda8203-a249-e411-b0cc-f8bc1246af59, $GPGGA,205412.00,4429.8371,N,12418.7241,W,1,08,1.0,4.5,M,-22.3,M,,*50
2021-09-03T20:54:15.3671998Z, 6cda8203-a249-e411-b0cc-f8bc1246af59, $GPGGA,205414.00,4429.8336,N,12418.7276,W,1,08,1.0,2.5,M,-22.3,M,,*57
2021-09-03T20:54:16.5466697Z, 6cda8203-a249-e411-b0cc-f8bc1246af59, $GPGGA,205415.00,4429.8318,N,12418.7293,W,1,08,1.0,5.2,M,-22.3,M,,*51
2021-09-03T20:54:17.1361049Z, 6cda8203-a249-e411-b0cc-f8bc1246af59, $GPGGA,205416.00,4429.8300,N,12418.7308,W,1,08,1.0,5.0,M,-22.3,M,,*5A
2021-09-03T20:54:18.8764988Z, 6cda8203-a249-e411-b0cc-f8bc1246af59, $GPGGA,205417.00,4429.8283,N,12418.7324,W,1,08,1.0,5.2,M,-22.3,M,,*5D
2021-09-03T20:54:19.7566735Z, 6cda8203-a249-e411-b0cc-f8bc1246af59, $GPGGA,205418.00,4429.8266,N,12418.7340,W,1,08,1.0,7.8,M,-22.3,M,,*53
2021-09-03T20:54:21.0769034Z, 6cda8203-a249-e411-b0cc-f8bc1246af59, $GPGGA,205419.00,4429.8248,N,12418.7357,W,1,08,1.0,6.0,M,-22.3,M,,*51
2021-09-03T20:54:22.2367969Z, 6cda8203-a249-e411-b0cc-f8bc1246af59, $GPGGA,205420.00,4429.8231,N,12418.7375,W,1,08,1.0,4.6,M,-22.3,M,,*51
2021-09-03T20:54:23.8069374Z, 6cda8203-a249-e411-b0cc-f8bc1246af59, $GPGGA,205422.00,4429.8196,N,12418.7408,W,1,08,1.0,2.0,M,-22.3,M,,*50
2021-09-03T20:54:25.0067288Z, 6cda8203-a249-e411-b0cc-f8bc1246af59, $GPGGA,205423.00,4429.8179,N,12418.7423,W,1,08,1.0,1.2,M,-22.3,M,,*58
2021-09-03T20:54:26.5769126Z, 6cda8203-a249-e411-b0cc-f8bc1246af59, $GPGGA,205425.00,4429.8144,N,12418.7456,W,1,08,1.0,2.7,M,-22.3,M,,*54
2021-09-03T20:54:27.7766573Z, 6cda8203-a249-e411-b0cc-f8bc1246af59, $GPGGA,205426.00,4429.8126,N,12418.7471,W,1,08,1.0,5.4,M,-22.3,M,,*52
2021-09-03T20:54:29.3468091Z, 6cda8203-a249-e411-b0cc-f8bc1246af59, $GPGGA,205428.00,4429.8092,N,12418.7505,W,1,08,1.0,4.3,M,-22.3,M,,*56
2021-09-03T20:54:30.6271533Z, 6cda8203-a249-e411-b0cc-f8bc1246af59, $GPGGA,205429.00,4429.8075,N,12418.7524,W,1,08,1.0,6.1,M,-22.3,M,,*5D
2021-09-03T20:54:32.2073469Z, 6cda8203-a249-e411-b0cc-f8bc1246af59, $GPGGA,205431.00,4429.8040,N,12418.7559,W,1,08,1.0,7.8,M,-22.3,M,,*50
2021-09-03T20:54:33.6271261Z, 6cda8203-a249-e411-b0cc-f8bc1246af59, $GPGGA,205432.00,4429.8022,N,12418.7576,W,1,08,1.0,5.2,M,-22.3,M,,*52
2021-09-03T20:54:35.2072451Z, 6cda8203-a249-e411-b0cc-f8bc1246af59, $GPGGA,205434.00,4429.7986,N,12418.7610,W,1,08,1.0,0.7,M,-22.3,M,,*5F
2021-09-03T20:54:36.6270699Z, 6cda8203-a249-e411-b0cc-f8bc1246af59, $GPGGA,205435.00,4429.7969,N,12418.7628,W,1,08,1.0,0.3,M,-22.3,M,,*50
2021-09-03T20:54:38.2072106Z, 6cda8203-a249-e411-b0cc-f8bc1246af59, $GPGGA,205437.00,4429.7935,N,12418.7661,W,1,08,1.0,2.2,M,-22.3,M,,*55
2021-09-03T20:54:39.6269579Z, 6cda8203-a249-e411-b0cc-f8bc1246af59, $GPGGA,205438.00,4429.7918,N,12418.7677,W,1,08,1.0,1.4,M,-22.3,M,,*57
2021-09-03T20:54:41.2070943Z, 6cda8203-a249-e411-b0cc-f8bc1246af59, $GPGGA,205440.00,4429.7885,N,12418.7710,W,1,08,1.0,4.4,M,-22.3,M,,*58
2021-09-03T20:54:42.6278581Z, 6cda8203-a249-e411-b0cc-f8bc1246af59, $GPGGA,205441.00,4429.7867,N,12418.7725,W,1,08,1.0,5.8,M,-22.3,M,,*5E
2021-09-03T20:54:44.2079810Z, 6cda8203-a249-e411-b0cc-f8bc1246af59, $GPGGA,205443.00,4429.7834,N,12418.7755,W,1,08,1.0,7.8,M,-22.3,M,,*5F
2021-09-03T20:54:45.6277535Z, 6cda8203-a249-e411-b0cc-f8bc1246af59, $GPGGA,205444.00,4429.7818,N,12418.7771,W,1,08,1.0,6.8,M,-22.3,M,,*51
2021-09-03T20:54:47.2078890Z, 6cda8203-a249-e411-b0cc-f8bc1246af59, $GPGGA,205446.00,4429.7785,N,12418.7803,W,1,08,1.0,9.3,M,-22.3,M,,*56
2021-09-03T20:54:48.6277994Z, 6cda8203-a249-e411-b0cc-f8bc1246af59, $GPGGA,205447.00,4429.7767,N,12418.7818,W,1,08,1.0,8.1,M,-22.3,M,,*52
2021-09-03T20:54:50.2079269Z, 6cda8203-a249-e411-b0cc-f8bc1246af59, $GPGGA,205449.00,4429.7730,N,12418.7843,W,1,08,1.0,8.4,M,-22.3,M,,*55
2021-09-03T20:54:51.6277056Z, 6cda8203-a249-e411-b0cc-f8bc1246af59, $GPGGA,205450.00,4429.7712,N,12418.7855,W,1,08,1.0,10.9,M,-22.3,M,,*6E
2021-09-03T20:54:53.2078525Z, 6cda8203-a249-e411-b0cc-f8bc1246af59, $GPGGA,205452.00,4429.7676,N,12418.7883,W,1,08,1.0,11.8,M,-22.3,M,,*64
2021-09-03T20:54:54.6275979Z, 6cda8203-a249-e411-b0cc-f8bc1246af59, $GPGGA,205453.00,4429.7659,N,12418.7898,W,1,08,1.0,12.9,M,-22.3,M,,*60
2021-09-03T20:54:56.2077299Z, 6cda8203-a249-e411-b0cc-f8bc1246af59, $GPGGA,205455.00,4429.7624,N,12418.7927,W,1,08,1.0,15.5,M,-22.3,M,,*62
2021-09-03T20:54:57.6284885Z, 6cda8203-a249-e411-b0cc-f8bc1246af59, $GPGGA,205456.00,4429.7605,N,12418.7939,W,1,08,1.0,13.8,M,-22.3,M,,*66
2021-09-03T20:54:59.2076174Z, 6cda8203-a249-e411-b0cc-f8bc1246af59, $GPGGA,205458.00,4429.7568,N,12418.7961,W,1,08,1.0,15.3,M,-22.3,M,,*60
2021-09-03T20:55:00.6283868Z, 6cda8203-a249-e411-b0cc-f8bc1246af59, $GPGGA,205459.00,4429.7550,N,12418.7973,W,1,08,1.0,17.7,M,-22.3,M,,*6F
2021-09-03T20:55:02.2085122Z, 6cda8203-a249-e411-b0cc-f8bc1246af59, $GPGGA,205501.00,4429.7513,N,12418.8000,W,1,08,1.0,16.8,M,-22.3,M,,*68
2021-09-03T20:55:03.6282984Z, 6cda8203-a249-e411-b0cc-f8bc1246af59, $GPGGA,205502.00,4429.7494,N,12418.8014,W,1,08,1.0,18.8,M,-22.3,M,,*6E
2021-09-03T20:55:05.2084149Z, 6cda8203-a249-e411-b0cc-f8bc1246af59, $GPGGA,205504.00,4429.7458,N,12418.8041,W,1,08,1.0,19.3,M,-22.3,M,,*62
2021-09-03T20:55:06.6281953Z, 6cda8203-a249-e411-b0cc-f8bc1246af59, $GPGGA,205505.00,4429.7440,N,12418.8053,W,1,08,1.0,17.0,M,-22.3,M,,*64
2021-09-03T20:55:08.2083258Z, 6cda8203-a249-e411-b0cc-f8bc1246af59, $GPGGA,205507.00,4429.7403,N,12418.8081,W,1,08,1.0,16.5,M,-22.3,M,,*6A
2021-09-03T20:55:09.6280765Z, 6cda8203-a249-e411-b0cc-f8bc1246af59, $GPGGA,205508.00,4429.7385,N,12418.8096,W,1,08,1.0,14.9,M,-22.3,M,,*64
2021-09-03T20:55:11.2082276Z, 6cda8203-a249-e411-b0cc-f8bc1246af59, $GPGGA,205510.00,4429.7349,N,12418.8123,W,1,08,1.0,14.1,M,-22.3,M,,*6A
2021-09-03T20:55:12.6190616Z, 6cda8203-a249-e411-b0cc-f8bc1246af59, $GPGGA,205511.00,4429.7332,N,12418.8135,W,1,08,1.0,14.4,M,-22.3,M,,*65
2021-09-03T20:55:14.1782302Z, 6cda8203-a249-e411-b0cc-f8bc1246af59, $GPGGA,205513.00,4429.7294,N,12418.8161,W,1,08,1.0,13.8,M,-22.3,M,,*60
2021-09-03T20:55:15.6190832Z, 6cda8203-a249-e411-b0cc-f8bc1246af59, $GPGGA,205514.00,4429.7276,N,12418.8176,W,1,08,1.0,13.9,M,-22.3,M,,*6C
2021-09-03T20:55:17.2091558Z, 6cda8203-a249-e411-b0cc-f8bc1246af59, $GPGGA,205516.00,4429.7239,N,12418.8208,W,1,08,1.0,17.5,M,-22.3,M,,*67
2021-09-03T20:55:18.6289061Z, 6cda8203-a249-e411-b0cc-f8bc1246af59, $GPGGA,205517.00,4429.7221,N,12418.8222,W,1,08,1.0,19.3,M,-22.3,M,,*6F
2021-09-03T20:55:20.1692443Z, 6cda8203-a249-e411-b0cc-f8bc1246af59, $GPGGA,205519.00,4429.7185,N,12418.8242,W,1,08,1.0,17.6,M,-22.3,M,,*61
2021-09-03T20:55:21.6288122Z, 6cda8203-a249-e411-b0cc-f8bc1246af59, $GPGGA,205520.00,4429.7167,N,12418.8255,W,1,08,1.0,19.6,M,-22.3,M,,*6F
2021-09-03T20:55:23.2089644Z, 6cda8203-a249-e411-b0cc-f8bc1246af59, $GPGGA,205522.00,4429.7131,N,12418.8286,W,1,08,1.0,16.7,M,-22.3,M,,*6E
2021-09-03T20:55:24.6286998Z, 6cda8203-a249-e411-b0cc-f8bc1246af59, $GPGGA,205523.00,4429.7114,N,12418.8302,W,1,08,1.0,17.7,M,-22.3,M,,*64
2021-09-03T20:55:26.2088283Z, 6cda8203-a249-e411-b0cc-f8bc1246af59, $GPGGA,205525.00,4429.7077,N,12418.8330,W,1,08,1.0,14.5,M,-22.3,M,,*66
2021-09-03T20:55:27.6196657Z, 6cda8203-a249-e411-b0cc-f8bc1246af59, $GPGGA,205526.00,4429.7058,N,12418.8343,W,1,08,1.0,13.2,M,-22.3,M,,*6C
2021-09-03T20:55:29.2097332Z, 6cda8203-a249-e411-b0cc-f8bc1246af59, $GPGGA,205528.00,4429.7022,N,12418.8374,W,1,08,1.0,12.9,M,-22.3,M,,*61
2021-09-03T20:55:30.6195658Z, 6cda8203-a249-e411-b0cc-f8bc1246af59, $GPGGA,205529.00,4429.7005,N,12418.8390,W,1,08,1.0,12.8,M,-22.3,M,,*6E
2021-09-03T20:55:32.2096167Z, 6cda8203-a249-e411-b0cc-f8bc1246af59, $GPGGA,205531.00,4429.6968,N,12418.8416,W,1,08,1.0,16.7,M,-22.3,M,,*66
2021-09-03T20:55:33.6294010Z, 6cda8203-a249-e411-b0cc-f8bc1246af59, $GPGGA,205532.00,4429.6951,N,12418.8429,W,1,08,1.0,18.0,M,-22.3,M,,*6A
2021-09-03T20:55:35.2095826Z, 6cda8203-a249-e411-b0cc-f8bc1246af59, $GPGGA,205534.00,4429.6915,N,12418.8460,W,1,08,1.0,16.3,M,-22.3,M,,*6C
2021-09-03T20:55:36.6293419Z, 6cda8203-a249-e411-b0cc-f8bc1246af59, $GPGGA,205535.00,4429.6898,N,12418.8476,W,1,08,1.0,14.7,M,-22.3,M,,*68
2021-09-03T20:55:38.2095338Z, 6cda8203-a249-e411-b0cc-f8bc1246af59, $GPGGA,205537.00,4429.6861,N,12418.8508,W,1,08,1.0,12.5,M,-22.3,M,,*60
2021-09-03T20:55:39.6292908Z, 6cda8203-a249-e411-b0cc-f8bc1246af59, $GPGGA,205538.00,4429.6842,N,12418.8522,W,1,08,1.0,12.8,M,-22.3,M,,*6B
2021-09-03T20:55:41.2094325Z, 6cda8203-a249-e411-b0cc-f8bc1246af59, $GPGGA,205540.00,4429.6805,N,12418.8551,W,1,08,1.0,13.4,M,-22.3,M,,*6E
2021-09-03T20:55:42.6301909Z, 6cda8203-a249-e411-b0cc-f8bc1246af59, $GPGGA,205541.00,4429.6787,N,12418.8566,W,1,08,1.0,13.9,M,-22.3,M,,*63
2021-09-03T20:55:44.2093224Z, 6cda8203-a249-e411-b0cc-f8bc1246af59, $GPGGA,205543.00,4429.6752,N,12418.8596,W,1,08,1.0,12.8,M,-22.3,M,,*66
2021-09-03T20:55:45.6201548Z, 6cda8203-a249-e411-b0cc-f8bc1246af59, $GPGGA,205544.00,4429.6734,N,12418.8612,W,1,08,1.0,11.7,M,-22.3,M,,*62
2021-09-03T20:55:47.2102584Z, 6cda8203-a249-e411-b0cc-f8bc1246af59, $GPGGA,205546.00,4429.6698,N,12418.8645,W,1,08,1.0,13.7,M,-22.3,M,,*67
2021-09-03T20:55:48.6201029Z, 6cda8203-a249-e411-b0cc-f8bc1246af59, $GPGGA,205547.00,4429.6679,N,12418.8660,W,1,08,1.0,15.2,M,-22.3,M,,*6D
2021-09-03T20:55:50.2109456Z, 6cda8203-a249-e411-b0cc-f8bc1246af59, $GPGGA,205549.00,4429.6642,N,12418.8691,W,1,08,1.0,15.5,M,-22.3,M,,*62
2021-09-03T20:55:51.6200875Z, 6cda8203-a249-e411-b0cc-f8bc1246af59, $GPGGA,205550.00,4429.6623,N,12418.8707,W,1,08,1.0,15.3,M,-22.3,M,,*65
2021-09-03T20:55:53.2101417Z, 6cda8203-a249-e411-b0cc-f8bc1246af59, $GPGGA,205552.00,4429.6586,N,12418.8738,W,1,08,1.0,14.1,M,-22.3,M,,*64
2021-09-03T20:55:54.6298886Z, 6cda8203-a249-e411-b0cc-f8bc1246af59, $GPGGA,205553.00,4429.6568,N,12418.8753,W,1,08,1.0,15.8,M,-22.3,M,,*60
2021-09-03T20:55:56.2101362Z, 6cda8203-a249-e411-b0cc-f8bc1246af59, $GPGGA,205555.00,4429.6532,N,12418.8787,W,1,08,1.0,14.2,M,-22.3,M,,*6B
2021-09-03T20:55:57.6298735Z, 6cda8203-a249-e411-b0cc-f8bc1246af59, $GPGGA,205556.00,4429.6514,N,12418.8804,W,1,08,1.0,14.4,M,-22.3,M,,*6E
2021-09-03T20:55:59.1702544Z, 6cda8203-a249-e411-b0cc-f8bc1246af59, $GPGGA,205558.00,4429.6475,N,12418.8831,W,1,08,1.0,16.5,M,-22.3,M,,*63
2021-09-03T20:56:00.6205325Z, 6cda8203-a249-e411-b0cc-f8bc1246af59, $GPGGA,205559.00,4429.6457,N,12418.8842,W,1,08,1.0,17.2,M,-22.3,M,,*60
2021-09-03T20:56:02.2105844Z, 6cda8203-a249-e411-b0cc-f8bc1246af59, $GPGGA,205601.00,4429.6421,N,12418.8870,W,1,08,1.0,15.4,M,-22.3,M,,*6A
2021-09-03T20:56:03.6204426Z, 6cda8203-a249-e411-b0cc-f8bc1246af59, $GPGGA,205602.00,4429.6402,N,12418.8885,W,1,08,1.0,15.0,M,-22.3,M,,*66
2021-09-03T20:56:05.2104914Z, 6cda8203-a249-e411-b0cc-f8bc1246af59, $GPGGA,205604.00,4429.6364,N,12418.8912,W,1,08,1.0,16.3,M,-22.3,M,,*68
2021-09-03T20:56:06.6203435Z, 6cda8203-a249-e411-b0cc-f8bc1246af59, $GPGGA,205605.00,4429.6345,N,12418.8925,W,1,08,1.0,15.3,M,-22.3,M,,*6D
2021-09-03T20:56:08.2103678Z, 6cda8203-a249-e411-b0cc-f8bc1246af59, $GPGGA,205607.00,4429.6305,N,12418.8952,W,1,08,1.0,15.0,M,-22.3,M,,*68
2021-09-03T20:56:09.6212018Z, 6cda8203-a249-e411-b0cc-f8bc1246af59, $GPGGA,205608.00,4429.6285,N,12418.8967,W,1,08,1.0,15.1,M,-22.3,M,,*69
2021-09-03T20:56:11.1748783Z, 6cda8203-a249-e411-b0cc-f8bc1246af59, $GPGGA,205610.00,4429.6246,N,12418.8999,W,1,08,1.0,17.5,M,-22.3,M,,*68
2021-09-03T20:56:12.6211084Z, 6cda8203-a249-e411-b0cc-f8bc1246af59, $GPGGA,205611.00,4429.6227,N,12418.9013,W,1,08,1.0,18.2,M,-22.3,M,,*6C
2021-09-03T20:56:14.2111671Z, 6cda8203-a249-e411-b0cc-f8bc1246af59, $GPGGA,205613.00,4429.6187,N,12418.9041,W,1,08,1.0,21.2,M,-22.3,M,,*6A
2021-09-03T20:56:15.6210308Z, 6cda8203-a249-e411-b0cc-f8bc1246af59, $GPGGA,205614.00,4429.6168,N,12418.9056,W,1,08,1.0,18.8,M,-22.3,M,,*6A
2021-09-03T20:56:17.2110695Z, 6cda8203-a249-e411-b0cc-f8bc1246af59, $GPGGA,205616.00,4429.6130,N,12418.9084,W,1,08,1.0,17.6,M,-22.3,M,,*6B
2021-09-03T20:56:18.6309208Z, 6cda8203-a249-e411-b0cc-f8bc1246af59, $GPGGA,205617.00,4429.6111,N,12418.9097,W,1,08,1.0,15.2,M,-22.3,M,,*6D
2021-09-03T20:56:20.2111076Z, 6cda8203-a249-e411-b0cc-f8bc1246af59, $GPGGA,205619.00,4429.6072,N,12418.9127,W,1,08,1.0,16.6,M,-22.3,M,,*6A
2021-09-03T20:56:21.5513338Z, 6cda8203-a249-e411-b0cc-f8bc1246af59, $GPGGA,205620.00,4429.6052,N,12418.9142,W,1,08,1.0,14.7,M,-22.3,M,,*62
2021-09-03T20:56:22.6713123Z, 6cda8203-a249-e411-b0cc-f8bc1246af59, $GPGGA,205621.00,4429.6032,N,12418.9157,W,1,08,1.0,15.1,M,-22.3,M,,*66
2021-09-03T20:56:23.7117879Z, 6cda8203-a249-e411-b0cc-f8bc1246af59, $GPGGA,205622.00,4429.6011,N,12418.9172,W,1,08,1.0,18.6,M,-22.3,M,,*69
2021-09-03T20:56:24.6008733Z, 6cda8203-a249-e411-b0cc-f8bc1246af59, $GPGGA,205623.00,4429.5992,N,12418.9185,W,1,08,1.0,19.2,M,-22.3,M,,*64
2021-09-03T20:56:26.0017760Z, 6cda8203-a249-e411-b0cc-f8bc1246af59, $GPGGA,205624.00,4429.5972,N,12418.9199,W,1,08,1.0,18.6,M,-22.3,M,,*65
2021-09-03T20:56:27.0711158Z, 6cda8203-a249-e411-b0cc-f8bc1246af59, $GPGGA,205625.00,4429.5952,N,12418.9214,W,1,08,1.0,17.2,M,-22.3,M,,*6B
2021-09-03T20:56:28.8015627Z, 6cda8203-a249-e411-b0cc-f8bc1246af59, $GPGGA,205627.00,4429.5913,N,12418.9239,W,1,08,1.0,16.3,M,-22.3,M,,*63
2021-09-03T20:56:29.8519630Z, 6cda8203-a249-e411-b0cc-f8bc1246af59, $GPGGA,205628.00,4429.5895,N,12418.9254,W,1,08,1.0,18.0,M,-22.3,M,,*65
2021-09-03T20:56:31.5814157Z, 6cda8203-a249-e411-b0cc-f8bc1246af59, $GPGGA,205630.00,4429.5857,N,12418.9287,W,1,08,1.0,17.4,M,-22.3,M,,*67
2021-09-03T20:56:32.6318180Z, 6cda8203-a249-e411-b0cc-f8bc1246af59, $GPGGA,205631.00,4429.5838,N,12418.9303,W,1,08,1.0,15.5,M,-22.3,M,,*61
2021-09-03T20:56:34.5217656Z, 6cda8203-a249-e411-b0cc-f8bc1246af59, $GPGGA,205633.00,4429.5798,N,12418.9333,W,1,08,1.0,14.5,M,-22.3,M,,*64
2021-09-03T20:56:35.6219449Z, 6cda8203-a249-e411-b0cc-f8bc1246af59, $GPGGA,205634.00,4429.5778,N,12418.9348,W,1,08,1.0,17.8,M,-22.3,M,,*6F
2021-09-03T20:56:37.5216488Z, 6cda8203-a249-e411-b0cc-f8bc1246af59, $GPGGA,205636.00,4429.5737,N,12418.9378,W,1,08,1.0,13.5,M,-22.3,M,,*6C
2021-09-03T20:56:38.6218406Z, 6cda8203-a249-e411-b0cc-f8bc1246af59, $GPGGA,205637.00,4429.5718,N,12418.9394,W,1,08,1.0,11.7,M,-22.3,M,,*62
2021-09-03T20:56:40.4817196Z, 6cda8203-a249-e411-b0cc-f8bc1246af59, $GPGGA,205639.00,4429.5680,N,12418.9424,W,1,08,1.0,12.2,M,-22.3,M,,*66
2021-09-03T20:56:41.6217447Z, 6cda8203-a249-e411-b0cc-f8bc1246af59, $GPGGA,205640.00,4429.5660,N,12418.9440,W,1,08,1.0,12.9,M,-22.3,M,,*6F
2021-09-03T20:56:43.5224269Z, 6cda8203-a249-e411-b0cc-f8bc1246af59, $GPGGA,205642.00,4429.5620,N,12418.9470,W,1,08,1.0,12.0,M,-22.3,M,,*63
2021-09-03T20:56:44.6226370Z, 6cda8203-a249-e411-b0cc-f8bc1246af59, $GPGGA,205643.00,4429.5600,N,12418.9485,W,1,08,1.0,11.7,M,-22.3,M,,*6E
2021-09-03T20:56:46.5223265Z, 6cda8203-a249-e411-b0cc-f8bc1246af59, $GPGGA,205645.00,4429.5560,N,12418.9516,W,1,08,1.0,12.8,M,-22.3,M,,*6A
2021-09-03T20:56:47.6225199Z, 6cda8203-a249-e411-b0cc-f8bc1246af59, $GPGGA,205646.00,4429.5540,N,12418.9533,W,1,08,1.0,10.9,M,-22.3,M,,*6F
2021-09-03T20:56:49.5222446Z, 6cda8203-a249-e411-b0cc-f8bc1246af59, $GPGGA,205648.00,4429.5499,N,12418.9563,W,1,08,1.0,12.1,M,-22.3,M,,*6B
2021-09-03T20:56:50.6224361Z, 6cda8203-a249-e411-b0cc-f8bc1246af59, $GPGGA,205649.00,4429.5478,N,12418.9580,W,1,08,1.0,12.3,M,-22.3,M,,*6A
2021-09-03T20:56:52.5221296Z, 6cda8203-a249-e411-b0cc-f8bc1246af59, $GPGGA,205651.00,4429.5438,N,12418.9612,W,1,08,1.0,11.6,M,-22.3,M,,*69
2021-09-03T20:56:53.6223569Z, 6cda8203-a249-e411-b0cc-f8bc1246af59, $GPGGA,205652.00,4429.5418,N,12418.9628,W,1,08,1.0,11.0,M,-22.3,M,,*67
2021-09-03T20:56:55.5230183Z, 6cda8203-a249-e411-b0cc-f8bc1246af59, $GPGGA,205654.00,4429.5376,N,12418.9659,W,1,08,1.0,6.5,M,-22.3,M,,*5B
2021-09-03T20:56:56.6222196Z, 6cda8203-a249-e411-b0cc-f8bc1246af59, $GPGGA,205655.00,4429.5355,N,12418.9676,W,1,08,1.0,5.8,M,-22.3,M,,*58
2021-09-03T20:56:58.5230204Z, 6cda8203-a249-e411-b0cc-f8bc1246af59, $GPGGA,205657.00,4429.5313,N,12418.9709,W,1,08,1.0,6.5,M,-22.3,M,,*5F
2021-09-03T20:56:59.6222214Z, 6cda8203-a249-e411-b0cc-f8bc1246af59, $GPGGA,205658.00,4429.5292,N,12418.9725,W,1,08,1.0,5.5,M,-22.3,M,,*55
2021-09-03T20:57:01.4830894Z, 6cda8203-a249-e411-b0cc-f8bc1246af59, $GPGGA,205700.00,4429.5249,N,12418.9755,W,1,08,1.0,6.2,M,-22.3,M,,*5C
2021-09-03T20:57:02.6231760Z, 6cda8203-a249-e411-b0cc-f8bc1246af59, $GPGGA,205701.00,4429.5228,N,12418.9771,W,1,08,1.0,6.8,M,-22.3,M,,*56
2021-09-03T20:57:04.5228279Z, 6cda8203-a249-e411-b0cc-f8bc1246af59, $GPGGA,205703.00,4429.5186,N,12418.9803,W,1,08,1.0,9.0,M,-22.3,M,,*5E
2021-09-03T20:57:05.6230180Z, 6cda8203-a249-e411-b0cc-f8bc1246af59, $GPGGA,205704.00,4429.5165,N,12418.9819,W,1,08,1.0,9.6,M,-22.3,M,,*59
2021-09-03T20:57:07.5227183Z, 6cda8203-a249-e411-b0cc-f8bc1246af59, $GPGGA,205706.00,4429.5124,N,12418.9854,W,1,08,1.0,7.3,M,-22.3,M,,*5C
2021-09-03T20:57:08.6229260Z, 6cda8203-a249-e411-b0cc-f8bc1246af59, $GPGGA,205707.00,4429.5103,N,12418.9874,W,1,08,1.0,8.6,M,-22.3,M,,*50
2021-09-03T20:57:10.5235964Z, 6cda8203-a249-e411-b0cc-f8bc1246af59, $GPGGA,205709.00,4429.5061,N,12418.9907,W,1,08,1.0,8.6,M,-22.3,M,,*5E
2021-09-03T20:57:11.6228127Z, 6cda8203-a249-e411-b0cc-f8bc1246af59, $GPGGA,205710.00,4429.5039,N,12418.9924,W,1,08,1.0,10.6,M,-22.3,M,,*63
2021-09-03T20:57:13.5234981Z, 6cda8203-a249-e411-b0cc-f8bc1246af59, $GPGGA,205712.00,4429.4998,N,12418.9962,W,1,08,1.0,8.0,M,-22.3,M,,*5F
2021-09-03T20:57:14.6236945Z, 6cda8203-a249-e411-b0cc-f8bc1246af59, $GPGGA,205713.00,4429.4977,N,12418.9980,W,1,08,1.0,7.0,M,-22.3,M,,*5C
2021-09-03T20:57:16.5234195Z, 6cda8203-a249-e411-b0cc-f8bc1246af59, $GPGGA,205715.00,4429.4935,N,12419.0016,W,1,08,1.0,8.5,M,-22.3,M,,*58
2021-09-03T20:57:17.6235966Z, 6cda8203-a249-e411-b0cc-f8bc1246af59, $GPGGA,205716.00,4429.4914,N,12419.0034,W,1,08,1.0,7.5,M,-22.3,M,,*57
2021-09-03T20:57:19.5233082Z, 6cda8203-a249-e411-b0cc-f8bc1246af59, $GPGGA,205718.00,4429.4873,N,12419.0070,W,1,08,1.0,9.2,M,-22.3,M,,*50
2021-09-03T20:57:20.6236204Z, 6cda8203-a249-e411-b0cc-f8bc1246af59, $GPGGA,205719.00,4429.4852,N,12419.0087,W,1,08,1.0,9.7,M,-22.3,M,,*5F
2021-09-03T20:57:22.5233290Z, 6cda8203-a249-e411-b0cc-f8bc1246af59, $GPGGA,205721.00,4429.4808,N,12419.0121,W,1,08,1.0,8.2,M,-22.3,M,,*52
2021-09-03T20:57:23.6235484Z, 6cda8203-a249-e411-b0cc-f8bc1246af59, $GPGGA,205722.00,4429.4786,N,12419.0139,W,1,08,1.0,11.1,M,-22.3,M,,*6A
2021-09-03T20:57:25.4834141Z, 6cda8203-a249-e411-b0cc-f8bc1246af59, $GPGGA,205724.00,4429.4743,N,12419.0175,W,1,08,1.0,10.3,M,-22.3,M,,*6E
2021-09-03T20:57:26.6234186Z, 6cda8203-a249-e411-b0cc-f8bc1246af59, $GPGGA,205725.00,4429.4722,N,12419.0192,W,1,08,1.0,11.9,M,-22.3,M,,*6A
2021-09-03T20:57:28.5233990Z, 6cda8203-a249-e411-b0cc-f8bc1246af59, $GPGGA,205727.00,4429.4678,N,12419.0226,W,1,08,1.0,11.8,M,-22.3,M,,*6B
2021-09-03T20:57:29.6235947Z, 6cda8203-a249-e411-b0cc-f8bc1246af59, $GPGGA,205728.00,4429.4655,N,12419.0243,W,1,08,1.0,9.8,M,-22.3,M,,*51
2021-09-03T20:57:31.5242776Z, 6cda8203-a249-e411-b0cc-f8bc1246af59, $GPGGA,205730.00,4429.4611,N,12419.0280,W,1,08,1.0,13.3,M,-22.3,M,,*67
2021-09-03T20:57:32.6234856Z, 6cda8203-a249-e411-b0cc-f8bc1246af59, $GPGGA,205731.00,4429.4591,N,12419.0299,W,1,08,1.0,11.9,M,-22.3,M,,*6D
2021-09-03T20:57:34.5241910Z, 6cda8203-a249-e411-b0cc-f8bc1246af59, $GPGGA,205733.00,4429.4549,N,12419.0334,W,1,08,1.0,12.2,M,-22.3,M,,*64
2021-09-03T20:57:35.6244834Z, 6cda8203-a249-e411-b0cc-f8bc1246af59, $GPGGA,205734.00,4429.4527,N,12419.0349,W,1,08,1.0,13.2,M,-22.3,M,,*60
2021-09-03T20:57:37.5242036Z, 6cda8203-a249-e411-b0cc-f8bc1246af59, $GPGGA,205736.00,4429.4484,N,12419.0383,W,1,08,1.0,13.1,M,-22.3,M,,*6F
2021-09-03T20:57:38.6243738Z, 6cda8203-a249-e411-b0cc-f8bc1246af59, $GPGGA,205737.00,4429.4464,N,12419.0402,W,1,08,1.0,14.0,M,-22.3,M,,*68
2021-09-03T20:57:40.5240949Z, 6cda8203-a249-e411-b0cc-f8bc1246af59, $GPGGA,205739.00,4429.4421,N,12419.0438,W,1,08,1.0,10.9,M,-22.3,M,,*63
2021-09-03T20:57:41.6242989Z, 6cda8203-a249-e411-b0cc-f8bc1246af59, $GPGGA,205740.00,4429.4399,N,12419.0456,W,1,08,1.0,11.1,M,-22.3,M,,*68
2021-09-03T20:57:43.5240015Z, 6cda8203-a249-e411-b0cc-f8bc1246af59, $GPGGA,205742.00,4429.4356,N,12419.0491,W,1,08,1.0,12.1,M,-22.3,M,,*61
2021-09-03T20:57:44.6241816Z, 6cda8203-a249-e411-b0cc-f8bc1246af59, $GPGGA,205743.00,4429.4334,N,12419.0509,W,1,08,1.0,13.3,M,-22.3,M,,*67
2021-09-03T20:57:46.5248730Z, 6cda8203-a249-e411-b0cc-f8bc1246af59, $GPGGA,205745.00,4429.4292,N,12419.0545,W,1,08,1.0,16.8,M,-22.3,M,,*6A
2021-09-03T20:57:47.6240914Z, 6cda8203-a249-e411-b0cc-f8bc1246af59, $GPGGA,205746.00,4429.4271,N,12419.0564,W,1,08,1.0,15.6,M,-22.3,M,,*6A
2021-09-03T20:57:49.4849427Z, 6cda8203-a249-e411-b0cc-f8bc1246af59, $GPGGA,205748.00,4429.4227,N,12419.0603,W,1,08,1.0,16.1,M,-22.3,M,,*61
2021-09-03T20:57:50.6250064Z, 6cda8203-a249-e411-b0cc-f8bc1246af59, $GPGGA,205749.00,4429.4205,N,12419.0621,W,1,08,1.0,13.9,M,-22.3,M,,*6D
2021-09-03T20:57:52.5246920Z, 6cda8203-a249-e411-b0cc-f8bc1246af59, $GPGGA,205751.00,4429.4160,N,12419.0654,W,1,08,1.0,15.2,M,-22.3,M,,*6B
2021-09-03T20:57:53.6248807Z, 6cda8203-a249-e411-b0cc-f8bc1246af59, $GPGGA,205752.00,4429.4139,N,12419.0671,W,1,08,1.0,14.2,M,-22.3,M,,*62
2021-09-03T20:57:55.5245702Z, 6cda8203-a249-e411-b0cc-f8bc1246af59, $GPGGA,205754.00,4429.4096,N,12419.0708,W,1,08,1.0,15.3,M,-22.3,M,,*6F
2021-09-03T20:57:56.6247905Z, 6cda8203-a249-e411-b0cc-f8bc1246af59, $GPGGA,205755.00,4429.4075,N,12419.0729,W,1,08,1.0,13.0,M,-22.3,M,,*65
2021-09-03T20:57:58.5245748Z, 6cda8203-a249-e411-b0cc-f8bc1246af59, $GPGGA,205757.00,4429.4034,N,12419.0771,W,1,08,1.0,11.3,M,-22.3,M,,*6E
2021-09-03T20:57:59.6247638Z, 6cda8203-a249-e411-b0cc-f8bc1246af59, $GPGGA,205758.00,4429.4012,N,12419.0790,W,1,08,1.0,11.6,M,-22.3,M,,*6F
2021-09-03T20:58:01.5254610Z, 6cda8203-a249-e411-b0cc-f8bc1246af59, $GPGGA,205800.00,4429.3968,N,12419.0827,W,1,08,1.0,12.8,M,-22.3,M,,*60
2021-09-03T20:58:02.6246467Z, 6cda8203-a249-e411-b0cc-f8bc1246af59, $GPGGA,205801.00,4429.3947,N,12419.0845,W,1,08,1.0,14.5,M,-22.3,M,,*63
2021-09-03T20:58:04.5253411Z, 6cda8203-a249-e411-b0cc-f8bc1246af59, $GPGGA,205803.00,4429.3904,N,12419.0887,W,1,08,1.0,13.4,M,-22.3,M,,*6E
2021-09-03T20:58:05.6255836Z, 6cda8203-a249-e411-b0cc-f8bc1246af59, $GPGGA,205804.00,4429.3882,N,12419.0908,W,1,08,1.0,16.0,M,-22.3,M,,*61
2021-09-03T20:58:07.5253083Z, 6cda8203-a249-e411-b0cc-f8bc1246af59, $GPGGA,205806.00,4429.3837,N,12419.0947,W,1,08,1.0,10.7,M,-22.3,M,,*67
2021-09-03T20:58:08.6255758Z, 6cda8203-a249-e411-b0cc-f8bc1246af59, $GPGGA,205807.00,4429.3815,N,12419.0966,W,1,08,1.0,12.0,M,-22.3,M,,*60
2021-09-03T20:58:10.4853961Z, 6cda8203-a249-e411-b0cc-f8bc1246af59, $GPGGA,205809.00,4429.3771,N,12419.1007,W,1,08,1.0,14.0,M,-22.3,M,,*6A
2021-09-03T20:58:11.6254095Z, 6cda8203-a249-e411-b0cc-f8bc1246af59, $GPGGA,205810.00,4429.3747,N,12419.1026,W,1,08,1.0,13.3,M,-22.3,M,,*60
2021-09-03T20:58:13.5250987Z, 6cda8203-a249-e411-b0cc-f8bc1246af59, $GPGGA,205812.00,4429.3703,N,12419.1068,W,1,08,1.0,13.3,M,-22.3,M,,*68
2021-09-03T20:58:14.6252895Z, 6cda8203-a249-e411-b0cc-f8bc1246af59, $GPGGA,205813.00,4429.3682,N,12419.1089,W,1,08,1.0,12.8,M,-22.3,M,,*64
2021-09-03T20:58:16.5259869Z, 6cda8203-a249-e411-b0cc-f8bc1246af59, $GPGGA,205815.00,4429.3639,N,12419.1127,W,1,08,1.0,15.8,M,-22.3,M,,*60
2021-09-03T20:58:17.6261754Z, 6cda8203-a249-e411-b0cc-f8bc1246af59, $GPGGA,205816.00,4429.3617,N,12419.1147,W,1,08,1.0,15.4,M,-22.3,M,,*65
2021-09-03T20:58:19.5258902Z, 6cda8203-a249-e411-b0cc-f8bc1246af59, $GPGGA,205818.00,4429.3575,N,12419.1188,W,1,08,1.0,17.3,M,-22.3,M,,*6A
2021-09-03T20:58:20.6260756Z, 6cda8203-a249-e411-b0cc-f8bc1246af59, $GPGGA,205819.00,4429.3554,N,12419.1207,W,1,08,1.0,16.4,M,-22.3,M,,*6A
2021-09-03T20:58:22.5257984Z, 6cda8203-a249-e411-b0cc-f8bc1246af59, $GPGGA,205821.00,4429.3511,N,12419.1244,W,1,08,1.0,16.4,M,-22.3,M,,*67
2021-09-03T20:58:23.6259911Z, 6cda8203-a249-e411-b0cc-f8bc1246af59, $GPGGA,205822.00,4429.3491,N,12419.1264,W,1,08,1.0,16.8,M,-22.3,M,,*63
2021-09-03T20:58:25.5256976Z, 6cda8203-a249-e411-b0cc-f8bc1246af59, $GPGGA,205824.00,4429.3450,N,12419.1308,W,1,08,1.0,16.2,M,-22.3,M,,*69
2021-09-03T20:58:26.5462407Z, 6cda8203-a249-e411-b0cc-f8bc1246af59, $GPGGA,205825.00,4429.3428,N,12419.1330,W,1,08,1.0,19.0,M,-22.3,M,,*61
2021-09-03T20:58:27.6663271Z, 6cda8203-a249-e411-b0cc-f8bc1246af59, $GPGGA,205826.00,4429.3406,N,12419.1350,W,1,08,1.0,18.6,M,-22.3,M,,*6F
2021-09-03T20:58:28.7157222Z, 6cda8203-a249-e411-b0cc-f8bc1246af59, $GPGGA,205827.00,4429.3383,N,12419.1369,W,1,08,1.0,19.0,M,-22.3,M,,*69
2021-09-03T20:58:29.5959125Z, 6cda8203-a249-e411-b0cc-f8bc1246af59, $GPGGA,205828.00,4429.3360,N,12419.1388,W,1,08,1.0,16.7,M,-22.3,M,,*6C
2021-09-03T20:58:30.5965307Z, 6cda8203-a249-e411-b0cc-f8bc1246af59, $GPGGA,205829.00,4429.3337,N,12419.1408,W,1,08,1.0,17.3,M,-22.3,M,,*65
2021-09-03T20:58:32.0760892Z, 6cda8203-a249-e411-b0cc-f8bc1246af59, $GPGGA,205830.00,4429.3314,N,12419.1427,W,1,08,1.0,16.9,M,-22.3,M,,*6A
2021-09-03T20:58:34.0265415Z, 6cda8203-a249-e411-b0cc-f8bc1246af59, $GPGGA,205832.00,4429.3270,N,12419.1468,W,1,08,1.0,16.1,M,-22.3,M,,*68
2021-09-03T20:58:34.8559263Z, 6cda8203-a249-e411-b0cc-f8bc1246af59, $GPGGA,205833.00,4429.3248,N,12419.1489,W,1,08,1.0,15.3,M,-22.3,M,,*6C
2021-09-03T20:58:36.7167771Z, 6cda8203-a249-e411-b0cc-f8bc1246af59, $GPGGA,205835.00,4429.3201,N,12419.1528,W,1,08,1.0,16.0,M,-22.3,M,,*6D
2021-09-03T20:58:37.6367568Z, 6cda8203-a249-e411-b0cc-f8bc1246af59, $GPGGA,205836.00,4429.3178,N,12419.1547,W,1,08,1.0,13.7,M,-22.3,M,,*68
2021-09-03T20:58:39.6260801Z, 6cda8203-a249-e411-b0cc-f8bc1246af59, $GPGGA,205838.00,4429.3132,N,12419.1586,W,1,08,1.0,14.7,M,-22.3,M,,*62
2021-09-03T20:58:40.6267208Z, 6cda8203-a249-e411-b0cc-f8bc1246af59, $GPGGA,205839.00,4429.3109,N,12419.1608,W,1,08,1.0,15.3,M,-22.3,M,,*6B
2021-09-03T20:58:42.6568580Z, 6cda8203-a249-e411-b0cc-f8bc1246af59, $GPGGA,205841.00,4429.3064,N,12419.1649,W,1,08,1.0,16.4,M,-22.3,M,,*6F
2021-09-03T20:58:43.6266515Z, 6cda8203-a249-e411-b0cc-f8bc1246af59, $GPGGA,205842.00,4429.3041,N,12419.1669,W,1,08,1.0,15.9,M,-22.3,M,,*67
2021-09-03T20:58:45.6567732Z, 6cda8203-a249-e411-b0cc-f8bc1246af59, $GPGGA,205844.00,4429.2998,N,12419.1711,W,1,08,1.0,14.0,M,-22.3,M,,*6B
2021-09-03T20:58:46.6265276Z, 6cda8203-a249-e411-b0cc-f8bc1246af59, $GPGGA,205845.00,4429.2975,N,12419.1731,W,1,08,1.0,13.4,M,-22.3,M,,*68
2021-09-03T20:58:48.6566920Z, 6cda8203-a249-e411-b0cc-f8bc1246af59, $GPGGA,205847.00,4429.2932,N,12419.1773,W,1,08,1.0,8.1,M,-22.3,M,,*50
2021-09-03T20:58:49.6274161Z, 6cda8203-a249-e411-b0cc-f8bc1246af59, $GPGGA,205848.00,4429.2909,N,12419.1794,W,1,08,1.0,9.0,M,-22.3,M,,*5E
2021-09-03T20:58:51.6565710Z, 6cda8203-a249-e411-b0cc-f8bc1246af59, $GPGGA,205850.00,4429.2863,N,12419.1833,W,1,08,1.0,11.1,M,-22.3,M,,*60
2021-09-03T20:58:52.6273558Z, 6cda8203-a249-e411-b0cc-f8bc1246af59, $GPGGA,205851.00,4429.2841,N,12419.1853,W,1,08,1.0,11.2,M,-22.3,M,,*64
2021-09-03T20:58:54.6166980Z, 6cda8203-a249-e411-b0cc-f8bc1246af59, $GPGGA,205853.00,4429.2798,N,12419.1894,W,1,08,1.0,13.7,M,-22.3,M,,*61
2021-09-03T20:58:55.6273271Z, 6cda8203-a249-e411-b0cc-f8bc1246af59, $GPGGA,205854.00,4429.2776,N,12419.1914,W,1,08,1.0,13.0,M,-22.3,M,,*68
2021-09-03T20:58:57.6574681Z, 6cda8203-a249-e411-b0cc-f8bc1246af59, $GPGGA,205856.00,4429.2731,N,12419.1951,W,1,08,1.0,13.4,M,-22.3,M,,*6C
2021-09-03T20:58:58.6272349Z, 6cda8203-a249-e411-b0cc-f8bc1246af59, $GPGGA,205857.00,4429.2709,N,12419.1971,W,1,08,1.0,14.5,M,-22.3,M,,*62
2021-09-03T20:59:00.6573778Z, 6cda8203-a249-e411-b0cc-f8bc1246af59, $GPGGA,205859.00,4429.2666,N,12419.2011,W,1,08,1.0,16.8,M,-22.3,M,,*67
2021-09-03T20:59:01.6271236Z, 6cda8203-a249-e411-b0cc-f8bc1246af59, $GPGGA,205900.00,4429.2645,N,12419.2033,W,1,08,1.0,17.6,M,-22.3,M,,*64
2021-09-03T20:59:03.6572598Z, 6cda8203-a249-e411-b0cc-f8bc1246af59, $GPGGA,205902.00,4429.2601,N,12419.2071,W,1,08,1.0,17.3,M,-22.3,M,,*65
2021-09-03T20:59:04.6274186Z, 6cda8203-a249-e411-b0cc-f8bc1246af59, $GPGGA,205903.00,4429.2579,N,12419.2088,W,1,08,1.0,15.8,M,-22.3,M,,*67
2021-09-03T20:59:06.6575955Z, 6cda8203-a249-e411-b0cc-f8bc1246af59, $GPGGA,205905.00,4429.2534,N,12419.2128,W,1,08,1.0,17.9,M,-22.3,M,,*60
2021-09-03T20:59:07.6273007Z, 6cda8203-a249-e411-b0cc-f8bc1246af59, $GPGGA,205906.00,4429.2514,N,12419.2152,W,1,08,1.0,19.1,M,-22.3,M,,*6A
2021-09-03T20:59:09.6574600Z, 6cda8203-a249-e411-b0cc-f8bc1246af59, $GPGGA,205908.00,4429.2471,N,12419.2196,W,1,08,1.0,22.5,M,-22.3,M,,*62
2021-09-03T20:59:10.6282153Z, 6cda8203-a249-e411-b0cc-f8bc1246af59, $GPGGA,205909.00,4429.2448,N,12419.2214,W,1,08,1.0,21.4,M,-22.3,M,,*62
2021-09-03T20:59:12.6573485Z, 6cda8203-a249-e411-b0cc-f8bc1246af59, $GPGGA,205911.00,4429.2402,N,12419.2254,W,1,08,1.0,18.2,M,-22.3,M,,*6D
2021-09-03T20:59:13.6281064Z, 6cda8203-a249-e411-b0cc-f8bc1246af59, $GPGGA,205912.00,4429.2381,N,12419.2275,W,1,08,1.0,15.9,M,-22.3,M,,*67
2021-09-03T20:59:15.6583104Z, 6cda8203-a249-e411-b0cc-f8bc1246af59, $GPGGA,205914.00,4429.2338,N,12419.2316,W,1,08,1.0,16.0,M,-22.3,M,,*6D
2021-09-03T20:59:16.6280746Z, 6cda8203-a249-e411-b0cc-f8bc1246af59, $GPGGA,205915.00,4429.2317,N,12419.2337,W,1,08,1.0,14.8,M,-22.3,M,,*68
2021-09-03T20:59:18.6582113Z, 6cda8203-a249-e411-b0cc-f8bc1246af59, $GPGGA,205917.00,4429.2275,N,12419.2380,W,1,08,1.0,16.2,M,-22.3,M,,*6B
2021-09-03T20:59:19.6280415Z, 6cda8203-a249-e411-b0cc-f8bc1246af59, $GPGGA,205918.00,4429.2254,N,12419.2399,W,1,08,1.0,14.1,M,-22.3,M,,*6E
2021-09-03T20:59:21.6581668Z, 6cda8203-a249-e411-b0cc-f8bc1246af59, $GPGGA,205920.00,4429.2210,N,12419.2435,W,1,08,1.0,15.5,M,-22.3,M,,*61
2021-09-03T20:59:22.6279167Z, 6cda8203-a249-e411-b0cc-f8bc1246af59, $GPGGA,205921.00,4429.2186,N,12419.2450,W,1,08,1.0,16.1,M,-22.3,M,,*68
2021-09-03T20:59:24.6582436Z, 6cda8203-a249-e411-b0cc-f8bc1246af59, $GPGGA,205923.00,4429.2143,N,12419.2486,W,1,08,1.0,16.6,M,-22.3,M,,*6F
2021-09-03T20:59:25.6280055Z, 6cda8203-a249-e411-b0cc-f8bc1246af59, $GPGGA,205924.00,4429.2123,N,12419.2508,W,1,08,1.0,17.8,M,-22.3,M,,*66
2021-09-03T20:59:27.6581377Z, 6cda8203-a249-e411-b0cc-f8bc1246af59, $GPGGA,205926.00,4429.2077,N,12419.2543,W,1,08,1.0,17.0,M,-22.3,M,,*63
2021-09-03T20:59:28.6288977Z, 6cda8203-a249-e411-b0cc-f8bc1246af59, $GPGGA,205927.00,4429.2054,N,12419.2558,W,1,08,1.0,19.6,M,-22.3,M,,*61
2021-09-03T20:59:30.6181943Z, 6cda8203-a249-e411-b0cc-f8bc1246af59, $GPGGA,205929.00,4429.2011,N,12419.2595,W,1,08,1.0,18.0,M,-22.3,M,,*68
2021-09-03T20:59:31.6287814Z, 6cda8203-a249-e411-b0cc-f8bc1246af59, $GPGGA,205930.00,4429.1990,N,12419.2617,W,1,08,1.0,17.8,M,-22.3,M,,*6D
2021-09-03T20:59:33.6590430Z, 6cda8203-a249-e411-b0cc-f8bc1246af59, $GPGGA,205932.00,4429.1947,N,12419.2660,W,1,08,1.0,18.3,M,-22.3,M,,*61
2021-09-03T20:59:34.6288138Z, 6cda8203-a249-e411-b0cc-f8bc1246af59, $GPGGA,205933.00,4429.1925,N,12419.2679,W,1,08,1.0,17.4,M,-22.3,M,,*64
2021-09-03T20:59:36.6589249Z, 6cda8203-a249-e411-b0cc-f8bc1246af59, $GPGGA,205935.00,4429.1880,N,12419.2717,W,1,08,1.0,15.5,M,-22.3,M,,*66
2021-09-03T20:59:37.6287218Z, 6cda8203-a249-e411-b0cc-f8bc1246af59, $GPGGA,205936.00,4429.1859,N,12419.2736,W,1,08,1.0,13.3,M,-22.3,M,,*62
2021-09-03T20:59:39.6190269Z, 6cda8203-a249-e411-b0cc-f8bc1246af59, $GPGGA,205938.00,4429.1816,N,12419.2782,W,1,08,1.0,13.4,M,-22.3,M,,*6F
2021-09-03T20:59:40.6286465Z, 6cda8203-a249-e411-b0cc-f8bc1246af59, $GPGGA,205939.00,4429.1794,N,12419.2806,W,1,08,1.0,13.1,M,-22.3,M,,*6D
2021-09-03T20:59:42.6588009Z, 6cda8203-a249-e411-b0cc-f8bc1246af59, $GPGGA,205941.00,4429.1749,N,12419.2851,W,1,08,1.0,15.0,M,-22.3,M,,*67
2021-09-03T20:59:43.6287406Z, 6cda8203-a249-e411-b0cc-f8bc1246af59, $GPGGA,205942.00,4429.1727,N,12419.2875,W,1,08,1.0,16.5,M,-22.3,M,,*6C
2021-09-03T20:59:45.6588615Z, 6cda8203-a249-e411-b0cc-f8bc1246af59, $GPGGA,205944.00,4429.1684,N,12419.2922,W,1,08,1.0,14.0,M,-22.3,M,,*66
2021-09-03T20:59:46.6296151Z, 6cda8203-a249-e411-b0cc-f8bc1246af59, $GPGGA,205945.00,4429.1662,N,12419.2944,W,1,08,1.0,13.2,M,-22.3,M,,*6A
2021-09-03T20:59:48.6587584Z, 6cda8203-a249-e411-b0cc-f8bc1246af59, $GPGGA,205947.00,4429.1618,N,12419.2986,W,1,08,1.0,10.0,M,-22.3,M,,*6A
2021-09-03T20:59:49.6295064Z, 6cda8203-a249-e411-b0cc-f8bc1246af59, $GPGGA,205948.00,4429.1597,N,12419.3008,W,1,08,1.0,11.4,M,-22.3,M,,*6A
2021-09-03T20:59:51.6596366Z, 6cda8203-a249-e411-b0cc-f8bc1246af59, $GPGGA,205950.00,4429.1557,N,12419.3057,W,1,08,1.0,11.0,M,-22.3,M,,*61
2021-09-03T20:59:52.6302165Z, 6cda8203-a249-e411-b0cc-f8bc1246af59, $GPGGA,205951.00,4429.1537,N,12419.3082,W,1,08,1.0,12.3,M,-22.3,M,,*6E
2021-09-03T20:59:54.6597065Z, 6cda8203-a249-e411-b0cc-f8bc1246af59, $GPGGA,205953.00,4429.1496,N,12419.3124,W,1,08,1.0,13.3,M,-22.3,M,,*6A
2021-09-03T20:59:55.6294911Z, 6cda8203-a249-e411-b0cc-f8bc1246af59, $GPGGA,205954.00,4429.1476,N,12419.3145,W,1,08,1.0,13.8,M,-22.3,M,,*6F
2021-09-03T20:59:57.6596368Z, 6cda8203-a249-e411-b0cc-f8bc1246af59, $GPGGA,205956.00,4429.1434,N,12419.3188,W,1,08,1.0,14.5,M,-22.3,M,,*60
2021-09-03T20:59:58.6293950Z, 6cda8203-a249-e411-b0cc-f8bc1246af59, $GPGGA,205957.00,4429.1413,N,12419.3210,W,1,08,1.0,14.9,M,-22.3,M,,*6A
2021-09-03T21:00:00.6595151Z, 6cda8203-a249-e411-b0cc-f8bc1246af59, $GPGGA,205959.00,4429.1370,N,12419.3251,W,1,08,1.0,18.6,M,-22.3,M,,*60
2021-09-03T21:00:01.6292816Z, 6cda8203-a249-e411-b0cc-f8bc1246af59, $GPGGA,210000.00,4429.1348,N,12419.3271,W,1,08,1.0,17.3,M,-22.3,M,,*62
2021-09-03T21:00:03.6594502Z, 6cda8203-a249-e411-b0cc-f8bc1246af59, $GPGGA,210002.00,4429.1305,N,12419.3317,W,1,08,1.0,18.4,M,-22.3,M,,*60
2021-09-03T21:00:04.6302764Z, 6cda8203-a249-e411-b0cc-f8bc1246af59, $GPGGA,210003.00,4429.1283,N,12419.3338,W,1,08,1.0,20.5,M,-22.3,M,,*69
2021-09-03T21:00:06.6603567Z, 6cda8203-a249-e411-b0cc-f8bc1246af59, $GPGGA,210005.00,4429.1239,N,12419.3373,W,1,08,1.0,19.3,M,-22.3,M,,*6D
2021-09-03T21:00:07.6301056Z, 6cda8203-a249-e411-b0cc-f8bc1246af59, $GPGGA,210006.00,4429.1217,N,12419.3391,W,1,08,1.0,17.9,M,-22.3,M,,*6A
2021-09-03T21:00:09.6602395Z, 6cda8203-a249-e411-b0cc-f8bc1246af59, $GPGGA,210008.00,4429.1174,N,12419.3429,W,1,08,1.0,16.8,M,-22.3,M,,*66
2021-09-03T21:00:10.6300285Z, 6cda8203-a249-e411-b0cc-f8bc1246af59, $GPGGA,210009.00,4429.1151,N,12419.3449,W,1,08,1.0,14.8,M,-22.3,M,,*64
2021-09-03T21:00:12.6602027Z, 6cda8203-a249-e411-b0cc-f8bc1246af59, $GPGGA,210011.00,4429.1106,N,12419.3485,W,1,08,1.0,18.0,M,-22.3,M,,*6B
2021-09-03T21:00:13.6299956Z, 6cda8203-a249-e411-b0cc-f8bc1246af59, $GPGGA,210012.00,4429.1082,N,12419.3499,W,1,08,1.0,14.4,M,-22.3,M,,*60
2021-09-03T21:00:15.6603549Z, 6cda8203-a249-e411-b0cc-f8bc1246af59, $GPGGA,210014.00,4429.1037,N,12419.3530,W,1,08,1.0,20.0,M,-22.3,M,,*69
2021-09-03T21:00:16.6301280Z, 6cda8203-a249-e411-b0cc-f8bc1246af59, $GPGGA,210015.00,4429.1016,N,12419.3548,W,1,08,1.0,21.1,M,-22.3,M,,*64
2021-09-03T21:00:18.6602922Z, 6cda8203-a249-e411-b0cc-f8bc1246af59, $GPGGA,210017.00,4429.0972,N,12419.3587,W,1,08,1.0,19.6,M,-22.3,M,,*63
2021-09-03T21:00:19.6303813Z, 6cda8203-a249-e411-b0cc-f8bc1246af59, $GPGGA,210018.00,4429.0950,N,12419.3605,W,1,08,1.0,18.9,M,-22.3,M,,*6B
2021-09-03T21:00:21.6207700Z, 6cda8203-a249-e411-b0cc-f8bc1246af59, $GPGGA,210020.00,4429.0903,N,12419.3642,W,1,08,1.0,16.5,M,-22.3,M,,*67
2021-09-03T21:00:22.6303919Z, 6cda8203-a249-e411-b0cc-f8bc1246af59, $GPGGA,210021.00,4429.0879,N,12419.3663,W,1,08,1.0,17.7,M,-22.3,M,,*6A
2021-09-03T21:00:24.6206694Z, 6cda8203-a249-e411-b0cc-f8bc1246af59, $GPGGA,210023.00,4429.0831,N,12419.3703,W,1,08,1.0,15.0,M,-22.3,M,,*66
2021-09-03T21:00:25.6303302Z, 6cda8203-a249-e411-b0cc-f8bc1246af59, $GPGGA,210024.00,4429.0808,N,12419.3721,W,1,08,1.0,13.5,M,-22.3,M,,*68
2021-09-03T21:00:27.6604049Z, 6cda8203-a249-e411-b0cc-f8bc1246af59, $GPGGA,210026.00,4429.0763,N,12419.3758,W,1,08,1.0,13.3,M,-22.3,M,,*60
2021-09-03T21:00:28.6311562Z, 6cda8203-a249-e411-b0cc-f8bc1246af59, $GPGGA,210027.00,4429.0740,N,12419.3779,W,1,08,1.0,12.8,M,-22.3,M,,*69
2021-09-03T21:00:30.6612887Z, 6cda8203-a249-e411-b0cc-f8bc1246af59, $GPGGA,210029.00,4429.0696,N,12419.3817,W,1,08,1.0,15.4,M,-22.3,M,,*61
2021-09-03T21:00:31.5504259Z, 6cda8203-a249-e411-b0cc-f8bc1246af59, $GPGGA,210030.00,4429.0674,N,12419.3835,W,1,08,1.0,15.9,M,-22.3,M,,*68
2021-09-03T21:00:32.6705245Z, 6cda8203-a249-e411-b0cc-f8bc1246af59, $GPGGA,210031.00,4429.0652,N,12419.3853,W,1,08,1.0,13.9,M,-22.3,M,,*6B
2021-09-03T21:00:33.7209455Z, 6cda8203-a249-e411-b0cc-f8bc1246af59, $GPGGA,210032.00,4429.0630,N,12419.3873,W,1,08,1.0,13.8,M,-22.3,M,,*6F
2021-09-03T21:00:34.6011269Z, 6cda8203-a249-e411-b0cc-f8bc1246af59, $GPGGA,210033.00,4429.0609,N,12419.3895,W,1,08,1.0,14.4,M,-22.3,M,,*67
2021-09-03T21:00:35.6007322Z, 6cda8203-a249-e411-b0cc-f8bc1246af59, $GPGGA,210034.00,4429.0586,N,12419.3915,W,1,08,1.0,15.5,M,-22.3,M,,*6D
2021-09-03T21:00:37.0812646Z, 6cda8203-a249-e411-b0cc-f8bc1246af59, $GPGGA,210035.00,4429.0564,N,12419.3933,W,1,08,1.0,14.1,M,-22.3,M,,*61
2021-09-03T21:00:38.3706346Z, 6cda8203-a249-e411-b0cc-f8bc1246af59, $GPGGA,210037.00,4429.0523,N,12419.3968,W,1,08,1.0,13.9,M,-22.3,M,,*61
2021-09-03T21:00:39.8611120Z, 6cda8203-a249-e411-b0cc-f8bc1246af59, $GPGGA,210038.00,4429.0502,N,12419.3989,W,1,08,1.0,16.6,M,-22.3,M,,*68
2021-09-03T21:00:41.1515136Z, 6cda8203-a249-e411-b0cc-f8bc1246af59, $GPGGA,210040.00,4429.0459,N,12419.4033,W,1,08,1.0,15.9,M,-22.3,M,,*6B
2021-09-03T21:00:42.6409422Z, 6cda8203-a249-e411-b0cc-f8bc1246af59, $GPGGA,210041.00,4429.0437,N,12419.4051,W,1,08,1.0,16.8,M,-22.3,M,,*64
2021-09-03T21:00:44.0916467Z, 6cda8203-a249-e411-b0cc-f8bc1246af59, $GPGGA,210043.00,4429.0395,N,12419.4091,W,1,08,1.0,16.4,M,-22.3,M,,*69
2021-09-03T21:00:45.6309114Z, 6cda8203-a249-e411-b0cc-f8bc1246af59, $GPGGA,210044.00,4429.0375,N,12419.4116,W,1,08,1.0,15.8,M,-22.3,M,,*61
2021-09-03T21:00:47.0915473Z, 6cda8203-a249-e411-b0cc-f8bc1246af59, $GPGGA,210046.00,4429.0333,N,12419.4164,W,1,08,1.0,13.3,M,-22.3,M,,*69
2021-09-03T21:00:48.6318027Z, 6cda8203-a249-e411-b0cc-f8bc1246af59, $GPGGA,210047.00,4429.0312,N,12419.4185,W,1,08,1.0,11.4,M,-22.3,M,,*61
2021-09-03T21:00:50.0918878Z, 6cda8203-a249-e411-b0cc-f8bc1246af59, $GPGGA,210049.00,4429.0269,N,12419.4225,W,1,08,1.0,14.7,M,-22.3,M,,*6D
2021-09-03T21:00:51.6318486Z, 6cda8203-a249-e411-b0cc-f8bc1246af59, $GPGGA,210050.00,4429.0248,N,12419.4245,W,1,08,1.0,14.3,M,-22.3,M,,*64
2021-09-03T21:00:53.0914907Z, 6cda8203-a249-e411-b0cc-f8bc1246af59, $GPGGA,210052.00,4429.0205,N,12419.4286,W,1,08,1.0,14.8,M,-22.3,M,,*6B
2021-09-03T21:00:54.6317612Z, 6cda8203-a249-e411-b0cc-f8bc1246af59, $GPGGA,210053.00,4429.0184,N,12419.4309,W,1,08,1.0,13.7,M,-22.3,M,,*6E
2021-09-03T21:00:56.0913871Z, 6cda8203-a249-e411-b0cc-f8bc1246af59, $GPGGA,210055.00,4429.0141,N,12419.4356,W,1,08,1.0,16.0,M,-22.3,M,,*69
2021-09-03T21:00:57.6316782Z, 6cda8203-a249-e411-b0cc-f8bc1246af59, $GPGGA,210056.00,4429.0119,N,12419.4379,W,1,08,1.0,16.8,M,-22.3,M,,*62
2021-09-03T21:00:59.0922970Z, 6cda8203-a249-e411-b0cc-f8bc1246af59, $GPGGA,210058.00,4429.0073,N,12419.4419,W,1,08,1.0,15.7,M,-22.3,M,,*6C
2021-09-03T21:01:00.6316725Z, 6cda8203-a249-e411-b0cc-f8bc1246af59, $GPGGA,210059.00,4429.0051,N,12419.4437,W,1,08,1.0,14.8,M,-22.3,M,,*6F
2021-09-03T21:01:02.0922972Z, 6cda8203-a249-e411-b0cc-f8bc1246af59, $GPGGA,210101.00,4429.0009,N,12419.4477,W,1,08,1.0,13.5,M,-22.3,M,,*60
2021-09-03T21:01:03.6325602Z, 6cda8203-a249-e411-b0cc-f8bc1246af59, $GPGGA,210102.00,4428.9989,N,12419.4499,W,1,08,1.0,13.7,M,-22.3,M,,*68
2021-09-03T21:01:05.0922051Z, 6cda8203-a249-e411-b0cc-f8bc1246af59, $GPGGA,210104.00,4428.9945,N,12419.4541,W,1,08,1.0,12.9,M,-22.3,M,,*65
2021-09-03T21:01:06.6324677Z, 6cda8203-a249-e411-b0cc-f8bc1246af59, $GPGGA,210105.00,4428.9923,N,12419.4563,W,1,08,1.0,13.4,M,-22.3,M,,*68
2021-09-03T21:01:08.0921028Z, 6cda8203-a249-e411-b0cc-f8bc1246af59, $GPGGA,210107.00,4428.9878,N,12419.4604,W,1,08,1.0,11.1,M,-22.3,M,,*60
2021-09-03T21:01:09.6323773Z, 6cda8203-a249-e411-b0cc-f8bc1246af59, $GPGGA,210108.00,4428.9856,N,12419.4625,W,1,08,1.0,10.2,M,-22.3,M,,*62
2021-09-03T21:01:11.0919869Z, 6cda8203-a249-e411-b0cc-f8bc1246af59, $GPGGA,210110.00,4428.9812,N,12419.4667,W,1,08,1.0,12.0,M,-22.3,M,,*6D
2021-09-03T21:01:12.6322850Z, 6cda8203-a249-e411-b0cc-f8bc1246af59, $GPGGA,210111.00,4428.9789,N,12419.4685,W,1,08,1.0,11.2,M,-22.3,M,,*6C
2021-09-03T21:01:14.0928840Z, 6cda8203-a249-e411-b0cc-f8bc1246af59, $GPGGA,210113.00,4428.9748,N,12419.4723,W,1,08,1.0,8.8,M,-22.3,M,,*5C
2021-09-03T21:01:15.6321753Z, 6cda8203-a249-e411-b0cc-f8bc1246af59, $GPGGA,210114.00,4428.9728,N,12419.4745,W,1,08,1.0,8.0,M,-22.3,M,,*55
2021-09-03T21:01:17.0927991Z, 6cda8203-a249-e411-b0cc-f8bc1246af59, $GPGGA,210116.00,4428.9684,N,12419.4784,W,1,08,1.0,10.8,M,-22.3,M,,*6C
2021-09-03T21:01:18.6330563Z, 6cda8203-a249-e411-b0cc-f8bc1246af59, $GPGGA,210117.00,4428.9662,N,12419.4801,W,1,08,1.0,11.8,M,-22.3,M,,*66
2021-09-03T21:01:20.0926903Z, 6cda8203-a249-e411-b0cc-f8bc1246af59, $GPGGA,210119.00,4428.9620,N,12419.4838,W,1,08,1.0,8.3,M,-22.3,M,,*57
2021-09-03T21:01:21.6329501Z, 6cda8203-a249-e411-b0cc-f8bc1246af59, $GPGGA,210120.00,4428.9599,N,12419.4857,W,1,08,1.0,9.4,M,-22.3,M,,*53
2021-09-03T21:01:23.0925932Z, 6cda8203-a249-e411-b0cc-f8bc1246af59, $GPGGA,210122.00,4428.9552,N,12419.4895,W,1,08,1.0,11.9,M,-22.3,M,,*6C
2021-09-03T21:01:24.6324238Z, 6cda8203-a249-e411-b0cc-f8bc1246af59, $GPGGA,210123.00,4428.9530,N,12419.4913,W,1,08,1.0,12.5,M,-22.3,M,,*69
2021-09-03T21:01:26.0930476Z, 6cda8203-a249-e411-b0cc-f8bc1246af59, $GPGGA,210125.00,4428.9486,N,12419.4947,W,1,08,1.0,10.6,M,-22.3,M,,*63
2021-09-03T21:01:27.6326104Z, 6cda8203-a249-e411-b0cc-f8bc1246af59, $GPGGA,210126.00,4428.9464,N,12419.4965,W,1,08,1.0,7.7,M,-22.3,M,,*5B
2021-09-03T21:01:29.0932995Z, 6cda8203-a249-e411-b0cc-f8bc1246af59, $GPGGA,210128.00,4428.9421,N,12419.5006,W,1,08,1.0,9.5,M,-22.3,M,,*55
2021-09-03T21:01:30.6326530Z, 6cda8203-a249-e411-b0cc-f8bc1246af59, $GPGGA,210129.00,4428.9399,N,12419.5025,W,1,08,1.0,7.4,M,-22.3,M,,*5E
2021-09-03T21:01:32.0932906Z, 6cda8203-a249-e411-b0cc-f8bc1246af59, $GPGGA,210131.00,4428.9353,N,12419.5061,W,1,08,1.0,10.3,M,-22.3,M,,*60
2021-09-03T21:01:33.6335361Z, 6cda8203-a249-e411-b0cc-f8bc1246af59, $GPGGA,210132.00,4428.9331,N,12419.5080,W,1,08,1.0,9.9,M,-22.3,M,,*5A
2021-09-03T21:01:35.0931910Z, 6cda8203-a249-e411-b0cc-f8bc1246af59, $GPGGA,210134.00,4428.9288,N,12419.5120,W,1,08,1.0,9.7,M,-22.3,M,,*5A
2021-09-03T21:01:36.6335631Z, 6cda8203-a249-e411-b0cc-f8bc1246af59, $GPGGA,210135.00,4428.9266,N,12419.5141,W,1,08,1.0,8.8,M,-22.3,M,,*52
2021-09-03T21:01:38.0930695Z, 6cda8203-a249-e411-b0cc-f8bc1246af59, $GPGGA,210137.00,4428.9220,N,12419.5180,W,1,08,1.0,11.0,M,-22.3,M,,*6F
2021-09-03T21:01:39.6333542Z, 6cda8203-a249-e411-b0cc-f8bc1246af59, $GPGGA,210138.00,4428.9198,N,12419.5197,W,1,08,1.0,12.1,M,-22.3,M,,*64
2021-09-03T21:01:41.0940235Z, 6cda8203-a249-e411-b0cc-f8bc1246af59, $GPGGA,210140.00,4428.9155,N,12419.5237,W,1,08,1.0,10.1,M,-22.3,M,,*61
2021-09-03T21:01:42.6332890Z, 6cda8203-a249-e411-b0cc-f8bc1246af59, $GPGGA,210141.00,4428.9132,N,12419.5259,W,1,08,1.0,12.4,M,-22.3,M,,*6E
2021-09-03T21:01:44.0939069Z, 6cda8203-a249-e411-b0cc-f8bc1246af59, $GPGGA,210143.00,4428.9086,N,12419.5297,W,1,08,1.0,12.3,M,-22.3,M,,*67
2021-09-03T21:01:45.6341829Z, 6cda8203-a249-e411-b0cc-f8bc1246af59, $GPGGA,210144.00,4428.9064,N,12419.5315,W,1,08,1.0,11.8,M,-22.3,M,,*6F
2021-09-03T21:01:47.0938212Z, 6cda8203-a249-e411-b0cc-f8bc1246af59, $GPGGA,210146.00,4428.9020,N,12419.5354,W,1,08,1.0,13.6,M,-22.3,M,,*64
2021-09-03T21:01:48.6340912Z, 6cda8203-a249-e411-b0cc-f8bc1246af59, $GPGGA,210147.00,4428.8998,N,12419.5375,W,1,08,1.0,13.2,M,-22.3,M,,*69
2021-09-03T21:01:50.0938140Z, 6cda8203-a249-e411-b0cc-f8bc1246af59, $GPGGA,210149.00,4428.8954,N,12419.5413,W,1,08,1.0,11.1,M,-22.3,M,,*61
2021-09-03T21:01:51.6335254Z, 6cda8203-a249-e411-b0cc-f8bc1246af59, $GPGGA,210150.00,4428.8934,N,12419.5434,W,1,08,1.0,13.2,M,-22.3,M,,*6B
2021-09-03T21:01:53.0943229Z, 6cda8203-a249-e411-b0cc-f8bc1246af59, $GPGGA,210152.00,4428.8893,N,12419.5477,W,1,08,1.0,11.8,M,-22.3,M,,*6A
2021-09-03T21:01:54.6336111Z, 6cda8203-a249-e411-b0cc-f8bc1246af59, $GPGGA,210153.00,4428.8871,N,12419.5498,W,1,08,1.0,13.4,M,-22.3,M,,*68
2021-09-03T21:01:56.0942248Z, 6cda8203-a249-e411-b0cc-f8bc1246af59, $GPGGA,210155.00,4428.8829,N,12419.5535,W,1,08,1.0,12.5,M,-22.3,M,,*65
2021-09-03T21:01:57.6344995Z, 6cda8203-a249-e411-b0cc-f8bc1246af59, $GPGGA,210156.00,4428.8808,N,12419.5553,W,1,08,1.0,13.7,M,-22.3,M,,*66
2021-09-03T21:01:59.0941492Z, 6cda8203-a249-e411-b0cc-f8bc1246af59, $GPGGA,210158.00,4428.8764,N,12419.5593,W,1,08,1.0,14.0,M,-22.3,M,,*61
2021-09-03T21:02:00.6343893Z, 6cda8203-a249-e411-b0cc-f8bc1246af59, $GPGGA,210159.00,4428.8743,N,12419.5613,W,1,08,1.0,13.8,M,-22.3,M,,*61
2021-09-03T21:02:02.0940232Z, 6cda8203-a249-e411-b0cc-f8bc1246af59, $GPGGA,210201.00,4428.8701,N,12419.5653,W,1,08,1.0,16.9,M,-22.3,M,,*69
2021-09-03T21:02:03.6343064Z, 6cda8203-a249-e411-b0cc-f8bc1246af59, $GPGGA,210202.00,4428.8680,N,12419.5674,W,1,08,1.0,15.7,M,-22.3,M,,*6A
2021-09-03T21:02:05.0939695Z, 6cda8203-a249-e411-b0cc-f8bc1246af59, $GPGGA,210204.00,4428.8636,N,12419.5716,W,1,08,1.0,17.5,M,-22.3,M,,*64
2021-09-03T21:02:06.6342763Z, 6cda8203-a249-e411-b0cc-f8bc1246af59, $GPGGA,210205.00,4428.8615,N,12419.5736,W,1,08,1.0,18.0,M,-22.3,M,,*6C
2021-09-03T21:02:08.0948645Z, 6cda8203-a249-e411-b0cc-f8bc1246af59, $GPGGA,210207.00,4428.8572,N,12419.5776,W,1,08,1.0,19.9,M,-22.3,M,,*60
