ACQ Timestamp (Server Time in UTC), MessageID, Data Value For: GNSS-6452-$GPGGA
2021-08-29T20:11:02.0893205Z, 6cda8203-a249-e411-b0cc-f8bc1246af59, $GPGGA,201101.00,4437.5847,N,12402.8850,W,1,09,0.8,13.8,M,-21.8,M,,*6A
2021-08-29T20:11:03.6195828Z, 6cda8203-a249-e411-b0cc-f8bc1246af59, $GPGGA,201102.00,4437.5848,N,12402.8852,W,1,09,0.8,13.9,M,-21.8,M,,*65
2021-08-29T20:11:05.0901795Z, 6cda8203-a249-e411-b0cc-f8bc1246af59, $GPGGA,201104.00,4437.5848,N,12402.8852,W,1,09,0.8,14.1,M,-21.8,M,,*6C
2021-08-29T20:11:06.6194806Z, 6cda8203-a249-e411-b0cc-f8bc1246af59, $GPGGA,201105.00,4437.5847,N,12402.8845,W,1,09,0.8,13.8,M,-21.8,M,,*6A
2021-08-29T20:11:08.0901550Z, 6cda8203-a249-e411-b0cc-f8bc1246af59, $GPGGA,201107.00,4437.5846,N,12402.8843,W,1,09,0.8,13.9,M,-21.8,M,,*6E
2021-08-29T20:11:09.6195000Z, 6cda8203-a249-e411-b0cc-f8bc1246af59, $GPGGA,201108.00,4437.5846,N,12402.8844,W,1,09,0.8,13.9,M,-21.8,M,,*66
2021-08-29T20:11:11.0900515Z, 6cda8203-a249-e411-b0cc-f8bc1246af59, $GPGGA,201110.00,4437.5842,N,12402.8839,W,1,09,0.8,14.2,M,-21.8,M,,*6D
2021-08-29T20:11:12.6203701Z, 6cda8203-a249-e411-b0cc-f8bc1246af59, $GPGGA,201111.00,4437.5843,N,12402.8839,W,1,09,0.8,14.3,M,-21.8,M,,*6C
2021-08-29T20:11:14.0899500Z, 6cda8203-a249-e411-b0cc-f8bc1246af59, $GPGGA,201113.00,4437.5842,N,12402.8839,W,1,09,0.8,14.7,M,-21.8,M,,*6B
2021-08-29T20:11:15.6202735Z, 6cda8203-a249-e411-b0cc-f8bc1246af59, $GPGGA,201114.00,4437.5842,N,12402.8840,W,1,09,0.8,14.8,M,-21.8,M,,*6D
2021-08-29T20:11:17.0898537Z, 6cda8203-a249-e411-b0cc-f8bc1246af59, $GPGGA,201116.00,4437.5840,N,12402.8839,W,1,09,0.8,15.1,M,-21.8,M,,*6B
2021-08-29T20:11:18.6201682Z, 6cda8203-a249-e411-b0cc-f8bc1246af59, $GPGGA,201117.00,4437.5839,N,12402.8839,W,1,09,0.8,15.1,M,-21.8,M,,*64
2021-08-29T20:11:20.0907704Z, 6cda8203-a249-e411-b0cc-f8bc1246af59, $GPGGA,201119.00,4437.5837,N,12402.8836,W,1,09,0.8,15.3,M,-21.8,M,,*69
2021-08-29T20:11:21.6200837Z, 6cda8203-a249-e411-b0cc-f8bc1246af59, $GPGGA,201120.00,4437.5837,N,12402.8836,W,1,09,0.8,15.2,M,-21.8,M,,*62
2021-08-29T20:11:23.0906607Z, 6cda8203-a249-e411-b0cc-f8bc1246af59, $GPGGA,201122.00,4437.5835,N,12402.8836,W,1,09,0.8,15.1,M,-21.8,M,,*61
2021-08-29T20:11:24.6209771Z, 6cda8203-a249-e411-b0cc-f8bc1246af59, $GPGGA,201123.00,4437.5833,N,12402.8838,W,1,09,0.8,15.1,M,-21.8,M,,*68
2021-08-29T20:11:26.0905544Z, 6cda8203-a249-e411-b0cc-f8bc1246af59, $GPGGA,201125.00,4437.5832,N,12402.8840,W,1,09,0.8,15.1,M,-21.8,M,,*60
2021-08-29T20:11:27.6209809Z, 6cda8203-a249-e411-b0cc-f8bc1246af59, $GPGGA,201126.00,4437.5832,N,12402.8841,W,1,09,0.8,15.2,M,-21.8,M,,*61
2021-08-29T20:11:29.0905775Z, 6cda8203-a249-e411-b0cc-f8bc1246af59, $GPGGA,201128.00,4437.5832,N,12402.8845,W,1,09,0.8,15.4,M,-21.8,M,,*6D
2021-08-29T20:11:30.6208803Z, 6cda8203-a249-e411-b0cc-f8bc1246af59, $GPGGA,201129.00,4437.5833,N,12402.8846,W,1,09,0.8,15.2,M,-21.8,M,,*68
2021-08-29T20:11:32.0904839Z, 6cda8203-a249-e411-b0cc-f8bc1246af59, $GPGGA,201131.00,4437.5830,N,12402.8845,W,1,09,0.8,15.4,M,-21.8,M,,*67
2021-08-29T20:11:33.6208024Z, 6cda8203-a249-e411-b0cc-f8bc1246af59, $GPGGA,201132.00,4437.5829,N,12402.8844,W,1,09,0.8,15.4,M,-21.8,M,,*6D
2021-08-29T20:11:35.0913919Z, 6cda8203-a249-e411-b0cc-f8bc1246af59, $GPGGA,201134.00,4437.5830,N,12402.8846,W,1,09,0.8,15.6,M,-21.8,M,,*63
2021-08-29T20:11:36.6206851Z, 6cda8203-a249-e411-b0cc-f8bc1246af59, $GPGGA,201135.00,4437.5831,N,12402.8846,W,1,09,0.8,15.6,M,-21.8,M,,*63
2021-08-29T20:11:38.0912627Z, 6cda8203-a249-e411-b0cc-f8bc1246af59, $GPGGA,201137.00,4437.5832,N,12402.8846,W,1,09,0.8,15.8,M,-21.8,M,,*6C
2021-08-29T20:11:39.6207590Z, 6cda8203-a249-e411-b0cc-f8bc1246af59, $GPGGA,201138.00,4437.5834,N,12402.8846,W,1,09,0.8,15.9,M,-21.8,M,,*64
2021-08-29T20:11:41.0913377Z, 6cda8203-a249-e411-b0cc-f8bc1246af59, $GPGGA,201140.00,4437.5836,N,12402.8850,W,1,09,0.8,16.1,M,-21.8,M,,*65
2021-08-29T20:11:42.6216597Z, 6cda8203-a249-e411-b0cc-f8bc1246af59, $GPGGA,201141.00,4437.5838,N,12402.8852,W,1,09,0.8,16.2,M,-21.8,M,,*6B
2021-08-29T20:11:44.0912319Z, 6cda8203-a249-e411-b0cc-f8bc1246af59, $GPGGA,201143.00,4437.5840,N,12402.8852,W,1,09,0.8,16.3,M,-21.8,M,,*67
2021-08-29T20:11:45.6215623Z, 6cda8203-a249-e411-b0cc-f8bc1246af59, $GPGGA,201144.00,4437.5842,N,12402.8851,W,1,09,0.8,16.3,M,-21.8,M,,*61
2021-08-29T20:11:47.0911501Z, 6cda8203-a249-e411-b0cc-f8bc1246af59, $GPGGA,201146.00,4437.5843,N,12402.8852,W,1,09,0.8,16.5,M,-21.8,M,,*67
2021-08-29T20:11:48.6214676Z, 6cda8203-a249-e411-b0cc-f8bc1246af59, $GPGGA,201147.00,4437.5849,N,12402.8846,W,1,09,0.8,17.0,M,-21.8,M,,*6D
2021-08-29T20:11:50.0910440Z, 6cda8203-a249-e411-b0cc-f8bc1246af59, $GPGGA,201149.00,4437.5849,N,12402.8845,W,1,09,0.8,17.2,M,-21.8,M,,*62
2021-08-29T20:11:51.6213577Z, 6cda8203-a249-e411-b0cc-f8bc1246af59, $GPGGA,201150.00,4437.5851,N,12402.8847,W,1,09,0.8,17.4,M,-21.8,M,,*67
2021-08-29T20:11:53.0911498Z, 6cda8203-a249-e411-b0cc-f8bc1246af59, $GPGGA,201152.00,4437.5852,N,12402.8846,W,1,09,0.8,17.6,M,-21.8,M,,*65
2021-08-29T20:11:54.6214652Z, 6cda8203-a249-e411-b0cc-f8bc1246af59, $GPGGA,201153.00,4437.5853,N,12402.8847,W,1,09,0.8,17.6,M,-21.8,M,,*64
2021-08-29T20:11:55.7614723Z, 6cda8203-a249-e411-b0cc-f8bc1246af59, $GPGGA,201154.00,4437.5852,N,12402.8850,W,1,09,0.8,17.6,M,-21.8,M,,*64
2021-08-29T20:11:56.0920270Z, 6cda8203-a249-e411-b0cc-f8bc1246af59, $GPGGA,201155.00,4437.5852,N,12402.8850,W,1,09,0.8,17.7,M,-21.8,M,,*64
2021-08-29T20:11:57.6213483Z, 6cda8203-a249-e411-b0cc-f8bc1246af59, $GPGGA,201156.00,4437.5853,N,12402.8852,W,1,09,0.8,17.8,M,-21.8,M,,*6B
2021-08-29T20:11:59.0920933Z, 6cda8203-a249-e411-b0cc-f8bc1246af59, $GPGGA,201158.00,4437.5852,N,12402.8852,W,1,09,0.8,17.8,M,-21.8,M,,*64
2021-08-29T20:12:00.6214258Z, 6cda8203-a249-e411-b0cc-f8bc1246af59, $GPGGA,201159.00,4437.5851,N,12402.8852,W,1,09,0.8,17.9,M,-21.8,M,,*67
2021-08-29T20:12:01.6220156Z, 6cda8203-a249-e411-b0cc-f8bc1246af59, $GPGGA,201200.00,4437.5850,N,12402.8853,W,1,09,0.8,18.1,M,-21.8,M,,*6F
2021-08-29T20:12:03.5715321Z, 6cda8203-a249-e411-b0cc-f8bc1246af59, $GPGGA,201202.00,4437.5850,N,12402.8852,W,1,09,0.8,18.0,M,-21.8,M,,*6D
2021-08-29T20:12:04.0922660Z, 6cda8203-a249-e411-b0cc-f8bc1246af59, $GPGGA,201203.00,4437.5849,N,12402.8853,W,1,09,0.8,17.9,M,-21.8,M,,*63
2021-08-29T20:12:05.6217270Z, 6cda8203-a249-e411-b0cc-f8bc1246af59, $GPGGA,201204.00,4437.5848,N,12402.8854,W,1,09,0.8,18.0,M,-21.8,M,,*64
2021-08-29T20:12:07.0922973Z, 6cda8203-a249-e411-b0cc-f8bc1246af59, $GPGGA,201206.00,4437.5847,N,12402.8859,W,1,09,0.8,18.0,M,-21.8,M,,*64
2021-08-29T20:12:08.0919434Z, 6cda8203-a249-e411-b0cc-f8bc1246af59, $GPGGA,201207.00,4437.5846,N,12402.8861,W,1,09,0.8,18.1,M,-21.8,M,,*6E
2021-08-29T20:12:09.6819988Z, 6cda8203-a249-e411-b0cc-f8bc1246af59, $GPGGA,201208.00,4437.5844,N,12402.8870,W,1,09,0.8,17.9,M,-21.8,M,,*64
2021-08-29T20:12:10.6019710Z, 6cda8203-a249-e411-b0cc-f8bc1246af59, $GPGGA,201209.00,4437.5843,N,12402.8871,W,1,09,0.8,17.8,M,-21.8,M,,*62
2021-08-29T20:12:11.7220801Z, 6cda8203-a249-e411-b0cc-f8bc1246af59, $GPGGA,201210.00,4437.5844,N,12402.8870,W,1,09,0.8,17.8,M,-21.8,M,,*6C
2021-08-29T20:12:12.7028156Z, 6cda8203-a249-e411-b0cc-f8bc1246af59, $GPGGA,201211.00,4437.5842,N,12402.8872,W,1,09,0.8,17.6,M,-21.8,M,,*67
2021-08-29T20:12:14.0320076Z, 6cda8203-a249-e411-b0cc-f8bc1246af59, $GPGGA,201212.00,4437.5841,N,12402.8873,W,1,09,0.8,17.5,M,-21.8,M,,*65
2021-08-29T20:12:14.5427446Z, 6cda8203-a249-e411-b0cc-f8bc1246af59, $GPGGA,201213.00,4437.5842,N,12402.8872,W,1,09,0.8,17.5,M,-21.8,M,,*66
2021-08-29T20:12:16.0124068Z, 6cda8203-a249-e411-b0cc-f8bc1246af59, $GPGGA,201214.00,4437.5842,N,12402.8873,W,1,09,0.8,17.5,M,-21.8,M,,*60
2021-08-29T20:12:17.2929676Z, 6cda8203-a249-e411-b0cc-f8bc1246af59, $GPGGA,201216.00,4437.5843,N,12402.8877,W,1,09,0.8,17.5,M,-21.8,M,,*67
2021-08-29T20:12:18.7625418Z, 6cda8203-a249-e411-b0cc-f8bc1246af59, $GPGGA,201217.00,4437.5843,N,12402.8879,W,1,09,0.8,17.5,M,-21.8,M,,*68
2021-08-29T20:12:20.0927240Z, 6cda8203-a249-e411-b0cc-f8bc1246af59, $GPGGA,201219.00,4437.5848,N,12402.8886,W,1,09,0.8,17.3,M,-21.8,M,,*6B
2021-08-29T20:12:21.6230242Z, 6cda8203-a249-e411-b0cc-f8bc1246af59, $GPGGA,201220.00,4437.5849,N,12402.8887,W,1,09,0.8,17.2,M,-21.8,M,,*60
2021-08-29T20:12:23.0926303Z, 6cda8203-a249-e411-b0cc-f8bc1246af59, $GPGGA,201222.00,4437.5849,N,12402.8887,W,1,09,0.8,17.3,M,-21.8,M,,*63
2021-08-29T20:12:24.6229180Z, 6cda8203-a249-e411-b0cc-f8bc1246af59, $GPGGA,201223.00,4437.5849,N,12402.8889,W,1,09,0.8,17.3,M,-21.8,M,,*6C
2021-08-29T20:12:26.0925397Z, 6cda8203-a249-e411-b0cc-f8bc1246af59, $GPGGA,201225.00,4437.5850,N,12402.8889,W,1,09,0.8,17.4,M,-21.8,M,,*65
2021-08-29T20:12:27.6228203Z, 6cda8203-a249-e411-b0cc-f8bc1246af59, $GPGGA,201226.00,4437.5851,N,12402.8889,W,1,09,0.8,17.2,M,-21.8,M,,*61
2021-08-29T20:12:29.0934235Z, 6cda8203-a249-e411-b0cc-f8bc1246af59, $GPGGA,201228.00,4437.5853,N,12402.8887,W,1,09,0.8,17.2,M,-21.8,M,,*63
2021-08-29T20:12:30.6227260Z, 6cda8203-a249-e411-b0cc-f8bc1246af59, $GPGGA,201229.00,4437.5852,N,12402.8886,W,1,09,0.8,17.3,M,-21.8,M,,*63
2021-08-29T20:12:32.0933072Z, 6cda8203-a249-e411-b0cc-f8bc1246af59, $GPGGA,201231.00,4437.5853,N,12402.8885,W,1,09,0.8,17.3,M,-21.8,M,,*68
2021-08-29T20:12:33.6236258Z, 6cda8203-a249-e411-b0cc-f8bc1246af59, $GPGGA,201232.00,4437.5853,N,12402.8887,W,1,09,0.8,17.2,M,-21.8,M,,*68
2021-08-29T20:12:35.0932250Z, 6cda8203-a249-e411-b0cc-f8bc1246af59, $GPGGA,201234.00,4437.5855,N,12402.8889,W,1,09,0.8,17.2,M,-21.8,M,,*66
2021-08-29T20:12:36.6235308Z, 6cda8203-a249-e411-b0cc-f8bc1246af59, $GPGGA,201235.00,4437.5856,N,12402.8891,W,1,09,0.8,17.1,M,-21.8,M,,*6E
2021-08-29T20:12:38.0931341Z, 6cda8203-a249-e411-b0cc-f8bc1246af59, $GPGGA,201237.00,4437.5859,N,12402.8892,W,1,09,0.8,17.0,M,-21.8,M,,*61
2021-08-29T20:12:39.6234206Z, 6cda8203-a249-e411-b0cc-f8bc1246af59, $GPGGA,201238.00,4437.5860,N,12402.8893,W,1,09,0.8,16.9,M,-21.8,M,,*6D
2021-08-29T20:12:41.0930397Z, 6cda8203-a249-e411-b0cc-f8bc1246af59, $GPGGA,201240.00,4437.5863,N,12402.8893,W,1,09,0.8,17.0,M,-21.8,M,,*69
2021-08-29T20:12:42.6233293Z, 6cda8203-a249-e411-b0cc-f8bc1246af59, $GPGGA,201241.00,4437.5864,N,12402.8892,W,1,09,0.8,17.0,M,-21.8,M,,*6E
2021-08-29T20:12:44.0939215Z, 6cda8203-a249-e411-b0cc-f8bc1246af59, $GPGGA,201243.00,4437.5866,N,12402.8892,W,1,09,0.8,16.9,M,-21.8,M,,*66
2021-08-29T20:12:45.6232381Z, 6cda8203-a249-e411-b0cc-f8bc1246af59, $GPGGA,201244.00,4437.5866,N,12402.8891,W,1,09,0.8,16.8,M,-21.8,M,,*63
2021-08-29T20:12:47.0938043Z, 6cda8203-a249-e411-b0cc-f8bc1246af59, $GPGGA,201246.00,4437.5865,N,12402.8890,W,1,09,0.8,16.7,M,-21.8,M,,*6C
2021-08-29T20:12:48.6241343Z, 6cda8203-a249-e411-b0cc-f8bc1246af59, $GPGGA,201247.00,4437.5868,N,12402.8890,W,1,09,0.8,16.3,M,-21.8,M,,*64
2021-08-29T20:12:50.0937315Z, 6cda8203-a249-e411-b0cc-f8bc1246af59, $GPGGA,201249.00,4437.5876,N,12402.8890,W,1,09,0.8,16.1,M,-21.8,M,,*67
2021-08-29T20:12:51.6240292Z, 6cda8203-a249-e411-b0cc-f8bc1246af59, $GPGGA,201250.00,4437.5878,N,12402.8889,W,1,09,0.8,15.8,M,-21.8,M,,*63
2021-08-29T20:12:53.0936459Z, 6cda8203-a249-e411-b0cc-f8bc1246af59, $GPGGA,201252.00,4437.5877,N,12402.8887,W,1,09,0.8,15.1,M,-21.8,M,,*69
2021-08-29T20:12:54.6239221Z, 6cda8203-a249-e411-b0cc-f8bc1246af59, $GPGGA,201253.00,4437.5876,N,12402.8886,W,1,09,0.8,14.9,M,-21.8,M,,*61
2021-08-29T20:12:56.0945388Z, 6cda8203-a249-e411-b0cc-f8bc1246af59, $GPGGA,201255.00,4437.5869,N,12402.8882,W,1,09,0.8,14.7,M,-21.8,M,,*63
2021-08-29T20:12:57.6238309Z, 6cda8203-a249-e411-b0cc-f8bc1246af59, $GPGGA,201256.00,4437.5868,N,12402.8883,W,1,09,0.8,14.8,M,-21.8,M,,*6F
2021-08-29T20:12:59.0944112Z, 6cda8203-a249-e411-b0cc-f8bc1246af59, $GPGGA,201258.00,4437.5868,N,12402.8882,W,1,09,0.8,14.5,M,-21.8,M,,*6D
2021-08-29T20:13:00.6237321Z, 6cda8203-a249-e411-b0cc-f8bc1246af59, $GPGGA,201259.00,4437.5867,N,12402.8882,W,1,09,0.8,14.4,M,-21.8,M,,*62
2021-08-29T20:13:02.0943047Z, 6cda8203-a249-e411-b0cc-f8bc1246af59, $GPGGA,201301.00,4437.5866,N,12402.8884,W,1,09,0.8,14.7,M,-21.8,M,,*6A
2021-08-29T20:13:03.6246322Z, 6cda8203-a249-e411-b0cc-f8bc1246af59, $GPGGA,201302.00,4437.5857,N,12402.8879,W,1,09,0.8,15.2,M,-21.8,M,,*6D
2021-08-29T20:13:05.0942391Z, 6cda8203-a249-e411-b0cc-f8bc1246af59, $GPGGA,201304.00,4437.5856,N,12402.8881,W,1,09,0.8,15.0,M,-21.8,M,,*6F
2021-08-29T20:13:06.6245235Z, 6cda8203-a249-e411-b0cc-f8bc1246af59, $GPGGA,201305.00,4437.5854,N,12402.8880,W,1,09,0.8,14.8,M,-21.8,M,,*64
2021-08-29T20:13:08.0941458Z, 6cda8203-a249-e411-b0cc-f8bc1246af59, $GPGGA,201307.00,4437.5852,N,12402.8879,W,1,09,0.8,14.7,M,-21.8,M,,*69
2021-08-29T20:13:09.6244300Z, 6cda8203-a249-e411-b0cc-f8bc1246af59, $GPGGA,201308.00,4437.5853,N,12402.8877,W,1,09,0.8,14.8,M,-21.8,M,,*66
2021-08-29T20:13:11.0950297Z, 6cda8203-a249-e411-b0cc-f8bc1246af59, $GPGGA,201310.00,4437.5854,N,12402.8874,W,1,09,0.8,15.1,M,-21.8,M,,*63
2021-08-29T20:13:12.6243453Z, 6cda8203-a249-e411-b0cc-f8bc1246af59, $GPGGA,201311.00,4437.5854,N,12402.8874,W,1,09,0.8,15.4,M,-21.8,M,,*67
2021-08-29T20:13:14.0949115Z, 6cda8203-a249-e411-b0cc-f8bc1246af59, $GPGGA,201313.00,4437.5855,N,12402.8872,W,1,09,0.8,15.5,M,-21.8,M,,*63
2021-08-29T20:13:15.6252316Z, 6cda8203-a249-e411-b0cc-f8bc1246af59, $GPGGA,201314.00,4437.5854,N,12402.8873,W,1,09,0.8,15.6,M,-21.8,M,,*67
2021-08-29T20:13:17.0948959Z, 6cda8203-a249-e411-b0cc-f8bc1246af59, $GPGGA,201316.00,4437.5856,N,12402.8869,W,1,09,0.8,15.5,M,-21.8,M,,*6F
2021-08-29T20:13:18.6252114Z, 6cda8203-a249-e411-b0cc-f8bc1246af59, $GPGGA,201317.00,4437.5857,N,12402.8867,W,1,09,0.8,15.6,M,-21.8,M,,*62
2021-08-29T20:13:20.0947943Z, 6cda8203-a249-e411-b0cc-f8bc1246af59, $GPGGA,201319.00,4437.5858,N,12402.8860,W,1,09,0.8,15.7,M,-21.8,M,,*65
2021-08-29T20:13:21.6251070Z, 6cda8203-a249-e411-b0cc-f8bc1246af59, $GPGGA,201320.00,4437.5857,N,12402.8858,W,1,09,0.8,15.8,M,-21.8,M,,*64
2021-08-29T20:13:23.0947256Z, 6cda8203-a249-e411-b0cc-f8bc1246af59, $GPGGA,201322.00,4437.5857,N,12402.8856,W,1,09,0.8,16.0,M,-21.8,M,,*63
2021-08-29T20:13:24.6250112Z, 6cda8203-a249-e411-b0cc-f8bc1246af59, $GPGGA,201323.00,4437.5856,N,12402.8855,W,1,09,0.8,16.1,M,-21.8,M,,*61
2021-08-29T20:13:26.0956046Z, 6cda8203-a249-e411-b0cc-f8bc1246af59, $GPGGA,201325.00,4437.5849,N,12402.8856,W,1,09,0.8,16.2,M,-21.8,M,,*69
2021-08-29T20:13:27.6249259Z, 6cda8203-a249-e411-b0cc-f8bc1246af59, $GPGGA,201326.00,4437.5848,N,12402.8859,W,1,09,0.8,16.2,M,-21.8,M,,*64
2021-08-29T20:13:29.0954966Z, 6cda8203-a249-e411-b0cc-f8bc1246af59, $GPGGA,201328.00,4437.5846,N,12402.8860,W,1,09,0.8,16.1,M,-21.8,M,,*6D
2021-08-29T20:13:30.6258128Z, 6cda8203-a249-e411-b0cc-f8bc1246af59, $GPGGA,201329.00,4437.5845,N,12402.8858,W,1,09,0.8,16.0,M,-21.8,M,,*65
2021-08-29T20:13:32.0953913Z, 6cda8203-a249-e411-b0cc-f8bc1246af59, $GPGGA,201331.00,4437.5843,N,12402.8856,W,1,09,0.8,16.1,M,-21.8,M,,*65
2021-08-29T20:13:33.6257144Z, 6cda8203-a249-e411-b0cc-f8bc1246af59, $GPGGA,201332.00,4437.5844,N,12402.8855,W,1,09,0.8,16.1,M,-21.8,M,,*62
2021-08-29T20:13:35.0953055Z, 6cda8203-a249-e411-b0cc-f8bc1246af59, $GPGGA,201334.00,4437.5844,N,12402.8855,W,1,09,0.8,16.1,M,-21.8,M,,*64
2021-08-29T20:13:36.6256832Z, 6cda8203-a249-e411-b0cc-f8bc1246af59, $GPGGA,201335.00,4437.5843,N,12402.8858,W,1,09,0.8,16.1,M,-21.8,M,,*6F
2021-08-29T20:13:38.0952735Z, 6cda8203-a249-e411-b0cc-f8bc1246af59, $GPGGA,201337.00,4437.5842,N,12402.8856,W,1,09,0.8,16.1,M,-21.8,M,,*62
2021-08-29T20:13:39.6255850Z, 6cda8203-a249-e411-b0cc-f8bc1246af59, $GPGGA,201338.00,4437.5843,N,12402.8856,W,1,09,0.8,16.0,M,-21.8,M,,*6D
2021-08-29T20:13:41.0961813Z, 6cda8203-a249-e411-b0cc-f8bc1246af59, $GPGGA,201340.00,4437.5843,N,12402.8859,W,1,09,0.8,16.0,M,-21.8,M,,*6D
2021-08-29T20:13:42.6254939Z, 6cda8203-a249-e411-b0cc-f8bc1246af59, $GPGGA,201341.00,4437.5845,N,12402.8860,W,1,09,0.8,16.0,M,-21.8,M,,*60
2021-08-29T20:13:44.0961570Z, 6cda8203-a249-e411-b0cc-f8bc1246af59, $GPGGA,201343.00,4437.5849,N,12402.8860,W,1,09,0.8,15.9,M,-21.8,M,,*64
2021-08-29T20:13:45.6254831Z, 6cda8203-a249-e411-b0cc-f8bc1246af59, $GPGGA,201344.00,4437.5849,N,12402.8859,W,1,09,0.8,15.9,M,-21.8,M,,*69
2021-08-29T20:13:47.0960640Z, 6cda8203-a249-e411-b0cc-f8bc1246af59, $GPGGA,201346.00,4437.5849,N,12402.8854,W,1,09,0.8,16.0,M,-21.8,M,,*6C
2021-08-29T20:13:48.6263936Z, 6cda8203-a249-e411-b0cc-f8bc1246af59, $GPGGA,201347.00,4437.5848,N,12402.8852,W,1,09,0.8,16.1,M,-21.8,M,,*6B
2021-08-29T20:13:50.0960863Z, 6cda8203-a249-e411-b0cc-f8bc1246af59, $GPGGA,201349.00,4437.5847,N,12402.8849,W,1,09,0.8,16.1,M,-21.8,M,,*60
2021-08-29T20:13:51.6264098Z, 6cda8203-a249-e411-b0cc-f8bc1246af59, $GPGGA,201350.00,4437.5849,N,12402.8848,W,1,09,0.8,16.1,M,-21.8,M,,*67
2021-08-29T20:13:53.0959839Z, 6cda8203-a249-e411-b0cc-f8bc1246af59, $GPGGA,201352.00,4437.5849,N,12402.8848,W,1,09,0.8,16.0,M,-21.8,M,,*64
2021-08-29T20:13:54.6263073Z, 6cda8203-a249-e411-b0cc-f8bc1246af59, $GPGGA,201353.00,4437.5846,N,12402.8849,W,1,09,0.8,16.0,M,-21.8,M,,*6B
2021-08-29T20:13:56.0958873Z, 6cda8203-a249-e411-b0cc-f8bc1246af59, $GPGGA,201355.00,4437.5845,N,12402.8851,W,1,09,0.8,16.1,M,-21.8,M,,*66
2021-08-29T20:13:57.6262076Z, 6cda8203-a249-e411-b0cc-f8bc1246af59, $GPGGA,201356.00,4437.5844,N,12402.8849,W,1,09,0.8,16.2,M,-21.8,M,,*6E
2021-08-29T20:13:59.0967991Z, 6cda8203-a249-e411-b0cc-f8bc1246af59, $GPGGA,201358.00,4437.5842,N,12402.8846,W,1,09,0.8,16.2,M,-21.8,M,,*69
2021-08-29T20:14:00.6261130Z, 6cda8203-a249-e411-b0cc-f8bc1246af59, $GPGGA,201359.00,4437.5842,N,12402.8846,W,1,09,0.8,16.3,M,-21.8,M,,*69
2021-08-29T20:14:02.0970564Z, 6cda8203-a249-e411-b0cc-f8bc1246af59, $GPGGA,201401.00,4437.5843,N,12402.8843,W,1,09,0.8,16.3,M,-21.8,M,,*67
2021-08-29T20:14:03.6263739Z, 6cda8203-a249-e411-b0cc-f8bc1246af59, $GPGGA,201402.00,4437.5845,N,12402.8843,W,1,09,0.8,16.4,M,-21.8,M,,*65
2021-08-29T20:14:05.0970722Z, 6cda8203-a249-e411-b0cc-f8bc1246af59, $GPGGA,201404.00,4437.5845,N,12402.8838,W,1,09,0.8,16.6,M,-21.8,M,,*6D
2021-08-29T20:14:06.6263839Z, 6cda8203-a249-e411-b0cc-f8bc1246af59, $GPGGA,201405.00,4437.5846,N,12402.8836,W,1,09,0.8,16.6,M,-21.8,M,,*61
2021-08-29T20:14:08.0969587Z, 6cda8203-a249-e411-b0cc-f8bc1246af59, $GPGGA,201407.00,4437.5846,N,12402.8838,W,1,09,0.8,16.7,M,-21.8,M,,*6C
2021-08-29T20:14:09.6273372Z, 6cda8203-a249-e411-b0cc-f8bc1246af59, $GPGGA,201408.00,4437.5847,N,12402.8837,W,1,09,0.8,16.8,M,-21.8,M,,*62
2021-08-29T20:14:11.0970532Z, 6cda8203-a249-e411-b0cc-f8bc1246af59, $GPGGA,201410.00,4437.5846,N,12402.8834,W,1,09,0.8,16.7,M,-21.8,M,,*66
2021-08-29T20:14:12.6273819Z, 6cda8203-a249-e411-b0cc-f8bc1246af59, $GPGGA,201411.00,4437.5847,N,12402.8834,W,1,09,0.8,16.7,M,-21.8,M,,*66
2021-08-29T20:14:13.8171874Z, 6cda8203-a249-e411-b0cc-f8bc1246af59, $GPGGA,201413.00,4437.5850,N,12402.8837,W,1,09,0.8,16.7,M,-21.8,M,,*61
2021-08-29T20:14:15.5666371Z, 6cda8203-a249-e411-b0cc-f8bc1246af59, $GPGGA,201414.00,4437.5850,N,12402.8839,W,1,09,0.8,16.8,M,-21.8,M,,*67
2021-08-29T20:14:16.6867965Z, 6cda8203-a249-e411-b0cc-f8bc1246af59, $GPGGA,201415.00,4437.5851,N,12402.8837,W,1,09,0.8,16.8,M,-21.8,M,,*69
2021-08-29T20:14:17.8467270Z, 6cda8203-a249-e411-b0cc-f8bc1246af59, $GPGGA,201416.00,4437.5851,N,12402.8836,W,1,09,0.8,16.7,M,-21.8,M,,*64
2021-08-29T20:14:18.5576176Z, 6cda8203-a249-e411-b0cc-f8bc1246af59, $GPGGA,201417.00,4437.5851,N,12402.8834,W,1,09,0.8,16.7,M,-21.8,M,,*67
2021-08-29T20:14:20.0272229Z, 6cda8203-a249-e411-b0cc-f8bc1246af59, $GPGGA,201418.00,4437.5851,N,12402.8837,W,1,09,0.8,16.7,M,-21.8,M,,*6B
2021-08-29T20:14:21.3474409Z, 6cda8203-a249-e411-b0cc-f8bc1246af59, $GPGGA,201420.00,4437.5850,N,12402.8833,W,1,09,0.8,16.7,M,-21.8,M,,*65
2021-08-29T20:14:22.8170293Z, 6cda8203-a249-e411-b0cc-f8bc1246af59, $GPGGA,201421.00,4437.5850,N,12402.8832,W,1,09,0.8,16.7,M,-21.8,M,,*65
2021-08-29T20:14:25.0970486Z, 6cda8203-a249-e411-b0cc-f8bc1246af59, $GPGGA,201423.00,4437.5848,N,12402.8833,W,1,09,0.8,16.6,M,-21.8,M,,*6E
2021-08-29T20:14:26.5677755Z, 6cda8203-a249-e411-b0cc-f8bc1246af59, $GPGGA,201424.00,4437.5847,N,12402.8836,W,1,09,0.8,16.2,M,-21.8,M,,*67
2021-08-29T20:14:27.8471859Z, 6cda8203-a249-e411-b0cc-f8bc1246af59, $GPGGA,201426.00,4437.5845,N,12402.8835,W,1,09,0.8,16.0,M,-21.8,M,,*66
2021-08-29T20:14:29.3276947Z, 6cda8203-a249-e411-b0cc-f8bc1246af59, $GPGGA,201427.00,4437.5844,N,12402.8837,W,1,09,0.8,16.0,M,-21.8,M,,*64
2021-08-29T20:14:30.6071931Z, 6cda8203-a249-e411-b0cc-f8bc1246af59, $GPGGA,201429.00,4437.5843,N,12402.8838,W,1,09,0.8,16.3,M,-21.8,M,,*61
2021-08-29T20:14:32.0778723Z, 6cda8203-a249-e411-b0cc-f8bc1246af59, $GPGGA,201430.00,4437.5844,N,12402.8840,W,1,09,0.8,16.3,M,-21.8,M,,*61
2021-08-29T20:14:33.3682190Z, 6cda8203-a249-e411-b0cc-f8bc1246af59, $GPGGA,201432.00,4437.5844,N,12402.8837,W,1,09,0.8,16.4,M,-21.8,M,,*64
2021-08-29T20:14:34.8378135Z, 6cda8203-a249-e411-b0cc-f8bc1246af59, $GPGGA,201433.00,4437.5844,N,12402.8838,W,1,09,0.8,16.5,M,-21.8,M,,*6B
2021-08-29T20:14:37.0980634Z, 6cda8203-a249-e411-b0cc-f8bc1246af59, $GPGGA,201435.00,4437.5843,N,12402.8837,W,1,09,0.8,16.7,M,-21.8,M,,*67
2021-08-29T20:14:38.5677824Z, 6cda8203-a249-e411-b0cc-f8bc1246af59, $GPGGA,201436.00,4437.5842,N,12402.8835,W,1,09,0.8,16.8,M,-21.8,M,,*68
2021-08-29T20:14:39.8481845Z, 6cda8203-a249-e411-b0cc-f8bc1246af59, $GPGGA,201438.00,4437.5840,N,12402.8834,W,1,09,0.8,17.0,M,-21.8,M,,*6C
2021-08-29T20:14:41.3277060Z, 6cda8203-a249-e411-b0cc-f8bc1246af59, $GPGGA,201439.00,4437.5838,N,12402.8835,W,1,09,0.8,17.0,M,-21.8,M,,*63
2021-08-29T20:14:42.6081374Z, 6cda8203-a249-e411-b0cc-f8bc1246af59, $GPGGA,201441.00,4437.5837,N,12402.8835,W,1,09,0.8,17.1,M,-21.8,M,,*62
2021-08-29T20:14:44.0777201Z, 6cda8203-a249-e411-b0cc-f8bc1246af59, $GPGGA,201442.00,4437.5837,N,12402.8836,W,1,09,0.8,17.1,M,-21.8,M,,*62
2021-08-29T20:14:45.3582533Z, 6cda8203-a249-e411-b0cc-f8bc1246af59, $GPGGA,201444.00,4437.5835,N,12402.8838,W,1,09,0.8,17.0,M,-21.8,M,,*69
2021-08-29T20:14:46.8378014Z, 6cda8203-a249-e411-b0cc-f8bc1246af59, $GPGGA,201445.00,4437.5836,N,12402.8835,W,1,09,0.8,17.0,M,-21.8,M,,*66
2021-08-29T20:14:49.0979168Z, 6cda8203-a249-e411-b0cc-f8bc1246af59, $GPGGA,201447.00,4437.5837,N,12402.8836,W,1,09,0.8,16.9,M,-21.8,M,,*6E
2021-08-29T20:14:50.5681363Z, 6cda8203-a249-e411-b0cc-f8bc1246af59, $GPGGA,201448.00,4437.5839,N,12402.8837,W,1,09,0.8,16.9,M,-21.8,M,,*6E
2021-08-29T20:14:51.8485304Z, 6cda8203-a249-e411-b0cc-f8bc1246af59, $GPGGA,201450.00,4437.5840,N,12402.8838,W,1,09,0.8,16.8,M,-21.8,M,,*67
2021-08-29T20:14:53.3280497Z, 6cda8203-a249-e411-b0cc-f8bc1246af59, $GPGGA,201451.00,4437.5840,N,12402.8840,W,1,09,0.8,16.8,M,-21.8,M,,*69
2021-08-29T20:14:54.6084773Z, 6cda8203-a249-e411-b0cc-f8bc1246af59, $GPGGA,201453.00,4437.5842,N,12402.8844,W,1,09,0.8,17.0,M,-21.8,M,,*64
2021-08-29T20:14:56.0790840Z, 6cda8203-a249-e411-b0cc-f8bc1246af59, $GPGGA,201454.00,4437.5844,N,12402.8842,W,1,09,0.8,17.0,M,-21.8,M,,*63
2021-08-29T20:14:57.3983877Z, 6cda8203-a249-e411-b0cc-f8bc1246af59, $GPGGA,201456.00,4437.5847,N,12402.8841,W,1,09,0.8,17.2,M,-21.8,M,,*63
2021-08-29T20:14:58.8689641Z, 6cda8203-a249-e411-b0cc-f8bc1246af59, $GPGGA,201457.00,4437.5848,N,12402.8841,W,1,09,0.8,17.4,M,-21.8,M,,*6B
2021-08-29T20:15:00.1585845Z, 6cda8203-a249-e411-b0cc-f8bc1246af59, $GPGGA,201459.00,4437.5851,N,12402.8840,W,1,09,0.8,17.6,M,-21.8,M,,*6E
2021-08-29T20:15:01.6392686Z, 6cda8203-a249-e411-b0cc-f8bc1246af59, $GPGGA,201500.00,4437.5852,N,12402.8839,W,1,09,0.8,17.7,M,-21.8,M,,*6F
2021-08-29T20:15:03.0989850Z, 6cda8203-a249-e411-b0cc-f8bc1246af59, $GPGGA,201502.00,4437.5852,N,12402.8840,W,1,09,0.8,17.9,M,-21.8,M,,*6D
2021-08-29T20:15:04.6193864Z, 6cda8203-a249-e411-b0cc-f8bc1246af59, $GPGGA,201503.00,4437.5853,N,12402.8840,W,1,09,0.8,17.9,M,-21.8,M,,*6D
2021-08-29T20:15:06.0988871Z, 6cda8203-a249-e411-b0cc-f8bc1246af59, $GPGGA,201505.00,4437.5849,N,12402.8840,W,1,09,0.8,18.1,M,-21.8,M,,*67
2021-08-29T20:15:07.6192775Z, 6cda8203-a249-e411-b0cc-f8bc1246af59, $GPGGA,201506.00,4437.5849,N,12402.8839,W,1,09,0.8,18.1,M,-21.8,M,,*6A
2021-08-29T20:15:09.0991082Z, 6cda8203-a249-e411-b0cc-f8bc1246af59, $GPGGA,201508.00,4437.5849,N,12402.8842,W,1,09,0.8,18.2,M,-21.8,M,,*6B
2021-08-29T20:15:10.6195453Z, 6cda8203-a249-e411-b0cc-f8bc1246af59, $GPGGA,201509.00,4437.5848,N,12402.8841,W,1,09,0.8,18.3,M,-21.8,M,,*69
2021-08-29T20:15:12.0990615Z, 6cda8203-a249-e411-b0cc-f8bc1246af59, $GPGGA,201511.00,4437.5846,N,12402.8840,W,1,09,0.8,18.3,M,-21.8,M,,*6F
2021-08-29T20:15:13.6194396Z, 6cda8203-a249-e411-b0cc-f8bc1246af59, $GPGGA,201512.00,4437.5846,N,12402.8837,W,1,09,0.8,18.3,M,-21.8,M,,*6C
2021-08-29T20:15:15.0990085Z, 6cda8203-a249-e411-b0cc-f8bc1246af59, $GPGGA,201514.00,4437.5846,N,12402.8835,W,1,09,0.8,18.4,M,-21.8,M,,*6F
2021-08-29T20:15:16.6198701Z, 6cda8203-a249-e411-b0cc-f8bc1246af59, $GPGGA,201515.00,4437.5846,N,12402.8836,W,1,09,0.8,18.4,M,-21.8,M,,*6D
2021-08-29T20:15:18.0993747Z, 6cda8203-a249-e411-b0cc-f8bc1246af59, $GPGGA,201517.00,4437.5849,N,12402.8838,W,1,09,0.8,18.4,M,-21.8,M,,*6E
2021-08-29T20:15:19.6197650Z, 6cda8203-a249-e411-b0cc-f8bc1246af59, $GPGGA,201518.00,4437.5848,N,12402.8838,W,1,09,0.8,18.4,M,-21.8,M,,*60
2021-08-29T20:15:21.0992840Z, 6cda8203-a249-e411-b0cc-f8bc1246af59, $GPGGA,201520.00,4437.5848,N,12402.8841,W,1,09,0.8,18.3,M,-21.8,M,,*62
2021-08-29T20:15:22.6196648Z, 6cda8203-a249-e411-b0cc-f8bc1246af59, $GPGGA,201521.00,4437.5848,N,12402.8842,W,1,09,0.8,18.4,M,-21.8,M,,*67
2021-08-29T20:15:24.1001868Z, 6cda8203-a249-e411-b0cc-f8bc1246af59, $GPGGA,201523.00,4437.5849,N,12402.8842,W,1,09,0.8,18.6,M,-21.8,M,,*66
2021-08-29T20:15:25.6295022Z, 6cda8203-a249-e411-b0cc-f8bc1246af59, $GPGGA,201524.00,4437.5850,N,12402.8843,W,1,09,0.8,18.8,M,-21.8,M,,*66
2021-08-29T20:15:27.1000851Z, 6cda8203-a249-e411-b0cc-f8bc1246af59, $GPGGA,201526.00,4437.5849,N,12402.8845,W,1,09,0.8,18.9,M,-21.8,M,,*6B
2021-08-29T20:15:28.6294021Z, 6cda8203-a249-e411-b0cc-f8bc1246af59, $GPGGA,201527.00,4437.5849,N,12402.8847,W,1,09,0.8,19.0,M,-21.8,M,,*60
2021-08-29T20:15:30.0999808Z, 6cda8203-a249-e411-b0cc-f8bc1246af59, $GPGGA,201529.00,4437.5846,N,12402.8849,W,1,09,0.8,19.1,M,-21.8,M,,*6E
2021-08-29T20:15:31.6203753Z, 6cda8203-a249-e411-b0cc-f8bc1246af59, $GPGGA,201530.00,4437.5846,N,12402.8851,W,1,09,0.8,19.2,M,-21.8,M,,*6C
2021-08-29T20:15:33.0998825Z, 6cda8203-a249-e411-b0cc-f8bc1246af59, $GPGGA,201532.00,4437.5845,N,12402.8855,W,1,09,0.8,19.2,M,-21.8,M,,*69
2021-08-29T20:15:34.6202666Z, 6cda8203-a249-e411-b0cc-f8bc1246af59, $GPGGA,201533.00,4437.5845,N,12402.8855,W,1,09,0.8,19.3,M,-21.8,M,,*69
2021-08-29T20:15:36.0997857Z, 6cda8203-a249-e411-b0cc-f8bc1246af59, $GPGGA,201535.00,4437.5842,N,12402.8855,W,1,09,0.8,19.3,M,-21.8,M,,*68
2021-08-29T20:15:37.6201629Z, 6cda8203-a249-e411-b0cc-f8bc1246af59, $GPGGA,201536.00,4437.5841,N,12402.8856,W,1,09,0.8,19.5,M,-21.8,M,,*6D
2021-08-29T20:15:39.0907778Z, 6cda8203-a249-e411-b0cc-f8bc1246af59, $GPGGA,201538.00,4437.5841,N,12402.8855,W,1,09,0.8,19.6,M,-21.8,M,,*63
2021-08-29T20:15:40.6200820Z, 6cda8203-a249-e411-b0cc-f8bc1246af59, $GPGGA,201539.00,4437.5843,N,12402.8854,W,1,09,0.8,19.5,M,-21.8,M,,*62
2021-08-29T20:15:42.1005814Z, 6cda8203-a249-e411-b0cc-f8bc1246af59, $GPGGA,201541.00,4437.5843,N,12402.8855,W,1,09,0.8,19.5,M,-21.8,M,,*6C
2021-08-29T20:15:43.6300132Z, 6cda8203-a249-e411-b0cc-f8bc1246af59, $GPGGA,201542.00,4437.5845,N,12402.8856,W,1,09,0.8,19.4,M,-21.8,M,,*6B
2021-08-29T20:15:45.1007439Z, 6cda8203-a249-e411-b0cc-f8bc1246af59, $GPGGA,201544.00,4437.5846,N,12402.8858,W,1,09,0.8,19.5,M,-21.8,M,,*61
2021-08-29T20:15:46.6300679Z, 6cda8203-a249-e411-b0cc-f8bc1246af59, $GPGGA,201545.00,4437.5846,N,12402.8858,W,1,09,0.8,19.5,M,-21.8,M,,*60
2021-08-29T20:15:48.1007110Z, 6cda8203-a249-e411-b0cc-f8bc1246af59, $GPGGA,201547.00,4437.5847,N,12402.8856,W,1,09,0.8,19.4,M,-21.8,M,,*6C
2021-08-29T20:15:49.6211075Z, 6cda8203-a249-e411-b0cc-f8bc1246af59, $GPGGA,201548.00,4437.5849,N,12402.8856,W,1,09,0.8,19.4,M,-21.8,M,,*6D
2021-08-29T20:15:51.1006135Z, 6cda8203-a249-e411-b0cc-f8bc1246af59, $GPGGA,201550.00,4437.5848,N,12402.8857,W,1,09,0.8,19.2,M,-21.8,M,,*62
2021-08-29T20:15:52.6210116Z, 6cda8203-a249-e411-b0cc-f8bc1246af59, $GPGGA,201551.00,4437.5847,N,12402.8859,W,1,09,0.8,19.1,M,-21.8,M,,*61
2021-08-29T20:15:54.1005626Z, 6cda8203-a249-e411-b0cc-f8bc1246af59, $GPGGA,201553.00,4437.5853,N,12402.8867,W,1,09,0.8,18.9,M,-21.8,M,,*62
2021-08-29T20:15:55.6209416Z, 6cda8203-a249-e411-b0cc-f8bc1246af59, $GPGGA,201554.00,4437.5853,N,12402.8865,W,1,09,0.8,18.8,M,-21.8,M,,*66
2021-08-29T20:15:57.1014652Z, 6cda8203-a249-e411-b0cc-f8bc1246af59, $GPGGA,201556.00,4437.5855,N,12402.8865,W,1,09,0.8,18.7,M,-21.8,M,,*6D
2021-08-29T20:15:58.6208450Z, 6cda8203-a249-e411-b0cc-f8bc1246af59, $GPGGA,201557.00,4437.5856,N,12402.8867,W,1,09,0.8,18.7,M,-21.8,M,,*6D
2021-08-29T20:16:00.0914297Z, 6cda8203-a249-e411-b0cc-f8bc1246af59, $GPGGA,201559.00,4437.5858,N,12402.8869,W,1,09,0.8,18.5,M,-21.8,M,,*61
2021-08-29T20:16:01.6207529Z, 6cda8203-a249-e411-b0cc-f8bc1246af59, $GPGGA,201600.00,4437.5858,N,12402.8867,W,1,09,0.8,18.5,M,-21.8,M,,*60
2021-08-29T20:16:03.0915230Z, 6cda8203-a249-e411-b0cc-f8bc1246af59, $GPGGA,201602.00,4437.5858,N,12402.8865,W,1,09,0.8,18.5,M,-21.8,M,,*60
2021-08-29T20:16:04.6209309Z, 6cda8203-a249-e411-b0cc-f8bc1246af59, $GPGGA,201603.00,4437.5857,N,12402.8862,W,1,09,0.8,18.5,M,-21.8,M,,*69
2021-08-29T20:16:06.1014375Z, 6cda8203-a249-e411-b0cc-f8bc1246af59, $GPGGA,201605.00,4437.5855,N,12402.8856,W,1,09,0.8,18.3,M,-21.8,M,,*6C
2021-08-29T20:16:07.6218910Z, 6cda8203-a249-e411-b0cc-f8bc1246af59, $GPGGA,201606.00,4437.5856,N,12402.8856,W,1,09,0.8,18.2,M,-21.8,M,,*6D
2021-08-29T20:16:09.1013996Z, 6cda8203-a249-e411-b0cc-f8bc1246af59, $GPGGA,201608.00,4437.5855,N,12402.8850,W,1,09,0.8,18.3,M,-21.8,M,,*67
2021-08-29T20:16:10.6217858Z, 6cda8203-a249-e411-b0cc-f8bc1246af59, $GPGGA,201609.00,4437.5855,N,12402.8847,W,1,09,0.8,18.3,M,-21.8,M,,*60
2021-08-29T20:16:12.1014197Z, 6cda8203-a249-e411-b0cc-f8bc1246af59, $GPGGA,201611.00,4437.5854,N,12402.8843,W,1,09,0.8,18.3,M,-21.8,M,,*6C
2021-08-29T20:16:13.6218506Z, 6cda8203-a249-e411-b0cc-f8bc1246af59, $GPGGA,201612.00,4437.5853,N,12402.8840,W,1,09,0.8,18.3,M,-21.8,M,,*6B
2021-08-29T20:16:15.1013660Z, 6cda8203-a249-e411-b0cc-f8bc1246af59, $GPGGA,201614.00,4437.5853,N,12402.8839,W,1,09,0.8,18.1,M,-21.8,M,,*61
2021-08-29T20:16:16.6217454Z, 6cda8203-a249-e411-b0cc-f8bc1246af59, $GPGGA,201615.00,4437.5852,N,12402.8839,W,1,09,0.8,17.9,M,-21.8,M,,*66
2021-08-29T20:16:18.1022757Z, 6cda8203-a249-e411-b0cc-f8bc1246af59, $GPGGA,201617.00,4437.5849,N,12402.8837,W,1,09,0.8,17.8,M,-21.8,M,,*61
2021-08-29T20:16:19.5420005Z, 6cda8203-a249-e411-b0cc-f8bc1246af59, $GPGGA,201618.00,4437.5849,N,12402.8837,W,1,09,0.8,17.8,M,-21.8,M,,*6E
2021-08-29T20:16:20.6621261Z, 6cda8203-a249-e411-b0cc-f8bc1246af59, $GPGGA,201619.00,4437.5850,N,12402.8836,W,1,09,0.8,17.7,M,-21.8,M,,*69
2021-08-29T20:16:21.6916212Z, 6cda8203-a249-e411-b0cc-f8bc1246af59, $GPGGA,201620.00,4437.5851,N,12402.8838,W,1,09,0.8,17.6,M,-21.8,M,,*6D
2021-08-29T20:16:23.0715978Z, 6cda8203-a249-e411-b0cc-f8bc1246af59, $GPGGA,201621.00,4437.5851,N,12402.8837,W,1,09,0.8,17.5,M,-21.8,M,,*60
2021-08-29T20:16:23.5624615Z, 6cda8203-a249-e411-b0cc-f8bc1246af59, $GPGGA,201622.00,4437.5850,N,12402.8836,W,1,09,0.8,17.5,M,-21.8,M,,*63
2021-08-29T20:16:25.0320280Z, 6cda8203-a249-e411-b0cc-f8bc1246af59, $GPGGA,201623.00,4437.5851,N,12402.8833,W,1,09,0.8,17.4,M,-21.8,M,,*67
2021-08-29T20:16:26.3223752Z, 6cda8203-a249-e411-b0cc-f8bc1246af59, $GPGGA,201625.00,4437.5850,N,12402.8831,W,1,09,0.8,17.3,M,-21.8,M,,*65
2021-08-29T20:16:27.7921795Z, 6cda8203-a249-e411-b0cc-f8bc1246af59, $GPGGA,201626.00,4437.5850,N,12402.8832,W,1,09,0.8,17.1,M,-21.8,M,,*67
2021-08-29T20:16:29.0926634Z, 6cda8203-a249-e411-b0cc-f8bc1246af59, $GPGGA,201628.00,4437.5850,N,12402.8829,W,1,09,0.8,16.9,M,-21.8,M,,*6A
2021-08-29T20:16:30.6219693Z, 6cda8203-a249-e411-b0cc-f8bc1246af59, $GPGGA,201629.00,4437.5852,N,12402.8829,W,1,09,0.8,16.7,M,-21.8,M,,*67
2021-08-29T20:16:32.0925531Z, 6cda8203-a249-e411-b0cc-f8bc1246af59, $GPGGA,201631.00,4437.5852,N,12402.8829,W,1,09,0.8,16.6,M,-21.8,M,,*6F
2021-08-29T20:16:33.6228682Z, 6cda8203-a249-e411-b0cc-f8bc1246af59, $GPGGA,201632.00,4437.5852,N,12402.8828,W,1,09,0.8,16.7,M,-21.8,M,,*6C
2021-08-29T20:16:35.0924411Z, 6cda8203-a249-e411-b0cc-f8bc1246af59, $GPGGA,201634.00,4437.5851,N,12402.8827,W,1,09,0.8,16.9,M,-21.8,M,,*68
2021-08-29T20:16:36.6227670Z, 6cda8203-a249-e411-b0cc-f8bc1246af59, $GPGGA,201635.00,4437.5852,N,12402.8826,W,1,09,0.8,16.9,M,-21.8,M,,*6B
2021-08-29T20:16:38.0927625Z, 6cda8203-a249-e411-b0cc-f8bc1246af59, $GPGGA,201637.00,4437.5850,N,12402.8834,W,1,09,0.8,16.8,M,-21.8,M,,*69
2021-08-29T20:16:39.6230743Z, 6cda8203-a249-e411-b0cc-f8bc1246af59, $GPGGA,201638.00,4437.5851,N,12402.8836,W,1,09,0.8,16.9,M,-21.8,M,,*64
2021-08-29T20:16:41.0926535Z, 6cda8203-a249-e411-b0cc-f8bc1246af59, $GPGGA,201640.00,4437.5851,N,12402.8837,W,1,09,0.8,16.7,M,-21.8,M,,*64
2021-08-29T20:16:42.6229798Z, 6cda8203-a249-e411-b0cc-f8bc1246af59, $GPGGA,201641.00,4437.5850,N,12402.8838,W,1,09,0.8,16.7,M,-21.8,M,,*6B
2021-08-29T20:16:44.1024958Z, 6cda8203-a249-e411-b0cc-f8bc1246af59, $GPGGA,201643.00,4437.5850,N,12402.8840,W,1,09,0.8,16.6,M,-21.8,M,,*67
2021-08-29T20:16:45.6228831Z, 6cda8203-a249-e411-b0cc-f8bc1246af59, $GPGGA,201644.00,4437.5850,N,12402.8839,W,1,09,0.8,16.6,M,-21.8,M,,*6E
2021-08-29T20:16:47.1023959Z, 6cda8203-a249-e411-b0cc-f8bc1246af59, $GPGGA,201646.00,4437.5845,N,12402.8842,W,1,09,0.8,16.3,M,-21.8,M,,*61
2021-08-29T20:16:48.6227965Z, 6cda8203-a249-e411-b0cc-f8bc1246af59, $GPGGA,201647.00,4437.5846,N,12402.8843,W,1,09,0.8,16.3,M,-21.8,M,,*62
2021-08-29T20:16:50.0933603Z, 6cda8203-a249-e411-b0cc-f8bc1246af59, $GPGGA,201649.00,4437.5846,N,12402.8844,W,1,09,0.8,16.2,M,-21.8,M,,*6A
2021-08-29T20:16:51.6226997Z, 6cda8203-a249-e411-b0cc-f8bc1246af59, $GPGGA,201650.00,4437.5845,N,12402.8851,W,1,09,0.8,16.2,M,-21.8,M,,*65
2021-08-29T20:16:53.0932664Z, 6cda8203-a249-e411-b0cc-f8bc1246af59, $GPGGA,201652.00,4437.5841,N,12402.8852,W,1,09,0.8,16.2,M,-21.8,M,,*60
2021-08-29T20:16:54.6236622Z, 6cda8203-a249-e411-b0cc-f8bc1246af59, $GPGGA,201653.00,4437.5842,N,12402.8851,W,1,09,0.8,16.2,M,-21.8,M,,*61
2021-08-29T20:16:56.0932390Z, 6cda8203-a249-e411-b0cc-f8bc1246af59, $GPGGA,201655.00,4437.5842,N,12402.8854,W,1,09,0.8,16.1,M,-21.8,M,,*61
2021-08-29T20:16:57.6236367Z, 6cda8203-a249-e411-b0cc-f8bc1246af59, $GPGGA,201656.00,4437.5842,N,12402.8853,W,1,09,0.8,16.1,M,-21.8,M,,*65
2021-08-29T20:16:59.0932138Z, 6cda8203-a249-e411-b0cc-f8bc1246af59, $GPGGA,201658.00,4437.5842,N,12402.8855,W,1,09,0.8,16.2,M,-21.8,M,,*6E
2021-08-29T20:17:00.6236795Z, 6cda8203-a249-e411-b0cc-f8bc1246af59, $GPGGA,201659.00,4437.5842,N,12402.8855,W,1,09,0.8,16.2,M,-21.8,M,,*6F
2021-08-29T20:17:02.0934081Z, 6cda8203-a249-e411-b0cc-f8bc1246af59, $GPGGA,201701.00,4437.5843,N,12402.8854,W,1,09,0.8,16.3,M,-21.8,M,,*62
2021-08-29T20:17:03.6238475Z, 6cda8203-a249-e411-b0cc-f8bc1246af59, $GPGGA,201702.00,4437.5845,N,12402.8852,W,1,09,0.8,16.3,M,-21.8,M,,*61
2021-08-29T20:17:05.0934298Z, 6cda8203-a249-e411-b0cc-f8bc1246af59, $GPGGA,201704.00,4437.5844,N,12402.8854,W,1,09,0.8,16.2,M,-21.8,M,,*61
2021-08-29T20:17:06.6237461Z, 6cda8203-a249-e411-b0cc-f8bc1246af59, $GPGGA,201705.00,4437.5844,N,12402.8855,W,1,09,0.8,16.1,M,-21.8,M,,*62
2021-08-29T20:17:08.0933304Z, 6cda8203-a249-e411-b0cc-f8bc1246af59, $GPGGA,201707.00,4437.5845,N,12402.8855,W,1,09,0.8,15.8,M,-21.8,M,,*6B
2021-08-29T20:17:09.6236566Z, 6cda8203-a249-e411-b0cc-f8bc1246af59, $GPGGA,201708.00,4437.5845,N,12402.8855,W,1,09,0.8,15.8,M,-21.8,M,,*64
2021-08-29T20:17:11.0937084Z, 6cda8203-a249-e411-b0cc-f8bc1246af59, $GPGGA,201710.00,4437.5845,N,12402.8851,W,1,09,0.8,15.8,M,-21.8,M,,*69
2021-08-29T20:17:12.6240240Z, 6cda8203-a249-e411-b0cc-f8bc1246af59, $GPGGA,201711.00,4437.5844,N,12402.8850,W,1,09,0.8,15.8,M,-21.8,M,,*68
2021-08-29T20:17:14.0936132Z, 6cda8203-a249-e411-b0cc-f8bc1246af59, $GPGGA,201713.00,4437.5848,N,12402.8848,W,1,09,0.8,15.8,M,-21.8,M,,*6F
2021-08-29T20:17:15.6239227Z, 6cda8203-a249-e411-b0cc-f8bc1246af59, $GPGGA,201714.00,4437.5850,N,12402.8847,W,1,09,0.8,15.8,M,-21.8,M,,*6E
2021-08-29T20:17:17.0945300Z, 6cda8203-a249-e411-b0cc-f8bc1246af59, $GPGGA,201716.00,4437.5853,N,12402.8842,W,1,09,0.8,15.9,M,-21.8,M,,*6B
2021-08-29T20:17:18.6238312Z, 6cda8203-a249-e411-b0cc-f8bc1246af59, $GPGGA,201717.00,4437.5853,N,12402.8841,W,1,09,0.8,16.0,M,-21.8,M,,*63
2021-08-29T20:17:20.0944060Z, 6cda8203-a249-e411-b0cc-f8bc1246af59, $GPGGA,201719.00,4437.5856,N,12402.8839,W,1,09,0.8,16.0,M,-21.8,M,,*67
2021-08-29T20:17:21.6247283Z, 6cda8203-a249-e411-b0cc-f8bc1246af59, $GPGGA,201720.00,4437.5857,N,12402.8839,W,1,09,0.8,16.0,M,-21.8,M,,*6C
2021-08-29T20:17:23.0943066Z, 6cda8203-a249-e411-b0cc-f8bc1246af59, $GPGGA,201722.00,4437.5856,N,12402.8835,W,1,09,0.8,15.9,M,-21.8,M,,*69
2021-08-29T20:17:24.6247578Z, 6cda8203-a249-e411-b0cc-f8bc1246af59, $GPGGA,201723.00,4437.5855,N,12402.8833,W,1,09,0.8,15.9,M,-21.8,M,,*6D
2021-08-29T20:17:26.0943250Z, 6cda8203-a249-e411-b0cc-f8bc1246af59, $GPGGA,201725.00,4437.5854,N,12402.8829,W,1,09,0.8,15.9,M,-21.8,M,,*61
2021-08-29T20:17:27.6246460Z, 6cda8203-a249-e411-b0cc-f8bc1246af59, $GPGGA,201726.00,4437.5854,N,12402.8829,W,1,09,0.8,16.0,M,-21.8,M,,*68
2021-08-29T20:17:29.0942326Z, 6cda8203-a249-e411-b0cc-f8bc1246af59, $GPGGA,201728.00,4437.5854,N,12402.8828,W,1,09,0.8,16.0,M,-21.8,M,,*67
2021-08-29T20:17:30.6247755Z, 6cda8203-a249-e411-b0cc-f8bc1246af59, $GPGGA,201729.00,4437.5853,N,12402.8829,W,1,09,0.8,16.0,M,-21.8,M,,*60
2021-08-29T20:17:32.0943667Z, 6cda8203-a249-e411-b0cc-f8bc1246af59, $GPGGA,201731.00,4437.5852,N,12402.8830,W,1,09,0.8,16.1,M,-21.8,M,,*61
2021-08-29T20:17:33.6246777Z, 6cda8203-a249-e411-b0cc-f8bc1246af59, $GPGGA,201732.00,4437.5851,N,12402.8830,W,1,09,0.8,16.1,M,-21.8,M,,*61
2021-08-29T20:17:35.0943351Z, 6cda8203-a249-e411-b0cc-f8bc1246af59, $GPGGA,201734.00,4437.5854,N,12402.8830,W,1,09,0.8,16.2,M,-21.8,M,,*61
2021-08-29T20:17:36.6248414Z, 6cda8203-a249-e411-b0cc-f8bc1246af59, $GPGGA,201735.00,4437.5854,N,12402.8830,W,1,09,0.8,16.2,M,-21.8,M,,*60
2021-08-29T20:17:38.0946057Z, 6cda8203-a249-e411-b0cc-f8bc1246af59, $GPGGA,201737.00,4437.5854,N,12402.8828,W,1,09,0.8,16.2,M,-21.8,M,,*6B
2021-08-29T20:17:39.6250133Z, 6cda8203-a249-e411-b0cc-f8bc1246af59, $GPGGA,201738.00,4437.5853,N,12402.8829,W,1,09,0.8,16.2,M,-21.8,M,,*62
2021-08-29T20:17:41.0946020Z, 6cda8203-a249-e411-b0cc-f8bc1246af59, $GPGGA,201740.00,4437.5851,N,12402.8829,W,1,09,0.8,16.2,M,-21.8,M,,*6F
2021-08-29T20:17:42.6249181Z, 6cda8203-a249-e411-b0cc-f8bc1246af59, $GPGGA,201741.00,4437.5850,N,12402.8831,W,1,09,0.8,16.2,M,-21.8,M,,*66
2021-08-29T20:17:44.0955163Z, 6cda8203-a249-e411-b0cc-f8bc1246af59, $GPGGA,201743.00,4437.5849,N,12402.8836,W,1,09,0.8,16.3,M,-21.8,M,,*6A
2021-08-29T20:17:45.6248183Z, 6cda8203-a249-e411-b0cc-f8bc1246af59, $GPGGA,201744.00,4437.5849,N,12402.8836,W,1,09,0.8,16.3,M,-21.8,M,,*6D
2021-08-29T20:17:47.0953936Z, 6cda8203-a249-e411-b0cc-f8bc1246af59, $GPGGA,201746.00,4437.5848,N,12402.8839,W,1,09,0.8,16.3,M,-21.8,M,,*61
2021-08-29T20:17:48.6257214Z, 6cda8203-a249-e411-b0cc-f8bc1246af59, $GPGGA,201747.00,4437.5849,N,12402.8840,W,1,09,0.8,16.2,M,-21.8,M,,*6E
2021-08-29T20:17:50.0952977Z, 6cda8203-a249-e411-b0cc-f8bc1246af59, $GPGGA,201749.00,4437.5847,N,12402.8841,W,1,09,0.8,16.2,M,-21.8,M,,*6F
2021-08-29T20:17:51.6256174Z, 6cda8203-a249-e411-b0cc-f8bc1246af59, $GPGGA,201750.00,4437.5847,N,12402.8843,W,1,09,0.8,16.2,M,-21.8,M,,*65
2021-08-29T20:17:53.0952132Z, 6cda8203-a249-e411-b0cc-f8bc1246af59, $GPGGA,201752.00,4437.5847,N,12402.8838,W,1,09,0.8,15.8,M,-21.8,M,,*62
2021-08-29T20:17:54.6255077Z, 6cda8203-a249-e411-b0cc-f8bc1246af59, $GPGGA,201753.00,4437.5847,N,12402.8836,W,1,09,0.8,15.7,M,-21.8,M,,*62
2021-08-29T20:17:56.0951077Z, 6cda8203-a249-e411-b0cc-f8bc1246af59, $GPGGA,201755.00,4437.5846,N,12402.8834,W,1,09,0.8,15.7,M,-21.8,M,,*67
2021-08-29T20:17:57.6254151Z, 6cda8203-a249-e411-b0cc-f8bc1246af59, $GPGGA,201756.00,4437.5845,N,12402.8835,W,1,09,0.8,15.7,M,-21.8,M,,*66
2021-08-29T20:17:59.0959963Z, 6cda8203-a249-e411-b0cc-f8bc1246af59, $GPGGA,201758.00,4437.5845,N,12402.8833,W,1,09,0.8,15.4,M,-21.8,M,,*6D
2021-08-29T20:18:00.6238171Z, 6cda8203-a249-e411-b0cc-f8bc1246af59, $GPGGA,201759.00,4437.5845,N,12402.8830,W,1,09,0.8,15.2,M,-21.8,M,,*69
2021-08-29T20:18:02.0833703Z, 6cda8203-a249-e411-b0cc-f8bc1246af59, $GPGGA,201801.00,4437.5845,N,12402.8832,W,1,09,0.8,15.1,M,-21.8,M,,*6A
2021-08-29T20:18:03.6104396Z, 6cda8203-a249-e411-b0cc-f8bc1246af59, $GPGGA,201802.00,4437.5848,N,12402.8832,W,1,09,0.8,15.1,M,-21.8,M,,*64
2021-08-29T20:18:05.0810239Z, 6cda8203-a249-e411-b0cc-f8bc1246af59, $GPGGA,201804.00,4437.5850,N,12402.8831,W,1,09,0.8,15.2,M,-21.8,M,,*6B
2021-08-29T20:18:06.6113414Z, 6cda8203-a249-e411-b0cc-f8bc1246af59, $GPGGA,201805.00,4437.5852,N,12402.8830,W,1,09,0.8,15.1,M,-21.8,M,,*6A
2021-08-29T20:18:08.0809278Z, 6cda8203-a249-e411-b0cc-f8bc1246af59, $GPGGA,201807.00,4437.5849,N,12402.8834,W,1,09,0.8,15.0,M,-21.8,M,,*67
2021-08-29T20:18:09.6112376Z, 6cda8203-a249-e411-b0cc-f8bc1246af59, $GPGGA,201808.00,4437.5849,N,12402.8837,W,1,09,0.8,15.0,M,-21.8,M,,*6B
2021-08-29T20:18:11.0842050Z, 6cda8203-a249-e411-b0cc-f8bc1246af59, $GPGGA,201810.00,4437.5851,N,12402.8838,W,1,09,0.8,15.1,M,-21.8,M,,*65
2021-08-29T20:18:12.6112764Z, 6cda8203-a249-e411-b0cc-f8bc1246af59, $GPGGA,201811.00,4437.5849,N,12402.8837,W,1,09,0.8,15.1,M,-21.8,M,,*62
2021-08-29T20:18:14.0808897Z, 6cda8203-a249-e411-b0cc-f8bc1246af59, $GPGGA,201813.00,4437.5849,N,12402.8844,W,1,09,0.8,15.3,M,-21.8,M,,*66
2021-08-29T20:18:15.6112439Z, 6cda8203-a249-e411-b0cc-f8bc1246af59, $GPGGA,201814.00,4437.5848,N,12402.8843,W,1,09,0.8,15.3,M,-21.8,M,,*67
2021-08-29T20:18:17.0818384Z, 6cda8203-a249-e411-b0cc-f8bc1246af59, $GPGGA,201816.00,4437.5849,N,12402.8846,W,1,09,0.8,15.2,M,-21.8,M,,*60
2021-08-29T20:18:18.6112664Z, 6cda8203-a249-e411-b0cc-f8bc1246af59, $GPGGA,201817.00,4437.5850,N,12402.8846,W,1,09,0.8,15.2,M,-21.8,M,,*69
2021-08-29T20:18:20.0818730Z, 6cda8203-a249-e411-b0cc-f8bc1246af59, $GPGGA,201819.00,4437.5850,N,12402.8838,W,1,09,0.8,15.3,M,-21.8,M,,*6F
2021-08-29T20:18:21.6111688Z, 6cda8203-a249-e411-b0cc-f8bc1246af59, $GPGGA,201820.00,4437.5851,N,12402.8838,W,1,09,0.8,15.3,M,-21.8,M,,*64
2021-08-29T20:18:23.0916737Z, 6cda8203-a249-e411-b0cc-f8bc1246af59, $GPGGA,201822.00,4437.5852,N,12402.8838,W,1,09,0.8,15.4,M,-21.8,M,,*62
2021-08-29T20:18:24.5315515Z, 6cda8203-a249-e411-b0cc-f8bc1246af59, $GPGGA,201823.00,4437.5852,N,12402.8839,W,1,09,0.8,15.3,M,-21.8,M,,*65
2021-08-29T20:18:25.6516631Z, 6cda8203-a249-e411-b0cc-f8bc1246af59, $GPGGA,201824.00,4437.5853,N,12402.8840,W,1,09,0.8,15.3,M,-21.8,M,,*6D
2021-08-29T20:18:26.6821754Z, 6cda8203-a249-e411-b0cc-f8bc1246af59, $GPGGA,201825.00,4437.5855,N,12402.8840,W,1,09,0.8,15.3,M,-21.8,M,,*6A
2021-08-29T20:18:27.5613444Z, 6cda8203-a249-e411-b0cc-f8bc1246af59, $GPGGA,201826.00,4437.5856,N,12402.8838,W,1,09,0.8,15.4,M,-21.8,M,,*62
2021-08-29T20:18:28.6913972Z, 6cda8203-a249-e411-b0cc-f8bc1246af59, $GPGGA,201827.00,4437.5854,N,12402.8838,W,1,09,0.8,15.4,M,-21.8,M,,*61
2021-08-29T20:18:30.0215981Z, 6cda8203-a249-e411-b0cc-f8bc1246af59, $GPGGA,201828.00,4437.5853,N,12402.8838,W,1,09,0.8,15.4,M,-21.8,M,,*69
2021-08-29T20:18:31.4423627Z, 6cda8203-a249-e411-b0cc-f8bc1246af59, $GPGGA,201830.00,4437.5851,N,12402.8836,W,1,09,0.8,15.4,M,-21.8,M,,*6C
2021-08-29T20:18:32.7817972Z, 6cda8203-a249-e411-b0cc-f8bc1246af59, $GPGGA,201831.00,4437.5852,N,12402.8836,W,1,09,0.8,15.4,M,-21.8,M,,*6E
2021-08-29T20:18:34.2224920Z, 6cda8203-a249-e411-b0cc-f8bc1246af59, $GPGGA,201833.00,4437.5850,N,12402.8840,W,1,09,0.8,15.5,M,-21.8,M,,*6E
2021-08-29T20:18:35.6124489Z, 6cda8203-a249-e411-b0cc-f8bc1246af59, $GPGGA,201834.00,4437.5849,N,12402.8839,W,1,09,0.8,15.5,M,-21.8,M,,*6F
2021-08-29T20:18:37.2125138Z, 6cda8203-a249-e411-b0cc-f8bc1246af59, $GPGGA,201836.00,4437.5851,N,12402.8838,W,1,09,0.8,15.8,M,-21.8,M,,*68
2021-08-29T20:18:38.6123822Z, 6cda8203-a249-e411-b0cc-f8bc1246af59, $GPGGA,201837.00,4437.5852,N,12402.8837,W,1,09,0.8,15.9,M,-21.8,M,,*64
2021-08-29T20:18:40.2123862Z, 6cda8203-a249-e411-b0cc-f8bc1246af59, $GPGGA,201839.00,4437.5852,N,12402.8836,W,1,09,0.8,16.0,M,-21.8,M,,*61
2021-08-29T20:18:41.6122880Z, 6cda8203-a249-e411-b0cc-f8bc1246af59, $GPGGA,201840.00,4437.5852,N,12402.8838,W,1,09,0.8,16.3,M,-21.8,M,,*62
2021-08-29T20:18:43.2122890Z, 6cda8203-a249-e411-b0cc-f8bc1246af59, $GPGGA,201842.00,4437.5853,N,12402.8841,W,1,09,0.8,16.3,M,-21.8,M,,*6F
2021-08-29T20:18:44.6122199Z, 6cda8203-a249-e411-b0cc-f8bc1246af59, $GPGGA,201843.00,4437.5855,N,12402.8843,W,1,09,0.8,16.2,M,-21.8,M,,*6B
2021-08-29T20:18:46.1826794Z, 6cda8203-a249-e411-b0cc-f8bc1246af59, $GPGGA,201845.00,4437.5853,N,12402.8841,W,1,09,0.8,16.6,M,-21.8,M,,*6D
2021-08-29T20:18:47.6122125Z, 6cda8203-a249-e411-b0cc-f8bc1246af59, $GPGGA,201846.00,4437.5851,N,12402.8839,W,1,09,0.8,16.5,M,-21.8,M,,*60
2021-08-29T20:18:49.2221440Z, 6cda8203-a249-e411-b0cc-f8bc1246af59, $GPGGA,201848.00,4437.5850,N,12402.8840,W,1,09,0.8,16.5,M,-21.8,M,,*61
2021-08-29T20:18:50.6121410Z, 6cda8203-a249-e411-b0cc-f8bc1246af59, $GPGGA,201849.00,4437.5849,N,12402.8841,W,1,09,0.8,16.5,M,-21.8,M,,*69
2021-08-29T20:18:52.2131776Z, 6cda8203-a249-e411-b0cc-f8bc1246af59, $GPGGA,201851.00,4437.5849,N,12402.8837,W,1,09,0.8,16.5,M,-21.8,M,,*61
2021-08-29T20:18:53.6130399Z, 6cda8203-a249-e411-b0cc-f8bc1246af59, $GPGGA,201852.00,4437.5850,N,12402.8835,W,1,09,0.8,16.5,M,-21.8,M,,*68
2021-08-29T20:18:55.2130567Z, 6cda8203-a249-e411-b0cc-f8bc1246af59, $GPGGA,201854.00,4437.5849,N,12402.8831,W,1,09,0.8,16.4,M,-21.8,M,,*63
2021-08-29T20:18:56.6129402Z, 6cda8203-a249-e411-b0cc-f8bc1246af59, $GPGGA,201855.00,4437.5848,N,12402.8829,W,1,09,0.8,16.3,M,-21.8,M,,*6D
2021-08-29T20:18:58.2129513Z, 6cda8203-a249-e411-b0cc-f8bc1246af59, $GPGGA,201857.00,4437.5845,N,12402.8827,W,1,09,0.8,16.1,M,-21.8,M,,*6E
2021-08-29T20:18:59.6128461Z, 6cda8203-a249-e411-b0cc-f8bc1246af59, $GPGGA,201858.00,4437.5844,N,12402.8826,W,1,09,0.8,16.1,M,-21.8,M,,*61
2021-08-29T20:19:01.2128749Z, 6cda8203-a249-e411-b0cc-f8bc1246af59, $GPGGA,201900.00,4437.5842,N,12402.8826,W,1,09,0.8,16.1,M,-21.8,M,,*6B
2021-08-29T20:19:02.6127429Z, 6cda8203-a249-e411-b0cc-f8bc1246af59, $GPGGA,201901.00,4437.5842,N,12402.8825,W,1,09,0.8,16.0,M,-21.8,M,,*68
2021-08-29T20:19:04.2226919Z, 6cda8203-a249-e411-b0cc-f8bc1246af59, $GPGGA,201903.00,4437.5842,N,12402.8822,W,1,09,0.8,16.0,M,-21.8,M,,*6D
2021-08-29T20:19:05.6136820Z, 6cda8203-a249-e411-b0cc-f8bc1246af59, $GPGGA,201904.00,4437.5840,N,12402.8821,W,1,09,0.8,15.9,M,-21.8,M,,*61
2021-08-29T20:19:07.1829728Z, 6cda8203-a249-e411-b0cc-f8bc1246af59, $GPGGA,201906.00,4437.5837,N,12402.8822,W,1,09,0.8,15.8,M,-21.8,M,,*61
2021-08-29T20:19:08.6137235Z, 6cda8203-a249-e411-b0cc-f8bc1246af59, $GPGGA,201907.00,4437.5835,N,12402.8822,W,1,09,0.8,15.7,M,-21.8,M,,*6D
2021-08-29T20:19:10.2137369Z, 6cda8203-a249-e411-b0cc-f8bc1246af59, $GPGGA,201909.00,4437.5833,N,12402.8819,W,1,09,0.8,15.5,M,-21.8,M,,*6F
2021-08-29T20:19:11.6136220Z, 6cda8203-a249-e411-b0cc-f8bc1246af59, $GPGGA,201910.00,4437.5834,N,12402.8819,W,1,09,0.8,15.5,M,-21.8,M,,*60
2021-08-29T20:19:13.2136418Z, 6cda8203-a249-e411-b0cc-f8bc1246af59, $GPGGA,201912.00,4437.5837,N,12402.8812,W,1,09,0.8,15.4,M,-21.8,M,,*6B
2021-08-29T20:19:14.6135128Z, 6cda8203-a249-e411-b0cc-f8bc1246af59, $GPGGA,201913.00,4437.5835,N,12402.8810,W,1,09,0.8,15.4,M,-21.8,M,,*6A
2021-08-29T20:19:16.2137432Z, 6cda8203-a249-e411-b0cc-f8bc1246af59, $GPGGA,201915.00,4437.5834,N,12402.8811,W,1,09,0.8,15.4,M,-21.8,M,,*6C
2021-08-29T20:19:17.6136312Z, 6cda8203-a249-e411-b0cc-f8bc1246af59, $GPGGA,201916.00,4437.5834,N,12402.8812,W,1,09,0.8,15.4,M,-21.8,M,,*6C
2021-08-29T20:19:19.2136443Z, 6cda8203-a249-e411-b0cc-f8bc1246af59, $GPGGA,201918.00,4437.5832,N,12402.8815,W,1,09,0.8,15.4,M,-21.8,M,,*63
2021-08-29T20:19:20.6135254Z, 6cda8203-a249-e411-b0cc-f8bc1246af59, $GPGGA,201919.00,4437.5831,N,12402.8816,W,1,09,0.8,15.5,M,-21.8,M,,*63
2021-08-29T20:19:22.2135501Z, 6cda8203-a249-e411-b0cc-f8bc1246af59, $GPGGA,201921.00,4437.5831,N,12402.8817,W,1,09,0.8,15.3,M,-21.8,M,,*6F
2021-08-29T20:19:23.6134404Z, 6cda8203-a249-e411-b0cc-f8bc1246af59, $GPGGA,201922.00,4437.5831,N,12402.8816,W,1,09,0.8,15.3,M,-21.8,M,,*6D
2021-08-29T20:19:25.2244438Z, 6cda8203-a249-e411-b0cc-f8bc1246af59, $GPGGA,201924.00,4437.5831,N,12402.8813,W,1,09,0.8,15.2,M,-21.8,M,,*6F
2021-08-29T20:19:26.6139142Z, 6cda8203-a249-e411-b0cc-f8bc1246af59, $GPGGA,201925.00,4437.5831,N,12402.8811,W,1,09,0.8,15.3,M,-21.8,M,,*6D
2021-08-29T20:19:28.2139436Z, 6cda8203-a249-e411-b0cc-f8bc1246af59, $GPGGA,201927.00,4437.5830,N,12402.8817,W,1,09,0.8,15.1,M,-21.8,M,,*6A
2021-08-29T20:19:29.6138263Z, 6cda8203-a249-e411-b0cc-f8bc1246af59, $GPGGA,201928.00,4437.5829,N,12402.8818,W,1,09,0.8,15.1,M,-21.8,M,,*62
2021-08-29T20:19:31.1839466Z, 6cda8203-a249-e411-b0cc-f8bc1246af59, $GPGGA,201930.00,4437.5829,N,12402.8824,W,1,09,0.8,15.0,M,-21.8,M,,*65
2021-08-29T20:19:32.6138655Z, 6cda8203-a249-e411-b0cc-f8bc1246af59, $GPGGA,201931.00,4437.5827,N,12402.8822,W,1,09,0.8,14.9,M,-21.8,M,,*64
2021-08-29T20:19:34.2140379Z, 6cda8203-a249-e411-b0cc-f8bc1246af59, $GPGGA,201933.00,4437.5821,N,12402.8821,W,1,09,0.8,14.7,M,-21.8,M,,*6D
2021-08-29T20:19:35.6139219Z, 6cda8203-a249-e411-b0cc-f8bc1246af59, $GPGGA,201934.00,4437.5820,N,12402.8821,W,1,09,0.8,14.7,M,-21.8,M,,*6B
2021-08-29T20:19:37.2139426Z, 6cda8203-a249-e411-b0cc-f8bc1246af59, $GPGGA,201936.00,4437.5820,N,12402.8826,W,1,09,0.8,14.5,M,-21.8,M,,*6C
2021-08-29T20:19:38.6148182Z, 6cda8203-a249-e411-b0cc-f8bc1246af59, $GPGGA,201937.00,4437.5819,N,12402.8829,W,1,09,0.8,14.5,M,-21.8,M,,*68
2021-08-29T20:19:40.2148337Z, 6cda8203-a249-e411-b0cc-f8bc1246af59, $GPGGA,201939.00,4437.5818,N,12402.8829,W,1,09,0.8,14.4,M,-21.8,M,,*66
2021-08-29T20:19:41.6147228Z, 6cda8203-a249-e411-b0cc-f8bc1246af59, $GPGGA,201940.00,4437.5818,N,12402.8829,W,1,09,0.8,14.4,M,-21.8,M,,*68
2021-08-29T20:19:43.2147302Z, 6cda8203-a249-e411-b0cc-f8bc1246af59, $GPGGA,201942.00,4437.5809,N,12402.8826,W,1,09,0.8,14.1,M,-21.8,M,,*60
2021-08-29T20:19:44.6146150Z, 6cda8203-a249-e411-b0cc-f8bc1246af59, $GPGGA,201943.00,4437.5807,N,12402.8826,W,1,09,0.8,14.0,M,-21.8,M,,*6E
2021-08-29T20:19:46.2146391Z, 6cda8203-a249-e411-b0cc-f8bc1246af59, $GPGGA,201945.00,4437.5808,N,12402.8827,W,1,09,0.8,14.0,M,-21.8,M,,*66
2021-08-29T20:19:47.6145222Z, 6cda8203-a249-e411-b0cc-f8bc1246af59, $GPGGA,201946.00,4437.5808,N,12402.8828,W,1,09,0.8,14.0,M,-21.8,M,,*6A
2021-08-29T20:19:49.2148670Z, 6cda8203-a249-e411-b0cc-f8bc1246af59, $GPGGA,201948.00,4437.5809,N,12402.8829,W,1,09,0.8,14.0,M,-21.8,M,,*64
2021-08-29T20:19:50.6147566Z, 6cda8203-a249-e411-b0cc-f8bc1246af59, $GPGGA,201949.00,4437.5809,N,12402.8827,W,1,09,0.8,13.9,M,-21.8,M,,*65
2021-08-29T20:19:52.2148313Z, 6cda8203-a249-e411-b0cc-f8bc1246af59, $GPGGA,201951.00,4437.5810,N,12402.8827,W,1,09,0.8,13.8,M,-21.8,M,,*65
2021-08-29T20:19:53.6147549Z, 6cda8203-a249-e411-b0cc-f8bc1246af59, $GPGGA,201952.00,4437.5811,N,12402.8824,W,1,09,0.8,13.7,M,-21.8,M,,*6B
2021-08-29T20:19:55.1848721Z, 6cda8203-a249-e411-b0cc-f8bc1246af59, $GPGGA,201954.00,4437.5814,N,12402.8819,W,1,09,0.8,13.3,M,-21.8,M,,*62
2021-08-29T20:19:56.6156450Z, 6cda8203-a249-e411-b0cc-f8bc1246af59, $GPGGA,201955.00,4437.5814,N,12402.8818,W,1,09,0.8,13.3,M,-21.8,M,,*62
2021-08-29T20:19:58.2156830Z, 6cda8203-a249-e411-b0cc-f8bc1246af59, $GPGGA,201957.00,4437.5817,N,12402.8819,W,1,09,0.8,13.2,M,-21.8,M,,*63
2021-08-29T20:19:59.6155499Z, 6cda8203-a249-e411-b0cc-f8bc1246af59, $GPGGA,201958.00,4437.5818,N,12402.8821,W,1,09,0.8,13.2,M,-21.8,M,,*68
2021-08-29T20:20:01.2156464Z, 6cda8203-a249-e411-b0cc-f8bc1246af59, $GPGGA,202000.00,4437.5821,N,12402.8824,W,1,09,0.8,13.3,M,-21.8,M,,*61
2021-08-29T20:20:02.6155401Z, 6cda8203-a249-e411-b0cc-f8bc1246af59, $GPGGA,202001.00,4437.5821,N,12402.8827,W,1,09,0.8,13.4,M,-21.8,M,,*64
2021-08-29T20:20:04.2155423Z, 6cda8203-a249-e411-b0cc-f8bc1246af59, $GPGGA,202003.00,4437.5822,N,12402.8833,W,1,09,0.8,13.4,M,-21.8,M,,*60
2021-08-29T20:20:05.6154315Z, 6cda8203-a249-e411-b0cc-f8bc1246af59, $GPGGA,202004.00,4437.5826,N,12402.8843,W,1,09,0.8,13.5,M,-21.8,M,,*65
2021-08-29T20:20:07.2180783Z, 6cda8203-a249-e411-b0cc-f8bc1246af59, $GPGGA,202006.00,4437.5829,N,12402.8846,W,1,09,0.8,13.5,M,-21.8,M,,*6D
2021-08-29T20:20:08.6153527Z, 6cda8203-a249-e411-b0cc-f8bc1246af59, $GPGGA,202007.00,4437.5829,N,12402.8846,W,1,09,0.8,13.6,M,-21.8,M,,*6F
2021-08-29T20:20:10.2153885Z, 6cda8203-a249-e411-b0cc-f8bc1246af59, $GPGGA,202009.00,4437.5827,N,12402.8848,W,1,09,0.8,13.4,M,-21.8,M,,*63
2021-08-29T20:20:11.6152788Z, 6cda8203-a249-e411-b0cc-f8bc1246af59, $GPGGA,202010.00,4437.5827,N,12402.8850,W,1,09,0.8,13.3,M,-21.8,M,,*65
2021-08-29T20:20:13.2155799Z, 6cda8203-a249-e411-b0cc-f8bc1246af59, $GPGGA,202012.00,4437.5826,N,12402.8852,W,1,09,0.8,13.1,M,-21.8,M,,*66
2021-08-29T20:20:14.6154606Z, 6cda8203-a249-e411-b0cc-f8bc1246af59, $GPGGA,202013.00,4437.5826,N,12402.8851,W,1,09,0.8,13.0,M,-21.8,M,,*65
2021-08-29T20:20:16.1855733Z, 6cda8203-a249-e411-b0cc-f8bc1246af59, $GPGGA,202015.00,4437.5826,N,12402.8847,W,1,09,0.8,12.8,M,-21.8,M,,*6D
2021-08-29T20:20:17.6163662Z, 6cda8203-a249-e411-b0cc-f8bc1246af59, $GPGGA,202016.00,4437.5827,N,12402.8847,W,1,09,0.8,12.8,M,-21.8,M,,*6F
2021-08-29T20:20:19.2163648Z, 6cda8203-a249-e411-b0cc-f8bc1246af59, $GPGGA,202018.00,4437.5826,N,12402.8843,W,1,09,0.8,12.5,M,-21.8,M,,*69
2021-08-29T20:20:20.6162595Z, 6cda8203-a249-e411-b0cc-f8bc1246af59, $GPGGA,202019.00,4437.5825,N,12402.8843,W,1,09,0.8,12.4,M,-21.8,M,,*6A
2021-08-29T20:20:22.2162760Z, 6cda8203-a249-e411-b0cc-f8bc1246af59, $GPGGA,202021.00,4437.5824,N,12402.8841,W,1,09,0.8,12.0,M,-21.8,M,,*66
2021-08-29T20:20:23.6161535Z, 6cda8203-a249-e411-b0cc-f8bc1246af59, $GPGGA,202022.00,4437.5823,N,12402.8841,W,1,09,0.8,11.9,M,-21.8,M,,*68
2021-08-29T20:20:25.2161622Z, 6cda8203-a249-e411-b0cc-f8bc1246af59, $GPGGA,202024.00,4437.5819,N,12402.8839,W,1,09,0.8,11.6,M,-21.8,M,,*67
2021-08-29T20:20:26.6163786Z, 6cda8203-a249-e411-b0cc-f8bc1246af59, $GPGGA,202025.00,4437.5819,N,12402.8840,W,1,09,0.8,11.5,M,-21.8,M,,*6B
2021-08-29T20:20:28.2263249Z, 6cda8203-a249-e411-b0cc-f8bc1246af59, $GPGGA,202027.00,4437.5817,N,12402.8840,W,1,09,0.8,11.5,M,-21.8,M,,*67
2021-08-29T20:20:29.5366384Z, 6cda8203-a249-e411-b0cc-f8bc1246af59, $GPGGA,202028.00,4437.5817,N,12402.8840,W,1,09,0.8,11.5,M,-21.8,M,,*68
2021-08-29T20:20:30.9564276Z, 6cda8203-a249-e411-b0cc-f8bc1246af59, $GPGGA,202029.00,4437.5817,N,12402.8840,W,1,09,0.8,11.6,M,-21.8,M,,*6A
2021-08-29T20:20:31.8565005Z, 6cda8203-a249-e411-b0cc-f8bc1246af59, $GPGGA,202030.00,4437.5816,N,12402.8839,W,1,09,0.8,11.6,M,-21.8,M,,*6D
2021-08-29T20:20:32.7366485Z, 6cda8203-a249-e411-b0cc-f8bc1246af59, $GPGGA,202031.00,4437.5818,N,12402.8841,W,1,09,0.8,11.6,M,-21.8,M,,*6D
2021-08-29T20:20:33.8667179Z, 6cda8203-a249-e411-b0cc-f8bc1246af59, $GPGGA,202032.00,4437.5820,N,12402.8843,W,1,09,0.8,11.7,M,-21.8,M,,*66
2021-08-29T20:20:35.1969227Z, 6cda8203-a249-e411-b0cc-f8bc1246af59, $GPGGA,202033.00,4437.5821,N,12402.8844,W,1,09,0.8,11.8,M,-21.8,M,,*6E
2021-08-29T20:20:36.6167322Z, 6cda8203-a249-e411-b0cc-f8bc1246af59, $GPGGA,202035.00,4437.5824,N,12402.8847,W,1,09,0.8,11.9,M,-21.8,M,,*6F
2021-08-29T20:20:37.9569181Z, 6cda8203-a249-e411-b0cc-f8bc1246af59, $GPGGA,202036.00,4437.5826,N,12402.8848,W,1,09,0.8,11.9,M,-21.8,M,,*61
2021-08-29T20:20:39.3667457Z, 6cda8203-a249-e411-b0cc-f8bc1246af59, $GPGGA,202038.00,4437.5828,N,12402.8854,W,1,09,0.8,12.0,M,-21.8,M,,*66
2021-08-29T20:20:40.7068962Z, 6cda8203-a249-e411-b0cc-f8bc1246af59, $GPGGA,202039.00,4437.5829,N,12402.8857,W,1,09,0.8,12.0,M,-21.8,M,,*65
2021-08-29T20:20:43.1074401Z, 6cda8203-a249-e411-b0cc-f8bc1246af59, $GPGGA,202041.00,4437.5830,N,12402.8861,W,1,09,0.8,12.0,M,-21.8,M,,*67
2021-08-29T20:20:44.4465709Z, 6cda8203-a249-e411-b0cc-f8bc1246af59, $GPGGA,202042.00,4437.5831,N,12402.8863,W,1,09,0.8,11.9,M,-21.8,M,,*6D
2021-08-29T20:20:45.8575173Z, 6cda8203-a249-e411-b0cc-f8bc1246af59, $GPGGA,202044.00,4437.5833,N,12402.8868,W,1,09,0.8,11.9,M,-21.8,M,,*62
2021-08-29T20:20:47.2375099Z, 6cda8203-a249-e411-b0cc-f8bc1246af59, $GPGGA,202045.00,4437.5834,N,12402.8870,W,1,09,0.8,11.9,M,-21.8,M,,*6D
2021-08-29T20:20:48.6575503Z, 6cda8203-a249-e411-b0cc-f8bc1246af59, $GPGGA,202047.00,4437.5835,N,12402.8877,W,1,09,0.8,12.0,M,-21.8,M,,*63
2021-08-29T20:20:49.9977193Z, 6cda8203-a249-e411-b0cc-f8bc1246af59, $GPGGA,202048.00,4437.5837,N,12402.8881,W,1,09,0.8,12.0,M,-21.8,M,,*67
2021-08-29T20:20:51.4075626Z, 6cda8203-a249-e411-b0cc-f8bc1246af59, $GPGGA,202050.00,4437.5838,N,12402.8885,W,1,09,0.8,12.0,M,-21.8,M,,*65
2021-08-29T20:20:52.7477122Z, 6cda8203-a249-e411-b0cc-f8bc1246af59, $GPGGA,202051.00,4437.5839,N,12402.8887,W,1,09,0.8,11.9,M,-21.8,M,,*6D
2021-08-29T20:20:54.2172943Z, 6cda8203-a249-e411-b0cc-f8bc1246af59, $GPGGA,202053.00,4437.5843,N,12402.8888,W,1,09,0.8,12.0,M,-21.8,M,,*67
2021-08-29T20:20:55.6171804Z, 6cda8203-a249-e411-b0cc-f8bc1246af59, $GPGGA,202054.00,4437.5844,N,12402.8888,W,1,09,0.8,12.0,M,-21.8,M,,*67
2021-08-29T20:20:57.2171918Z, 6cda8203-a249-e411-b0cc-f8bc1246af59, $GPGGA,202056.00,4437.5844,N,12402.8890,W,1,09,0.8,12.0,M,-21.8,M,,*6C
2021-08-29T20:20:58.6170827Z, 6cda8203-a249-e411-b0cc-f8bc1246af59, $GPGGA,202057.00,4437.5844,N,12402.8889,W,1,09,0.8,12.0,M,-21.8,M,,*65
2021-08-29T20:21:00.1872435Z, 6cda8203-a249-e411-b0cc-f8bc1246af59, $GPGGA,202059.00,4437.5846,N,12402.8890,W,1,09,0.8,12.2,M,-21.8,M,,*63
2021-08-29T20:21:01.6180229Z, 6cda8203-a249-e411-b0cc-f8bc1246af59, $GPGGA,202100.00,4437.5848,N,12402.8888,W,1,09,0.8,12.3,M,-21.8,M,,*68
2021-08-29T20:21:03.2180306Z, 6cda8203-a249-e411-b0cc-f8bc1246af59, $GPGGA,202102.00,4437.5852,N,12402.8886,W,1,09,0.8,12.4,M,-21.8,M,,*68
2021-08-29T20:21:04.6179151Z, 6cda8203-a249-e411-b0cc-f8bc1246af59, $GPGGA,202103.00,4437.5853,N,12402.8886,W,1,09,0.8,12.5,M,-21.8,M,,*69
2021-08-29T20:21:06.2179254Z, 6cda8203-a249-e411-b0cc-f8bc1246af59, $GPGGA,202105.00,4437.5857,N,12402.8884,W,1,09,0.8,12.5,M,-21.8,M,,*69
2021-08-29T20:21:07.6178165Z, 6cda8203-a249-e411-b0cc-f8bc1246af59, $GPGGA,202106.00,4437.5860,N,12402.8884,W,1,09,0.8,12.5,M,-21.8,M,,*6E
2021-08-29T20:21:09.2178526Z, 6cda8203-a249-e411-b0cc-f8bc1246af59, $GPGGA,202108.00,4437.5865,N,12402.8884,W,1,09,0.8,12.5,M,-21.8,M,,*65
2021-08-29T20:21:10.6178237Z, 6cda8203-a249-e411-b0cc-f8bc1246af59, $GPGGA,202109.00,4437.5868,N,12402.8886,W,1,09,0.8,12.4,M,-21.8,M,,*6A
2021-08-29T20:21:12.2179332Z, 6cda8203-a249-e411-b0cc-f8bc1246af59, $GPGGA,202111.00,4437.5870,N,12402.8892,W,1,09,0.8,12.1,M,-21.8,M,,*6A
2021-08-29T20:21:13.6178166Z, 6cda8203-a249-e411-b0cc-f8bc1246af59, $GPGGA,202112.00,4437.5871,N,12402.8893,W,1,09,0.8,12.0,M,-21.8,M,,*68
2021-08-29T20:21:15.2180434Z, 6cda8203-a249-e411-b0cc-f8bc1246af59, $GPGGA,202114.00,4437.5872,N,12402.8895,W,1,09,0.8,11.9,M,-21.8,M,,*61
2021-08-29T20:21:16.6179082Z, 6cda8203-a249-e411-b0cc-f8bc1246af59, $GPGGA,202115.00,4437.5873,N,12402.8896,W,1,09,0.8,12.0,M,-21.8,M,,*68
2021-08-29T20:21:18.2179347Z, 6cda8203-a249-e411-b0cc-f8bc1246af59, $GPGGA,202117.00,4437.5872,N,12402.8896,W,1,09,0.8,12.2,M,-21.8,M,,*69
2021-08-29T20:21:19.6188198Z, 6cda8203-a249-e411-b0cc-f8bc1246af59, $GPGGA,202118.00,4437.5873,N,12402.8894,W,1,09,0.8,12.3,M,-21.8,M,,*64
2021-08-29T20:21:21.2188368Z, 6cda8203-a249-e411-b0cc-f8bc1246af59, $GPGGA,202120.00,4437.5875,N,12402.8892,W,1,09,0.8,12.4,M,-21.8,M,,*68
2021-08-29T20:21:22.6187067Z, 6cda8203-a249-e411-b0cc-f8bc1246af59, $GPGGA,202121.00,4437.5877,N,12402.8891,W,1,09,0.8,12.3,M,-21.8,M,,*6F
2021-08-29T20:21:24.2182345Z, 6cda8203-a249-e411-b0cc-f8bc1246af59, $GPGGA,202123.00,4437.5876,N,12402.8893,W,1,09,0.8,12.4,M,-21.8,M,,*69
2021-08-29T20:21:25.6183263Z, 6cda8203-a249-e411-b0cc-f8bc1246af59, $GPGGA,202124.00,4437.5877,N,12402.8895,W,1,09,0.8,12.4,M,-21.8,M,,*69
2021-08-29T20:21:27.2185296Z, 6cda8203-a249-e411-b0cc-f8bc1246af59, $GPGGA,202126.00,4437.5876,N,12402.8892,W,1,09,0.8,12.1,M,-21.8,M,,*68
2021-08-29T20:21:28.6184257Z, 6cda8203-a249-e411-b0cc-f8bc1246af59, $GPGGA,202127.00,4437.5877,N,12402.8891,W,1,09,0.8,12.0,M,-21.8,M,,*6A
2021-08-29T20:21:30.2186016Z, 6cda8203-a249-e411-b0cc-f8bc1246af59, $GPGGA,202129.00,4437.5876,N,12402.8893,W,1,09,0.8,11.9,M,-21.8,M,,*6D
2021-08-29T20:21:31.6187004Z, 6cda8203-a249-e411-b0cc-f8bc1246af59, $GPGGA,202130.00,4437.5876,N,12402.8891,W,1,09,0.8,11.8,M,-21.8,M,,*66
