ACQ Timestamp (Server Time in UTC), MessageID, Data Value For: GNSS-6452-$GPGGA
2021-06-27 17:51:05Z, 6cda8203-a249-e411-b0cc-f8bc1246af59, $GPGGA,175104.00,4437.5811,N,12402.8821,W,1,08,1.0,21.7,M,-21.8,M,,*6C
2021-06-27 17:51:07Z, 6cda8203-a249-e411-b0cc-f8bc1246af59, $GPGGA,175106.00,4437.5809,N,12402.8823,W,1,08,1.0,21.8,M,-21.8,M,,*6A
2021-06-27 17:51:08Z, 6cda8203-a249-e411-b0cc-f8bc1246af59, $GPGGA,175107.00,4437.5808,N,12402.8824,W,1,08,1.0,21.9,M,-21.8,M,,*6C
2021-06-27 17:51:10Z, 6cda8203-a249-e411-b0cc-f8bc1246af59, $GPGGA,175109.00,4437.5805,N,12402.8828,W,1,08,1.0,22.0,M,-21.8,M,,*69
2021-06-27 17:51:11Z, 6cda8203-a249-e411-b0cc-f8bc1246af59, $GPGGA,175110.00,4437.5803,N,12402.8829,W,1,08,1.0,22.1,M,-21.8,M,,*67
2021-06-27 17:51:13Z, 6cda8203-a249-e411-b0cc-f8bc1246af59, $GPGGA,175112.00,4437.5799,N,12402.8831,W,1,08,1.0,22.2,M,-21.8,M,,*63
2021-06-27 17:51:14Z, 6cda8203-a249-e411-b0cc-f8bc1246af59, $GPGGA,175113.00,4437.5799,N,12402.8829,W,1,08,1.0,22.4,M,-21.8,M,,*6D
2021-06-27 17:51:16Z, 6cda8203-a249-e411-b0cc-f8bc1246af59, $GPGGA,175115.00,4437.5801,N,12402.8829,W,1,08,1.0,22.5,M,-21.8,M,,*64
2021-06-27 17:51:17Z, 6cda8203-a249-e411-b0cc-f8bc1246af59, $GPGGA,175116.00,4437.5802,N,12402.8828,W,1,08,1.0,22.5,M,-21.8,M,,*65
2021-06-27 17:51:19Z, 6cda8203-a249-e411-b0cc-f8bc1246af59, $GPGGA,175118.00,4437.5803,N,12402.8826,W,1,08,1.0,22.4,M,-21.8,M,,*65
2021-06-27 17:51:20Z, 6cda8203-a249-e411-b0cc-f8bc1246af59, $GPGGA,175119.00,4437.5802,N,12402.8826,W,1,08,1.0,22.2,M,-21.8,M,,*63
2021-06-27 17:51:22Z, 6cda8203-a249-e411-b0cc-f8bc1246af59, $GPGGA,175121.00,4437.5803,N,12402.8826,W,1,08,1.0,22.0,M,-21.8,M,,*6B
2021-06-27 17:51:23Z, 6cda8203-a249-e411-b0cc-f8bc1246af59, $GPGGA,175122.00,4437.5809,N,12402.8825,W,1,08,1.0,22.1,M,-21.8,M,,*60
2021-06-27 17:51:25Z, 6cda8203-a249-e411-b0cc-f8bc1246af59, $GPGGA,175124.00,4437.5809,N,12402.8823,W,1,08,1.0,22.2,M,-21.8,M,,*63
2021-06-27 17:51:26Z, 6cda8203-a249-e411-b0cc-f8bc1246af59, $GPGGA,175125.00,4437.5809,N,12402.8822,W,1,08,1.0,22.3,M,-21.8,M,,*62
2021-06-27 17:51:28Z, 6cda8203-a249-e411-b0cc-f8bc1246af59, $GPGGA,175127.00,4437.5809,N,12402.8822,W,1,08,1.0,22.3,M,-21.8,M,,*60
2021-06-27 17:51:29Z, 6cda8203-a249-e411-b0cc-f8bc1246af59, $GPGGA,175128.00,4437.5808,N,12402.8822,W,1,08,1.0,22.3,M,-21.8,M,,*6E
2021-06-27 17:51:31Z, 6cda8203-a249-e411-b0cc-f8bc1246af59, $GPGGA,175130.00,4437.5806,N,12402.8823,W,1,08,1.0,22.3,M,-21.8,M,,*68
2021-06-27 17:51:32Z, 6cda8203-a249-e411-b0cc-f8bc1246af59, $GPGGA,175131.00,4437.5804,N,12402.8821,W,1,08,1.0,22.2,M,-21.8,M,,*68
2021-06-27 17:51:34Z, 6cda8203-a249-e411-b0cc-f8bc1246af59, $GPGGA,175133.00,4437.5802,N,12402.8819,W,1,08,1.0,22.2,M,-21.8,M,,*67
2021-06-27 17:51:35Z, 6cda8203-a249-e411-b0cc-f8bc1246af59, $GPGGA,175134.00,4437.5802,N,12402.8816,W,1,08,1.0,22.2,M,-21.8,M,,*6F
2021-06-27 17:51:37Z, 6cda8203-a249-e411-b0cc-f8bc1246af59, $GPGGA,175136.00,4437.5800,N,12402.8813,W,1,08,1.0,22.3,M,-21.8,M,,*6B
2021-06-27 17:51:38Z, 6cda8203-a249-e411-b0cc-f8bc1246af59, $GPGGA,175137.00,4437.5800,N,12402.8810,W,1,08,1.0,22.2,M,-21.8,M,,*68
2021-06-27 17:51:40Z, 6cda8203-a249-e411-b0cc-f8bc1246af59, $GPGGA,175139.00,4437.5802,N,12402.8810,W,1,08,1.0,22.2,M,-21.8,M,,*64
2021-06-27 17:51:41Z, 6cda8203-a249-e411-b0cc-f8bc1246af59, $GPGGA,175140.00,4437.5802,N,12402.8812,W,1,08,1.0,22.2,M,-21.8,M,,*68
2021-06-27 17:51:43Z, 6cda8203-a249-e411-b0cc-f8bc1246af59, $GPGGA,175142.00,4437.5804,N,12402.8816,W,1,08,1.0,22.1,M,-21.8,M,,*6B
2021-06-27 17:51:44Z, 6cda8203-a249-e411-b0cc-f8bc1246af59, $GPGGA,175143.00,4437.5804,N,12402.8816,W,1,08,1.0,22.1,M,-21.8,M,,*6A
2021-06-27 17:51:46Z, 6cda8203-a249-e411-b0cc-f8bc1246af59, $GPGGA,175145.00,4437.5806,N,12402.8819,W,1,08,1.0,22.1,M,-21.8,M,,*61
2021-06-27 17:51:47Z, 6cda8203-a249-e411-b0cc-f8bc1246af59, $GPGGA,175146.00,4437.5805,N,12402.8820,W,1,08,1.0,22.2,M,-21.8,M,,*68
2021-06-27 17:51:49Z, 6cda8203-a249-e411-b0cc-f8bc1246af59, $GPGGA,175148.00,4437.5802,N,12402.8820,W,1,08,1.0,22.3,M,-21.8,M,,*60
2021-06-27 17:51:50Z, 6cda8203-a249-e411-b0cc-f8bc1246af59, $GPGGA,175149.00,4437.5801,N,12402.8820,W,1,08,1.0,22.4,M,-21.8,M,,*65
2021-06-27 17:51:52Z, 6cda8203-a249-e411-b0cc-f8bc1246af59, $GPGGA,175151.00,4437.5802,N,12402.8825,W,1,08,1.0,22.5,M,-21.8,M,,*6B
2021-06-27 17:51:53Z, 6cda8203-a249-e411-b0cc-f8bc1246af59, $GPGGA,175152.00,4437.5802,N,12402.8827,W,1,08,1.0,22.5,M,-21.8,M,,*6A
2021-06-27 17:51:55Z, 6cda8203-a249-e411-b0cc-f8bc1246af59, $GPGGA,175154.00,4437.5802,N,12402.8833,W,1,08,1.0,22.7,M,-21.8,M,,*6B
2021-06-27 17:51:56Z, 6cda8203-a249-e411-b0cc-f8bc1246af59, $GPGGA,175155.00,4437.5805,N,12402.8831,W,1,08,1.0,22.6,M,-21.8,M,,*6E
2021-06-27 17:51:58Z, 6cda8203-a249-e411-b0cc-f8bc1246af59, $GPGGA,175157.00,4437.5805,N,12402.8833,W,1,08,1.0,22.3,M,-21.8,M,,*6B
2021-06-27 17:51:59Z, 6cda8203-a249-e411-b0cc-f8bc1246af59, $GPGGA,175158.00,4437.5806,N,12402.8834,W,1,08,1.0,22.3,M,-21.8,M,,*60
2021-06-27 17:52:01Z, 6cda8203-a249-e411-b0cc-f8bc1246af59, $GPGGA,175200.00,4437.5806,N,12402.8835,W,1,08,1.0,22.5,M,-21.8,M,,*69
2021-06-27 17:52:02Z, 6cda8203-a249-e411-b0cc-f8bc1246af59, $GPGGA,175201.00,4437.5807,N,12402.8835,W,1,08,1.0,22.6,M,-21.8,M,,*6A
2021-06-27 17:52:04Z, 6cda8203-a249-e411-b0cc-f8bc1246af59, $GPGGA,175203.00,4437.5808,N,12402.8836,W,1,08,1.0,22.5,M,-21.8,M,,*67
2021-06-27 17:52:05Z, 6cda8203-a249-e411-b0cc-f8bc1246af59, $GPGGA,175204.00,4437.5809,N,12402.8833,W,1,08,1.0,22.6,M,-21.8,M,,*67
2021-06-27 17:52:07Z, 6cda8203-a249-e411-b0cc-f8bc1246af59, $GPGGA,175206.00,4437.5811,N,12402.8830,W,1,08,1.0,22.7,M,-21.8,M,,*6E
2021-06-27 17:52:08Z, 6cda8203-a249-e411-b0cc-f8bc1246af59, $GPGGA,175207.00,4437.5811,N,12402.8828,W,1,08,1.0,22.8,M,-21.8,M,,*69
2021-06-27 17:52:10Z, 6cda8203-a249-e411-b0cc-f8bc1246af59, $GPGGA,175209.00,4437.5810,N,12402.8821,W,1,08,1.0,22.9,M,-21.8,M,,*6E
2021-06-27 17:52:11Z, 6cda8203-a249-e411-b0cc-f8bc1246af59, $GPGGA,175210.00,4437.5814,N,12402.8819,W,1,08,1.0,23.0,M,-21.8,M,,*61
2021-06-27 17:52:13Z, 6cda8203-a249-e411-b0cc-f8bc1246af59, $GPGGA,175212.00,4437.5813,N,12402.8812,W,1,08,1.0,23.3,M,-21.8,M,,*6C
2021-06-27 17:52:14Z, 6cda8203-a249-e411-b0cc-f8bc1246af59, $GPGGA,175213.00,4437.5815,N,12402.8811,W,1,08,1.0,23.4,M,-21.8,M,,*6F
2021-06-27 17:52:16Z, 6cda8203-a249-e411-b0cc-f8bc1246af59, $GPGGA,175215.00,4437.5816,N,12402.8813,W,1,08,1.0,23.5,M,-21.8,M,,*69
2021-06-27 17:52:17Z, 6cda8203-a249-e411-b0cc-f8bc1246af59, $GPGGA,175216.00,4437.5817,N,12402.8815,W,1,08,1.0,23.6,M,-21.8,M,,*6E
2021-06-27 17:52:19Z, 6cda8203-a249-e411-b0cc-f8bc1246af59, $GPGGA,175218.00,4437.5816,N,12402.8815,W,1,08,1.0,23.8,M,-21.8,M,,*6F
2021-06-27 17:52:20Z, 6cda8203-a249-e411-b0cc-f8bc1246af59, $GPGGA,175219.00,4437.5815,N,12402.8814,W,1,08,1.0,23.8,M,-21.8,M,,*6C
2021-06-27 17:52:22Z, 6cda8203-a249-e411-b0cc-f8bc1246af59, $GPGGA,175221.00,4437.5811,N,12402.8813,W,1,08,1.0,24.0,M,-21.8,M,,*6B
2021-06-27 17:52:23Z, 6cda8203-a249-e411-b0cc-f8bc1246af59, $GPGGA,175222.00,4437.5812,N,12402.8813,W,1,08,1.0,24.0,M,-21.8,M,,*6B
2021-06-27 17:52:25Z, 6cda8203-a249-e411-b0cc-f8bc1246af59, $GPGGA,175224.00,4437.5811,N,12402.8810,W,1,08,1.0,24.1,M,-21.8,M,,*6C
2021-06-27 17:52:26Z, 6cda8203-a249-e411-b0cc-f8bc1246af59, $GPGGA,175225.00,4437.5812,N,12402.8811,W,1,08,1.0,24.1,M,-21.8,M,,*6F
2021-06-27 17:52:28Z, 6cda8203-a249-e411-b0cc-f8bc1246af59, $GPGGA,175227.00,4437.5813,N,12402.8811,W,1,08,1.0,24.6,M,-21.8,M,,*6B
2021-06-27 17:52:29Z, 6cda8203-a249-e411-b0cc-f8bc1246af59, $GPGGA,175228.00,4437.5811,N,12402.8811,W,1,08,1.0,24.5,M,-21.8,M,,*65
2021-06-27 17:52:30Z, 6cda8203-a249-e411-b0cc-f8bc1246af59, $GPGGA,175229.00,4437.5811,N,12402.8812,W,1,08,1.0,24.5,M,-21.8,M,,*67
2021-06-27 17:52:31Z, 6cda8203-a249-e411-b0cc-f8bc1246af59, $GPGGA,175230.00,4437.5808,N,12402.8810,W,1,08,1.0,24.8,M,-21.8,M,,*68
2021-06-27 17:52:32Z, 6cda8203-a249-e411-b0cc-f8bc1246af59, $GPGGA,175231.00,4437.5807,N,12402.8812,W,1,08,1.0,24.8,M,-21.8,M,,*64
2021-06-27 17:52:33Z, 6cda8203-a249-e411-b0cc-f8bc1246af59, $GPGGA,175232.00,4437.5808,N,12402.8814,W,1,08,1.0,24.8,M,-21.8,M,,*6E
2021-06-27 17:52:35Z, 6cda8203-a249-e411-b0cc-f8bc1246af59, $GPGGA,175233.00,4437.5808,N,12402.8811,W,1,08,1.0,24.7,M,-21.8,M,,*65
2021-06-27 17:52:36Z, 6cda8203-a249-e411-b0cc-f8bc1246af59, $GPGGA,175235.00,4437.5808,N,12402.8813,W,1,08,1.0,24.8,M,-21.8,M,,*6E
2021-06-27 17:52:37Z, 6cda8203-a249-e411-b0cc-f8bc1246af59, $GPGGA,175236.00,4437.5808,N,12402.8813,W,1,08,1.0,24.8,M,-21.8,M,,*6D
2021-06-27 17:52:39Z, 6cda8203-a249-e411-b0cc-f8bc1246af59, $GPGGA,175238.00,4437.5809,N,12402.8813,W,1,08,1.0,25.0,M,-21.8,M,,*6B
2021-06-27 17:52:40Z, 6cda8203-a249-e411-b0cc-f8bc1246af59, $GPGGA,175239.00,4437.5809,N,12402.8811,W,1,08,1.0,25.1,M,-21.8,M,,*69
2021-06-27 17:52:42Z, 6cda8203-a249-e411-b0cc-f8bc1246af59, $GPGGA,175241.00,4437.5808,N,12402.8809,W,1,08,1.0,25.2,M,-21.8,M,,*6D
2021-06-27 17:52:43Z, 6cda8203-a249-e411-b0cc-f8bc1246af59, $GPGGA,175242.00,4437.5808,N,12402.8812,W,1,08,1.0,25.3,M,-21.8,M,,*65
2021-06-27 17:52:45Z, 6cda8203-a249-e411-b0cc-f8bc1246af59, $GPGGA,175244.00,4437.5806,N,12402.8813,W,1,08,1.0,25.5,M,-21.8,M,,*6A
2021-06-27 17:52:46Z, 6cda8203-a249-e411-b0cc-f8bc1246af59, $GPGGA,175245.00,4437.5806,N,12402.8814,W,1,08,1.0,25.6,M,-21.8,M,,*6F
2021-06-27 17:52:48Z, 6cda8203-a249-e411-b0cc-f8bc1246af59, $GPGGA,175247.00,4437.5811,N,12402.8815,W,1,08,1.0,26.0,M,-21.8,M,,*6F
2021-06-27 17:52:49Z, 6cda8203-a249-e411-b0cc-f8bc1246af59, $GPGGA,175248.00,4437.5811,N,12402.8813,W,1,08,1.0,26.0,M,-21.8,M,,*66
2021-06-27 17:52:51Z, 6cda8203-a249-e411-b0cc-f8bc1246af59, $GPGGA,175250.00,4437.5808,N,12402.8821,W,1,08,1.0,25.9,M,-21.8,M,,*6C
2021-06-27 17:52:52Z, 6cda8203-a249-e411-b0cc-f8bc1246af59, $GPGGA,175251.00,4437.5806,N,12402.8821,W,1,08,1.0,26.0,M,-21.8,M,,*69
2021-06-27 17:52:54Z, 6cda8203-a249-e411-b0cc-f8bc1246af59, $GPGGA,175253.00,4437.5805,N,12402.8821,W,1,08,1.0,26.2,M,-21.8,M,,*6A
2021-06-27 17:52:55Z, 6cda8203-a249-e411-b0cc-f8bc1246af59, $GPGGA,175254.00,4437.5804,N,12402.8822,W,1,08,1.0,26.4,M,-21.8,M,,*69
2021-06-27 17:52:57Z, 6cda8203-a249-e411-b0cc-f8bc1246af59, $GPGGA,175256.00,4437.5805,N,12402.8825,W,1,08,1.0,26.4,M,-21.8,M,,*6D
2021-06-27 17:52:58Z, 6cda8203-a249-e411-b0cc-f8bc1246af59, $GPGGA,175257.00,4437.5804,N,12402.8827,W,1,08,1.0,26.4,M,-21.8,M,,*6F
2021-06-27 17:53:00Z, 6cda8203-a249-e411-b0cc-f8bc1246af59, $GPGGA,175259.00,4437.5803,N,12402.8830,W,1,08,1.0,26.4,M,-21.8,M,,*60
2021-06-27 17:53:01Z, 6cda8203-a249-e411-b0cc-f8bc1246af59, $GPGGA,175300.00,4437.5804,N,12402.8831,W,1,08,1.0,26.4,M,-21.8,M,,*6B
2021-06-27 17:53:03Z, 6cda8203-a249-e411-b0cc-f8bc1246af59, $GPGGA,175302.00,4437.5803,N,12402.8834,W,1,08,1.0,26.4,M,-21.8,M,,*6B
2021-06-27 17:53:04Z, 6cda8203-a249-e411-b0cc-f8bc1246af59, $GPGGA,175303.00,4437.5803,N,12402.8834,W,1,08,1.0,26.4,M,-21.8,M,,*6A
2021-06-27 17:53:06Z, 6cda8203-a249-e411-b0cc-f8bc1246af59, $GPGGA,175305.00,4437.5807,N,12402.8832,W,1,08,1.0,26.6,M,-21.8,M,,*6C
2021-06-27 17:53:07Z, 6cda8203-a249-e411-b0cc-f8bc1246af59, $GPGGA,175306.00,4437.5807,N,12402.8830,W,1,08,1.0,26.7,M,-21.8,M,,*6C
2021-06-27 17:53:09Z, 6cda8203-a249-e411-b0cc-f8bc1246af59, $GPGGA,175308.00,4437.5808,N,12402.8829,W,1,08,1.0,27.1,M,-21.8,M,,*62
2021-06-27 17:53:10Z, 6cda8203-a249-e411-b0cc-f8bc1246af59, $GPGGA,175309.00,4437.5809,N,12402.8831,W,1,08,1.0,27.1,M,-21.8,M,,*6B
2021-06-27 17:53:12Z, 6cda8203-a249-e411-b0cc-f8bc1246af59, $GPGGA,175311.00,4437.5808,N,12402.8834,W,1,08,1.0,27.1,M,-21.8,M,,*66
2021-06-27 17:53:13Z, 6cda8203-a249-e411-b0cc-f8bc1246af59, $GPGGA,175312.00,4437.5806,N,12402.8833,W,1,08,1.0,27.1,M,-21.8,M,,*6C
2021-06-27 17:53:15Z, 6cda8203-a249-e411-b0cc-f8bc1246af59, $GPGGA,175314.00,4437.5806,N,12402.8830,W,1,08,1.0,27.0,M,-21.8,M,,*68
2021-06-27 17:53:16Z, 6cda8203-a249-e411-b0cc-f8bc1246af59, $GPGGA,175315.00,4437.5806,N,12402.8829,W,1,08,1.0,26.9,M,-21.8,M,,*69
2021-06-27 17:53:18Z, 6cda8203-a249-e411-b0cc-f8bc1246af59, $GPGGA,175317.00,4437.5806,N,12402.8830,W,1,08,1.0,26.9,M,-21.8,M,,*63
2021-06-27 17:53:19Z, 6cda8203-a249-e411-b0cc-f8bc1246af59, $GPGGA,175318.00,4437.5811,N,12402.8839,W,1,08,1.0,27.2,M,-21.8,M,,*69
2021-06-27 17:53:21Z, 6cda8203-a249-e411-b0cc-f8bc1246af59, $GPGGA,175320.00,4437.5809,N,12402.8845,W,1,08,1.0,27.1,M,-21.8,M,,*63
2021-06-27 17:53:22Z, 6cda8203-a249-e411-b0cc-f8bc1246af59, $GPGGA,175321.00,4437.5808,N,12402.8848,W,1,08,1.0,27.1,M,-21.8,M,,*6E
2021-06-27 17:53:24Z, 6cda8203-a249-e411-b0cc-f8bc1246af59, $GPGGA,175323.00,4437.5809,N,12402.8851,W,1,08,1.0,27.1,M,-21.8,M,,*65
2021-06-27 17:53:25Z, 6cda8203-a249-e411-b0cc-f8bc1246af59, $GPGGA,175324.00,4437.5809,N,12402.8851,W,1,08,1.0,27.1,M,-21.8,M,,*62
2021-06-27 17:53:27Z, 6cda8203-a249-e411-b0cc-f8bc1246af59, $GPGGA,175326.00,4437.5809,N,12402.8854,W,1,08,1.0,27.1,M,-21.8,M,,*65
2021-06-27 17:53:28Z, 6cda8203-a249-e411-b0cc-f8bc1246af59, $GPGGA,175327.00,4437.5808,N,12402.8854,W,1,08,1.0,27.1,M,-21.8,M,,*65
2021-06-27 17:53:30Z, 6cda8203-a249-e411-b0cc-f8bc1246af59, $GPGGA,175329.00,4437.5807,N,12402.8855,W,1,08,1.0,27.1,M,-21.8,M,,*65
2021-06-27 17:53:31Z, 6cda8203-a249-e411-b0cc-f8bc1246af59, $GPGGA,175330.00,4437.5806,N,12402.8857,W,1,08,1.0,27.1,M,-21.8,M,,*6E
2021-06-27 17:53:33Z, 6cda8203-a249-e411-b0cc-f8bc1246af59, $GPGGA,175332.00,4437.5807,N,12402.8854,W,1,08,1.0,27.0,M,-21.8,M,,*6F
2021-06-27 17:53:34Z, 6cda8203-a249-e411-b0cc-f8bc1246af59, $GPGGA,175333.00,4437.5807,N,12402.8852,W,1,08,1.0,26.9,M,-21.8,M,,*60
2021-06-27 17:53:36Z, 6cda8203-a249-e411-b0cc-f8bc1246af59, $GPGGA,175335.00,4437.5807,N,12402.8854,W,1,08,1.0,26.7,M,-21.8,M,,*6E
2021-06-27 17:53:37Z, 6cda8203-a249-e411-b0cc-f8bc1246af59, $GPGGA,175336.00,4437.5806,N,12402.8853,W,1,08,1.0,26.6,M,-21.8,M,,*6A
2021-06-27 17:53:39Z, 6cda8203-a249-e411-b0cc-f8bc1246af59, $GPGGA,175338.00,4437.5807,N,12402.8851,W,1,08,1.0,26.8,M,-21.8,M,,*69
2021-06-27 17:53:40Z, 6cda8203-a249-e411-b0cc-f8bc1246af59, $GPGGA,175339.00,4437.5812,N,12402.8847,W,1,08,1.0,26.7,M,-21.8,M,,*64
2021-06-27 17:53:42Z, 6cda8203-a249-e411-b0cc-f8bc1246af59, $GPGGA,175341.00,4437.5821,N,12402.8844,W,1,08,1.0,26.7,M,-21.8,M,,*68
2021-06-27 17:53:43Z, 6cda8203-a249-e411-b0cc-f8bc1246af59, $GPGGA,175342.00,4437.5823,N,12402.8844,W,1,08,1.0,26.7,M,-21.8,M,,*69
2021-06-27 17:53:45Z, 6cda8203-a249-e411-b0cc-f8bc1246af59, $GPGGA,175344.00,4437.5828,N,12402.8848,W,1,08,1.0,26.6,M,-21.8,M,,*69
2021-06-27 17:53:46Z, 6cda8203-a249-e411-b0cc-f8bc1246af59, $GPGGA,175345.00,4437.5830,N,12402.8848,W,1,08,1.0,26.5,M,-21.8,M,,*62
2021-06-27 17:53:48Z, 6cda8203-a249-e411-b0cc-f8bc1246af59, $GPGGA,175347.00,4437.5832,N,12402.8850,W,1,08,1.0,26.4,M,-21.8,M,,*6A
2021-06-27 17:53:49Z, 6cda8203-a249-e411-b0cc-f8bc1246af59, $GPGGA,175348.00,4437.5832,N,12402.8849,W,1,08,1.0,26.3,M,-21.8,M,,*6A
2021-06-27 17:53:51Z, 6cda8203-a249-e411-b0cc-f8bc1246af59, $GPGGA,175350.00,4437.5836,N,12402.8849,W,1,08,1.0,26.2,M,-21.8,M,,*66
2021-06-27 17:53:52Z, 6cda8203-a249-e411-b0cc-f8bc1246af59, $GPGGA,175351.00,4437.5839,N,12402.8848,W,1,08,1.0,26.0,M,-21.8,M,,*6B
2021-06-27 17:53:54Z, 6cda8203-a249-e411-b0cc-f8bc1246af59, $GPGGA,175353.00,4437.5844,N,12402.8849,W,1,08,1.0,25.9,M,-21.8,M,,*68
2021-06-27 17:53:55Z, 6cda8203-a249-e411-b0cc-f8bc1246af59, $GPGGA,175354.00,4437.5851,N,12402.8852,W,1,08,1.0,26.0,M,-21.8,M,,*6B
2021-06-27 17:53:57Z, 6cda8203-a249-e411-b0cc-f8bc1246af59, $GPGGA,175356.00,4437.5854,N,12402.8852,W,1,08,1.0,26.0,M,-21.8,M,,*6C
2021-06-27 17:53:58Z, 6cda8203-a249-e411-b0cc-f8bc1246af59, $GPGGA,175357.00,4437.5854,N,12402.8850,W,1,08,1.0,26.0,M,-21.8,M,,*6F
2021-06-27 17:54:00Z, 6cda8203-a249-e411-b0cc-f8bc1246af59, $GPGGA,175359.00,4437.5857,N,12402.8851,W,1,08,1.0,26.0,M,-21.8,M,,*63
2021-06-27 17:54:01Z, 6cda8203-a249-e411-b0cc-f8bc1246af59, $GPGGA,175400.00,4437.5856,N,12402.8849,W,1,08,1.0,25.9,M,-21.8,M,,*6A
2021-06-27 17:54:03Z, 6cda8203-a249-e411-b0cc-f8bc1246af59, $GPGGA,175402.00,4437.5853,N,12402.8851,W,1,08,1.0,26.0,M,-21.8,M,,*6E
2021-06-27 17:54:04Z, 6cda8203-a249-e411-b0cc-f8bc1246af59, $GPGGA,175403.00,4437.5851,N,12402.8853,W,1,08,1.0,26.0,M,-21.8,M,,*6F
2021-06-27 17:54:06Z, 6cda8203-a249-e411-b0cc-f8bc1246af59, $GPGGA,175405.00,4437.5849,N,12402.8855,W,1,08,1.0,26.1,M,-21.8,M,,*67
2021-06-27 17:54:07Z, 6cda8203-a249-e411-b0cc-f8bc1246af59, $GPGGA,175406.00,4437.5848,N,12402.8858,W,1,08,1.0,26.1,M,-21.8,M,,*68
2021-06-27 17:54:09Z, 6cda8203-a249-e411-b0cc-f8bc1246af59, $GPGGA,175408.00,4437.5845,N,12402.8858,W,1,08,1.0,26.3,M,-21.8,M,,*69
2021-06-27 17:54:10Z, 6cda8203-a249-e411-b0cc-f8bc1246af59, $GPGGA,175409.00,4437.5843,N,12402.8858,W,1,08,1.0,26.6,M,-21.8,M,,*6B
2021-06-27 17:54:12Z, 6cda8203-a249-e411-b0cc-f8bc1246af59, $GPGGA,175411.00,4437.5841,N,12402.8859,W,1,08,1.0,27.1,M,-21.8,M,,*67
2021-06-27 17:54:13Z, 6cda8203-a249-e411-b0cc-f8bc1246af59, $GPGGA,175412.00,4437.5840,N,12402.8861,W,1,08,1.0,27.1,M,-21.8,M,,*6E
2021-06-27 17:54:15Z, 6cda8203-a249-e411-b0cc-f8bc1246af59, $GPGGA,175414.00,4437.5837,N,12402.8864,W,1,08,1.0,27.2,M,-21.8,M,,*6E
2021-06-27 17:54:16Z, 6cda8203-a249-e411-b0cc-f8bc1246af59, $GPGGA,175415.00,4437.5836,N,12402.8867,W,1,08,1.0,27.2,M,-21.8,M,,*6D
2021-06-27 17:54:18Z, 6cda8203-a249-e411-b0cc-f8bc1246af59, $GPGGA,175417.00,4437.5834,N,12402.8866,W,1,08,1.0,27.2,M,-21.8,M,,*6C
2021-06-27 17:54:19Z, 6cda8203-a249-e411-b0cc-f8bc1246af59, $GPGGA,175418.00,4437.5833,N,12402.8866,W,1,08,1.0,27.2,M,-21.8,M,,*64
2021-06-27 17:54:21Z, 6cda8203-a249-e411-b0cc-f8bc1246af59, $GPGGA,175420.00,4437.5830,N,12402.8865,W,1,08,1.0,27.3,M,-21.8,M,,*6E
2021-06-27 17:54:22Z, 6cda8203-a249-e411-b0cc-f8bc1246af59, $GPGGA,175421.00,4437.5831,N,12402.8864,W,1,08,1.0,27.2,M,-21.8,M,,*6E
2021-06-27 17:54:24Z, 6cda8203-a249-e411-b0cc-f8bc1246af59, $GPGGA,175423.00,4437.5829,N,12402.8860,W,1,08,1.0,27.4,M,-21.8,M,,*67
2021-06-27 17:54:25Z, 6cda8203-a249-e411-b0cc-f8bc1246af59, $GPGGA,175424.00,4437.5829,N,12402.8858,W,1,08,1.0,27.4,M,-21.8,M,,*6B
2021-06-27 17:54:27Z, 6cda8203-a249-e411-b0cc-f8bc1246af59, $GPGGA,175426.00,4437.5828,N,12402.8856,W,1,08,1.0,27.4,M,-21.8,M,,*66
2021-06-27 17:54:28Z, 6cda8203-a249-e411-b0cc-f8bc1246af59, $GPGGA,175427.00,4437.5827,N,12402.8853,W,1,08,1.0,27.5,M,-21.8,M,,*6C
2021-06-27 17:54:30Z, 6cda8203-a249-e411-b0cc-f8bc1246af59, $GPGGA,175429.00,4437.5826,N,12402.8850,W,1,08,1.0,27.5,M,-21.8,M,,*60
2021-06-27 17:54:31Z, 6cda8203-a249-e411-b0cc-f8bc1246af59, $GPGGA,175430.00,4437.5827,N,12402.8847,W,1,08,1.0,27.5,M,-21.8,M,,*6F
2021-06-27 17:54:33Z, 6cda8203-a249-e411-b0cc-f8bc1246af59, $GPGGA,175432.00,4437.5826,N,12402.8841,W,1,08,1.0,27.4,M,-21.8,M,,*6B
2021-06-27 17:54:34Z, 6cda8203-a249-e411-b0cc-f8bc1246af59, $GPGGA,175433.00,4437.5826,N,12402.8842,W,1,08,1.0,27.4,M,-21.8,M,,*69
2021-06-27 17:54:35Z, 6cda8203-a249-e411-b0cc-f8bc1246af59, $GPGGA,175434.00,4437.5826,N,12402.8842,W,1,08,1.0,27.4,M,-21.8,M,,*6E
2021-06-27 17:54:36Z, 6cda8203-a249-e411-b0cc-f8bc1246af59, $GPGGA,175435.00,4437.5828,N,12402.8841,W,1,08,1.0,27.5,M,-21.8,M,,*63
2021-06-27 17:54:37Z, 6cda8203-a249-e411-b0cc-f8bc1246af59, $GPGGA,175436.00,4437.5829,N,12402.8842,W,1,08,1.0,27.5,M,-21.8,M,,*62
2021-06-27 17:54:38Z, 6cda8203-a249-e411-b0cc-f8bc1246af59, $GPGGA,175437.00,4437.5829,N,12402.8842,W,1,08,1.0,27.6,M,-21.8,M,,*60
2021-06-27 17:54:40Z, 6cda8203-a249-e411-b0cc-f8bc1246af59, $GPGGA,175438.00,4437.5829,N,12402.8843,W,1,08,1.0,27.7,M,-21.8,M,,*6F
2021-06-27 17:54:41Z, 6cda8203-a249-e411-b0cc-f8bc1246af59, $GPGGA,175440.00,4437.5828,N,12402.8843,W,1,08,1.0,27.8,M,-21.8,M,,*6E
2021-06-27 17:54:42Z, 6cda8203-a249-e411-b0cc-f8bc1246af59, $GPGGA,175441.00,4437.5827,N,12402.8844,W,1,08,1.0,27.9,M,-21.8,M,,*66
2021-06-27 17:54:44Z, 6cda8203-a249-e411-b0cc-f8bc1246af59, $GPGGA,175443.00,4437.5826,N,12402.8848,W,1,08,1.0,28.0,M,-21.8,M,,*6F
2021-06-27 17:54:45Z, 6cda8203-a249-e411-b0cc-f8bc1246af59, $GPGGA,175444.00,4437.5824,N,12402.8849,W,1,08,1.0,28.0,M,-21.8,M,,*6B
2021-06-27 17:54:47Z, 6cda8203-a249-e411-b0cc-f8bc1246af59, $GPGGA,175446.00,4437.5822,N,12402.8856,W,1,08,1.0,28.2,M,-21.8,M,,*63
2021-06-27 17:54:48Z, 6cda8203-a249-e411-b0cc-f8bc1246af59, $GPGGA,175447.00,4437.5821,N,12402.8860,W,1,08,1.0,28.3,M,-21.8,M,,*65
2021-06-27 17:54:50Z, 6cda8203-a249-e411-b0cc-f8bc1246af59, $GPGGA,175449.00,4437.5819,N,12402.8864,W,1,08,1.0,28.4,M,-21.8,M,,*63
2021-06-27 17:54:51Z, 6cda8203-a249-e411-b0cc-f8bc1246af59, $GPGGA,175450.00,4437.5819,N,12402.8867,W,1,08,1.0,28.5,M,-21.8,M,,*69
2021-06-27 17:54:53Z, 6cda8203-a249-e411-b0cc-f8bc1246af59, $GPGGA,175452.00,4437.5817,N,12402.8869,W,1,08,1.0,28.6,M,-21.8,M,,*68
2021-06-27 17:54:54Z, 6cda8203-a249-e411-b0cc-f8bc1246af59, $GPGGA,175453.00,4437.5818,N,12402.8867,W,1,08,1.0,28.7,M,-21.8,M,,*69
2021-06-27 17:54:56Z, 6cda8203-a249-e411-b0cc-f8bc1246af59, $GPGGA,175455.00,4437.5818,N,12402.8864,W,1,08,1.0,28.6,M,-21.8,M,,*6D
2021-06-27 17:54:57Z, 6cda8203-a249-e411-b0cc-f8bc1246af59, $GPGGA,175456.00,4437.5816,N,12402.8863,W,1,08,1.0,28.5,M,-21.8,M,,*64
2021-06-27 17:54:59Z, 6cda8203-a249-e411-b0cc-f8bc1246af59, $GPGGA,175458.00,4437.5815,N,12402.8862,W,1,08,1.0,28.4,M,-21.8,M,,*69
2021-06-27 17:55:00Z, 6cda8203-a249-e411-b0cc-f8bc1246af59, $GPGGA,175459.00,4437.5814,N,12402.8861,W,1,08,1.0,28.4,M,-21.8,M,,*6A
2021-06-27 17:55:02Z, 6cda8203-a249-e411-b0cc-f8bc1246af59, $GPGGA,175501.00,4437.5814,N,12402.8861,W,1,08,1.0,28.5,M,-21.8,M,,*67
2021-06-27 17:55:03Z, 6cda8203-a249-e411-b0cc-f8bc1246af59, $GPGGA,175502.00,4437.5814,N,12402.8859,W,1,08,1.0,28.5,M,-21.8,M,,*6F
2021-06-27 17:55:05Z, 6cda8203-a249-e411-b0cc-f8bc1246af59, $GPGGA,175504.00,4437.5814,N,12402.8857,W,1,08,1.0,28.5,M,-21.8,M,,*67
2021-06-27 17:55:06Z, 6cda8203-a249-e411-b0cc-f8bc1246af59, $GPGGA,175505.00,4437.5815,N,12402.8855,W,1,08,1.0,28.5,M,-21.8,M,,*65
2021-06-27 17:55:08Z, 6cda8203-a249-e411-b0cc-f8bc1246af59, $GPGGA,175507.00,4437.5814,N,12402.8851,W,1,08,1.0,28.5,M,-21.8,M,,*62
2021-06-27 17:55:09Z, 6cda8203-a249-e411-b0cc-f8bc1246af59, $GPGGA,175508.00,4437.5812,N,12402.8849,W,1,08,1.0,28.5,M,-21.8,M,,*62
2021-06-27 17:55:11Z, 6cda8203-a249-e411-b0cc-f8bc1246af59, $GPGGA,175510.00,4437.5811,N,12402.8844,W,1,08,1.0,28.6,M,-21.8,M,,*66
2021-06-27 17:55:12Z, 6cda8203-a249-e411-b0cc-f8bc1246af59, $GPGGA,175511.00,4437.5811,N,12402.8844,W,1,08,1.0,28.6,M,-21.8,M,,*67
2021-06-27 17:55:14Z, 6cda8203-a249-e411-b0cc-f8bc1246af59, $GPGGA,175513.00,4437.5811,N,12402.8847,W,1,08,1.0,28.7,M,-21.8,M,,*67
2021-06-27 17:55:15Z, 6cda8203-a249-e411-b0cc-f8bc1246af59, $GPGGA,175514.00,4437.5813,N,12402.8845,W,1,08,1.0,28.6,M,-21.8,M,,*61
2021-06-27 17:55:17Z, 6cda8203-a249-e411-b0cc-f8bc1246af59, $GPGGA,175516.00,4437.5815,N,12402.8844,W,1,08,1.0,28.6,M,-21.8,M,,*64
2021-06-27 17:55:18Z, 6cda8203-a249-e411-b0cc-f8bc1246af59, $GPGGA,175517.00,4437.5817,N,12402.8845,W,1,08,1.0,28.6,M,-21.8,M,,*66
2021-06-27 17:55:20Z, 6cda8203-a249-e411-b0cc-f8bc1246af59, $GPGGA,175519.00,4437.5816,N,12402.8843,W,1,08,1.0,28.8,M,-21.8,M,,*61
2021-06-27 17:55:21Z, 6cda8203-a249-e411-b0cc-f8bc1246af59, $GPGGA,175520.00,4437.5816,N,12402.8842,W,1,08,1.0,28.9,M,-21.8,M,,*6B
2021-06-27 17:55:23Z, 6cda8203-a249-e411-b0cc-f8bc1246af59, $GPGGA,175522.00,4437.5818,N,12402.8840,W,1,08,1.0,29.0,M,-21.8,M,,*6D
2021-06-27 17:55:24Z, 6cda8203-a249-e411-b0cc-f8bc1246af59, $GPGGA,175523.00,4437.5818,N,12402.8840,W,1,08,1.0,29.1,M,-21.8,M,,*6D
2021-06-27 17:55:26Z, 6cda8203-a249-e411-b0cc-f8bc1246af59, $GPGGA,175525.00,4437.5822,N,12402.8838,W,1,08,1.0,29.3,M,-21.8,M,,*6F
2021-06-27 17:55:27Z, 6cda8203-a249-e411-b0cc-f8bc1246af59, $GPGGA,175526.00,4437.5822,N,12402.8839,W,1,08,1.0,29.3,M,-21.8,M,,*6D
2021-06-27 17:55:29Z, 6cda8203-a249-e411-b0cc-f8bc1246af59, $GPGGA,175528.00,4437.5823,N,12402.8838,W,1,08,1.0,29.5,M,-21.8,M,,*65
2021-06-27 17:55:30Z, 6cda8203-a249-e411-b0cc-f8bc1246af59, $GPGGA,175529.00,4437.5826,N,12402.8841,W,1,08,1.0,29.6,M,-21.8,M,,*6C
2021-06-27 17:55:32Z, 6cda8203-a249-e411-b0cc-f8bc1246af59, $GPGGA,175531.00,4437.5827,N,12402.8842,W,1,08,1.0,29.7,M,-21.8,M,,*66
2021-06-27 17:55:33Z, 6cda8203-a249-e411-b0cc-f8bc1246af59, $GPGGA,175532.00,4437.5828,N,12402.8843,W,1,08,1.0,29.8,M,-21.8,M,,*64
2021-06-27 17:55:35Z, 6cda8203-a249-e411-b0cc-f8bc1246af59, $GPGGA,175534.00,4437.5828,N,12402.8848,W,1,08,1.0,29.9,M,-21.8,M,,*68
2021-06-27 17:55:36Z, 6cda8203-a249-e411-b0cc-f8bc1246af59, $GPGGA,175535.00,4437.5827,N,12402.8848,W,1,08,1.0,30.0,M,-21.8,M,,*67
2021-06-27 17:55:38Z, 6cda8203-a249-e411-b0cc-f8bc1246af59, $GPGGA,175537.00,4437.5829,N,12402.8847,W,1,08,1.0,30.1,M,-21.8,M,,*65
2021-06-27 17:55:39Z, 6cda8203-a249-e411-b0cc-f8bc1246af59, $GPGGA,175538.00,4437.5830,N,12402.8849,W,1,08,1.0,30.1,M,-21.8,M,,*6C
2021-06-27 17:55:41Z, 6cda8203-a249-e411-b0cc-f8bc1246af59, $GPGGA,175540.00,4437.5829,N,12402.8851,W,1,08,1.0,30.2,M,-21.8,M,,*61
2021-06-27 17:55:42Z, 6cda8203-a249-e411-b0cc-f8bc1246af59, $GPGGA,175541.00,4437.5829,N,12402.8848,W,1,08,1.0,30.1,M,-21.8,M,,*6B
2021-06-27 17:55:44Z, 6cda8203-a249-e411-b0cc-f8bc1246af59, $GPGGA,175543.00,4437.5828,N,12402.8845,W,1,08,1.0,30.1,M,-21.8,M,,*65
2021-06-27 17:55:45Z, 6cda8203-a249-e411-b0cc-f8bc1246af59, $GPGGA,175544.00,4437.5828,N,12402.8844,W,1,08,1.0,30.0,M,-21.8,M,,*62
2021-06-27 17:55:47Z, 6cda8203-a249-e411-b0cc-f8bc1246af59, $GPGGA,175546.00,4437.5827,N,12402.8846,W,1,08,1.0,29.9,M,-21.8,M,,*6C
2021-06-27 17:55:48Z, 6cda8203-a249-e411-b0cc-f8bc1246af59, $GPGGA,175547.00,4437.5825,N,12402.8846,W,1,08,1.0,29.8,M,-21.8,M,,*6E
2021-06-27 17:55:50Z, 6cda8203-a249-e411-b0cc-f8bc1246af59, $GPGGA,175549.00,4437.5824,N,12402.8847,W,1,08,1.0,29.7,M,-21.8,M,,*6F
2021-06-27 17:55:53Z, 6cda8203-a249-e411-b0cc-f8bc1246af59, $GPGGA,175552.00,4437.5821,N,12402.8850,W,1,08,1.0,29.5,M,-21.8,M,,*64
2021-06-27 17:55:54Z, 6cda8203-a249-e411-b0cc-f8bc1246af59, $GPGGA,175553.00,4437.5821,N,12402.8851,W,1,08,1.0,29.5,M,-21.8,M,,*64
2021-06-27 17:55:56Z, 6cda8203-a249-e411-b0cc-f8bc1246af59, $GPGGA,175555.00,4437.5819,N,12402.8855,W,1,08,1.0,29.6,M,-21.8,M,,*6E
2021-06-27 17:55:57Z, 6cda8203-a249-e411-b0cc-f8bc1246af59, $GPGGA,175556.00,4437.5820,N,12402.8853,W,1,08,1.0,29.5,M,-21.8,M,,*62
2021-06-27 17:55:59Z, 6cda8203-a249-e411-b0cc-f8bc1246af59, $GPGGA,175558.00,4437.5820,N,12402.8860,W,1,08,1.0,29.6,M,-21.8,M,,*6F
2021-06-27 17:56:00Z, 6cda8203-a249-e411-b0cc-f8bc1246af59, $GPGGA,175559.00,4437.5818,N,12402.8860,W,1,08,1.0,29.6,M,-21.8,M,,*65
2021-06-27 17:56:02Z, 6cda8203-a249-e411-b0cc-f8bc1246af59, $GPGGA,175601.00,4437.5818,N,12402.8858,W,1,08,1.0,29.7,M,-21.8,M,,*61
2021-06-27 17:56:03Z, 6cda8203-a249-e411-b0cc-f8bc1246af59, $GPGGA,175602.00,4437.5819,N,12402.8859,W,1,08,1.0,29.8,M,-21.8,M,,*6D
2021-06-27 17:56:05Z, 6cda8203-a249-e411-b0cc-f8bc1246af59, $GPGGA,175604.00,4437.5818,N,12402.8857,W,1,08,1.0,29.7,M,-21.8,M,,*6B
2021-06-27 17:56:06Z, 6cda8203-a249-e411-b0cc-f8bc1246af59, $GPGGA,175605.00,4437.5819,N,12402.8855,W,1,08,1.0,29.7,M,-21.8,M,,*69
2021-06-27 17:56:08Z, 6cda8203-a249-e411-b0cc-f8bc1246af59, $GPGGA,175607.00,4437.5821,N,12402.8860,W,1,08,1.0,29.7,M,-21.8,M,,*66
2021-06-27 17:56:09Z, 6cda8203-a249-e411-b0cc-f8bc1246af59, $GPGGA,175608.00,4437.5822,N,12402.8862,W,1,08,1.0,29.6,M,-21.8,M,,*69
2021-06-27 17:56:11Z, 6cda8203-a249-e411-b0cc-f8bc1246af59, $GPGGA,175610.00,4437.5824,N,12402.8863,W,1,08,1.0,29.4,M,-21.8,M,,*65
2021-06-27 17:56:12Z, 6cda8203-a249-e411-b0cc-f8bc1246af59, $GPGGA,175611.00,4437.5825,N,12402.8863,W,1,08,1.0,29.3,M,-21.8,M,,*62
2021-06-27 17:56:14Z, 6cda8203-a249-e411-b0cc-f8bc1246af59, $GPGGA,175613.00,4437.5828,N,12402.8861,W,1,08,1.0,29.3,M,-21.8,M,,*6F
2021-06-27 17:56:15Z, 6cda8203-a249-e411-b0cc-f8bc1246af59, $GPGGA,175614.00,4437.5829,N,12402.8863,W,1,08,1.0,29.3,M,-21.8,M,,*6B
2021-06-27 17:56:17Z, 6cda8203-a249-e411-b0cc-f8bc1246af59, $GPGGA,175616.00,4437.5829,N,12402.8865,W,1,08,1.0,29.3,M,-21.8,M,,*6F
2021-06-27 17:56:18Z, 6cda8203-a249-e411-b0cc-f8bc1246af59, $GPGGA,175617.00,4437.5828,N,12402.8866,W,1,08,1.0,29.3,M,-21.8,M,,*6C
2021-06-27 17:56:20Z, 6cda8203-a249-e411-b0cc-f8bc1246af59, $GPGGA,175619.00,4437.5830,N,12402.8866,W,1,08,1.0,29.3,M,-21.8,M,,*6B
2021-06-27 17:56:21Z, 6cda8203-a249-e411-b0cc-f8bc1246af59, $GPGGA,175620.00,4437.5831,N,12402.8866,W,1,08,1.0,29.2,M,-21.8,M,,*61
2021-06-27 17:56:23Z, 6cda8203-a249-e411-b0cc-f8bc1246af59, $GPGGA,175622.00,4437.5833,N,12402.8869,W,1,08,1.0,29.2,M,-21.8,M,,*6E
2021-06-27 17:56:24Z, 6cda8203-a249-e411-b0cc-f8bc1246af59, $GPGGA,175623.00,4437.5834,N,12402.8869,W,1,08,1.0,29.3,M,-21.8,M,,*69
2021-06-27 17:56:26Z, 6cda8203-a249-e411-b0cc-f8bc1246af59, $GPGGA,175625.00,4437.5834,N,12402.8870,W,1,08,1.0,29.3,M,-21.8,M,,*67
2021-06-27 17:56:27Z, 6cda8203-a249-e411-b0cc-f8bc1246af59, $GPGGA,175626.00,4437.5835,N,12402.8870,W,1,08,1.0,29.2,M,-21.8,M,,*64
2021-06-27 17:56:29Z, 6cda8203-a249-e411-b0cc-f8bc1246af59, $GPGGA,175628.00,4437.5838,N,12402.8872,W,1,08,1.0,29.1,M,-21.8,M,,*66
2021-06-27 17:56:30Z, 6cda8203-a249-e411-b0cc-f8bc1246af59, $GPGGA,175629.00,4437.5839,N,12402.8869,W,1,08,1.0,29.1,M,-21.8,M,,*6C
2021-06-27 17:56:32Z, 6cda8203-a249-e411-b0cc-f8bc1246af59, $GPGGA,175631.00,4437.5844,N,12402.8869,W,1,08,1.0,28.9,M,-21.8,M,,*66
2021-06-27 17:56:33Z, 6cda8203-a249-e411-b0cc-f8bc1246af59, $GPGGA,175632.00,4437.5845,N,12402.8869,W,1,08,1.0,28.8,M,-21.8,M,,*65
2021-06-27 17:56:35Z, 6cda8203-a249-e411-b0cc-f8bc1246af59, $GPGGA,175634.00,4437.5847,N,12402.8873,W,1,08,1.0,28.6,M,-21.8,M,,*64
2021-06-27 17:56:36Z, 6cda8203-a249-e411-b0cc-f8bc1246af59, $GPGGA,175635.00,4437.5848,N,12402.8875,W,1,08,1.0,28.6,M,-21.8,M,,*6C
2021-06-27 17:56:38Z, 6cda8203-a249-e411-b0cc-f8bc1246af59, $GPGGA,175637.00,4437.5846,N,12402.8874,W,1,08,1.0,28.7,M,-21.8,M,,*60
2021-06-27 17:56:39Z, 6cda8203-a249-e411-b0cc-f8bc1246af59, $GPGGA,175638.00,4437.5844,N,12402.8873,W,1,08,1.0,28.7,M,-21.8,M,,*6A
2021-06-27 17:56:40Z, 6cda8203-a249-e411-b0cc-f8bc1246af59, $GPGGA,175639.00,4437.5845,N,12402.8873,W,1,08,1.0,28.6,M,-21.8,M,,*6B
2021-06-27 17:56:41Z, 6cda8203-a249-e411-b0cc-f8bc1246af59, $GPGGA,175640.00,4437.5844,N,12402.8870,W,1,08,1.0,28.6,M,-21.8,M,,*67
2021-06-27 17:56:42Z, 6cda8203-a249-e411-b0cc-f8bc1246af59, $GPGGA,175641.00,4437.5844,N,12402.8869,W,1,08,1.0,28.5,M,-21.8,M,,*6D
2021-06-27 17:56:43Z, 6cda8203-a249-e411-b0cc-f8bc1246af59, $GPGGA,175642.00,4437.5845,N,12402.8867,W,1,08,1.0,28.5,M,-21.8,M,,*61
2021-06-27 17:56:45Z, 6cda8203-a249-e411-b0cc-f8bc1246af59, $GPGGA,175643.00,4437.5845,N,12402.8867,W,1,08,1.0,28.5,M,-21.8,M,,*60
2021-06-27 17:56:46Z, 6cda8203-a249-e411-b0cc-f8bc1246af59, $GPGGA,175645.00,4437.5844,N,12402.8867,W,1,08,1.0,28.4,M,-21.8,M,,*66
2021-06-27 17:56:47Z, 6cda8203-a249-e411-b0cc-f8bc1246af59, $GPGGA,175646.00,4437.5844,N,12402.8866,W,1,08,1.0,28.3,M,-21.8,M,,*63
2021-06-27 17:56:49Z, 6cda8203-a249-e411-b0cc-f8bc1246af59, $GPGGA,175648.00,4437.5842,N,12402.8866,W,1,08,1.0,28.2,M,-21.8,M,,*6A
2021-06-27 17:56:50Z, 6cda8203-a249-e411-b0cc-f8bc1246af59, $GPGGA,175649.00,4437.5842,N,12402.8867,W,1,08,1.0,28.3,M,-21.8,M,,*6B
2021-06-27 17:56:52Z, 6cda8203-a249-e411-b0cc-f8bc1246af59, $GPGGA,175651.00,4437.5840,N,12402.8863,W,1,08,1.0,28.1,M,-21.8,M,,*66
2021-06-27 17:56:53Z, 6cda8203-a249-e411-b0cc-f8bc1246af59, $GPGGA,175652.00,4437.5839,N,12402.8860,W,1,08,1.0,28.2,M,-21.8,M,,*6B
2021-06-27 17:56:55Z, 6cda8203-a249-e411-b0cc-f8bc1246af59, $GPGGA,175654.00,4437.5838,N,12402.8857,W,1,08,1.0,28.2,M,-21.8,M,,*68
2021-06-27 17:56:56Z, 6cda8203-a249-e411-b0cc-f8bc1246af59, $GPGGA,175655.00,4437.5837,N,12402.8858,W,1,08,1.0,28.1,M,-21.8,M,,*6A
2021-06-27 17:56:58Z, 6cda8203-a249-e411-b0cc-f8bc1246af59, $GPGGA,175657.00,4437.5837,N,12402.8857,W,1,08,1.0,28.0,M,-21.8,M,,*66
2021-06-27 17:56:59Z, 6cda8203-a249-e411-b0cc-f8bc1246af59, $GPGGA,175658.00,4437.5838,N,12402.8860,W,1,08,1.0,28.0,M,-21.8,M,,*62
2021-06-27 17:57:01Z, 6cda8203-a249-e411-b0cc-f8bc1246af59, $GPGGA,175700.00,4437.5838,N,12402.8858,W,1,08,1.0,27.9,M,-21.8,M,,*63
2021-06-27 17:57:02Z, 6cda8203-a249-e411-b0cc-f8bc1246af59, $GPGGA,175701.00,4437.5839,N,12402.8858,W,1,08,1.0,27.9,M,-21.8,M,,*63
2021-06-27 17:57:04Z, 6cda8203-a249-e411-b0cc-f8bc1246af59, $GPGGA,175703.00,4437.5838,N,12402.8855,W,1,08,1.0,28.1,M,-21.8,M,,*6A
2021-06-27 17:57:05Z, 6cda8203-a249-e411-b0cc-f8bc1246af59, $GPGGA,175704.00,4437.5839,N,12402.8853,W,1,08,1.0,28.1,M,-21.8,M,,*6A
2021-06-27 17:57:07Z, 6cda8203-a249-e411-b0cc-f8bc1246af59, $GPGGA,175706.00,4437.5842,N,12402.8853,W,1,08,1.0,27.9,M,-21.8,M,,*63
2021-06-27 17:57:08Z, 6cda8203-a249-e411-b0cc-f8bc1246af59, $GPGGA,175707.00,4437.5842,N,12402.8853,W,1,08,1.0,27.9,M,-21.8,M,,*62
2021-06-27 17:57:10Z, 6cda8203-a249-e411-b0cc-f8bc1246af59, $GPGGA,175709.00,4437.5842,N,12402.8853,W,1,08,1.0,27.9,M,-21.8,M,,*6C
2021-06-27 17:57:11Z, 6cda8203-a249-e411-b0cc-f8bc1246af59, $GPGGA,175710.00,4437.5843,N,12402.8852,W,1,08,1.0,27.8,M,-21.8,M,,*65
2021-06-27 17:57:13Z, 6cda8203-a249-e411-b0cc-f8bc1246af59, $GPGGA,175712.00,4437.5845,N,12402.8855,W,1,08,1.0,27.8,M,-21.8,M,,*66
2021-06-27 17:57:14Z, 6cda8203-a249-e411-b0cc-f8bc1246af59, $GPGGA,175713.00,4437.5844,N,12402.8856,W,1,08,1.0,27.8,M,-21.8,M,,*65
2021-06-27 17:57:16Z, 6cda8203-a249-e411-b0cc-f8bc1246af59, $GPGGA,175715.00,4437.5849,N,12402.8854,W,1,08,1.0,27.2,M,-21.8,M,,*66
2021-06-27 17:57:17Z, 6cda8203-a249-e411-b0cc-f8bc1246af59, $GPGGA,175716.00,4437.5850,N,12402.8854,W,1,08,1.0,27.1,M,-21.8,M,,*6E
2021-06-27 17:57:19Z, 6cda8203-a249-e411-b0cc-f8bc1246af59, $GPGGA,175718.00,4437.5852,N,12402.8853,W,1,08,1.0,26.9,M,-21.8,M,,*6C
2021-06-27 17:57:20Z, 6cda8203-a249-e411-b0cc-f8bc1246af59, $GPGGA,175719.00,4437.5852,N,12402.8852,W,1,08,1.0,26.9,M,-21.8,M,,*6C
2021-06-27 17:57:22Z, 6cda8203-a249-e411-b0cc-f8bc1246af59, $GPGGA,175721.00,4437.5850,N,12402.8848,W,1,08,1.0,26.8,M,-21.8,M,,*6F
2021-06-27 17:57:23Z, 6cda8203-a249-e411-b0cc-f8bc1246af59, $GPGGA,175722.00,4437.5851,N,12402.8849,W,1,08,1.0,26.8,M,-21.8,M,,*6C
2021-06-27 17:57:25Z, 6cda8203-a249-e411-b0cc-f8bc1246af59, $GPGGA,175724.00,4437.5852,N,12402.8848,W,1,08,1.0,26.8,M,-21.8,M,,*68
2021-06-27 17:57:26Z, 6cda8203-a249-e411-b0cc-f8bc1246af59, $GPGGA,175725.00,4437.5854,N,12402.8850,W,1,08,1.0,26.6,M,-21.8,M,,*68
2021-06-27 17:57:28Z, 6cda8203-a249-e411-b0cc-f8bc1246af59, $GPGGA,175727.00,4437.5853,N,12402.8847,W,1,08,1.0,26.5,M,-21.8,M,,*68
2021-06-27 17:57:29Z, 6cda8203-a249-e411-b0cc-f8bc1246af59, $GPGGA,175728.00,4437.5854,N,12402.8846,W,1,08,1.0,26.4,M,-21.8,M,,*60
2021-06-27 17:57:31Z, 6cda8203-a249-e411-b0cc-f8bc1246af59, $GPGGA,175730.00,4437.5856,N,12402.8846,W,1,08,1.0,26.4,M,-21.8,M,,*6B
2021-06-27 17:57:32Z, 6cda8203-a249-e411-b0cc-f8bc1246af59, $GPGGA,175731.00,4437.5855,N,12402.8845,W,1,08,1.0,26.4,M,-21.8,M,,*6A
2021-06-27 17:57:34Z, 6cda8203-a249-e411-b0cc-f8bc1246af59, $GPGGA,175733.00,4437.5857,N,12402.8844,W,1,08,1.0,26.3,M,-21.8,M,,*6C
2021-06-27 17:57:35Z, 6cda8203-a249-e411-b0cc-f8bc1246af59, $GPGGA,175734.00,4437.5859,N,12402.8845,W,1,08,1.0,26.3,M,-21.8,M,,*64
2021-06-27 17:57:37Z, 6cda8203-a249-e411-b0cc-f8bc1246af59, $GPGGA,175736.00,4437.5862,N,12402.8841,W,1,08,1.0,26.2,M,-21.8,M,,*6B
2021-06-27 17:57:38Z, 6cda8203-a249-e411-b0cc-f8bc1246af59, $GPGGA,175737.00,4437.5864,N,12402.8842,W,1,08,1.0,26.2,M,-21.8,M,,*6F
2021-06-27 17:57:40Z, 6cda8203-a249-e411-b0cc-f8bc1246af59, $GPGGA,175739.00,4437.5864,N,12402.8839,W,1,08,1.0,26.0,M,-21.8,M,,*6F
2021-06-27 17:57:41Z, 6cda8203-a249-e411-b0cc-f8bc1246af59, $GPGGA,175740.00,4437.5865,N,12402.8842,W,1,08,1.0,26.0,M,-21.8,M,,*6C
2021-06-27 17:57:43Z, 6cda8203-a249-e411-b0cc-f8bc1246af59, $GPGGA,175742.00,4437.5865,N,12402.8841,W,1,08,1.0,26.0,M,-21.8,M,,*6D
2021-06-27 17:57:44Z, 6cda8203-a249-e411-b0cc-f8bc1246af59, $GPGGA,175743.00,4437.5865,N,12402.8843,W,1,08,1.0,26.0,M,-21.8,M,,*6E
2021-06-27 17:57:46Z, 6cda8203-a249-e411-b0cc-f8bc1246af59, $GPGGA,175745.00,4437.5866,N,12402.8843,W,1,08,1.0,26.1,M,-21.8,M,,*6A
2021-06-27 17:57:47Z, 6cda8203-a249-e411-b0cc-f8bc1246af59, $GPGGA,175746.00,4437.5866,N,12402.8844,W,1,08,1.0,26.1,M,-21.8,M,,*6E
2021-06-27 17:57:49Z, 6cda8203-a249-e411-b0cc-f8bc1246af59, $GPGGA,175748.00,4437.5866,N,12402.8848,W,1,08,1.0,26.3,M,-21.8,M,,*6E
2021-06-27 17:57:50Z, 6cda8203-a249-e411-b0cc-f8bc1246af59, $GPGGA,175749.00,4437.5869,N,12402.8850,W,1,08,1.0,26.0,M,-21.8,M,,*6A
2021-06-27 17:57:52Z, 6cda8203-a249-e411-b0cc-f8bc1246af59, $GPGGA,175751.00,4437.5870,N,12402.8853,W,1,08,1.0,26.2,M,-21.8,M,,*6A
2021-06-27 17:57:53Z, 6cda8203-a249-e411-b0cc-f8bc1246af59, $GPGGA,175752.00,4437.5870,N,12402.8852,W,1,08,1.0,26.1,M,-21.8,M,,*6B
2021-06-27 17:57:55Z, 6cda8203-a249-e411-b0cc-f8bc1246af59, $GPGGA,175754.00,4437.5872,N,12402.8851,W,1,08,1.0,26.0,M,-21.8,M,,*6D
2021-06-27 17:57:56Z, 6cda8203-a249-e411-b0cc-f8bc1246af59, $GPGGA,175755.00,4437.5876,N,12402.8848,W,1,08,1.0,25.7,M,-21.8,M,,*64
2021-06-27 17:57:58Z, 6cda8203-a249-e411-b0cc-f8bc1246af59, $GPGGA,175757.00,4437.5877,N,12402.8848,W,1,08,1.0,25.3,M,-21.8,M,,*63
2021-06-27 17:57:59Z, 6cda8203-a249-e411-b0cc-f8bc1246af59, $GPGGA,175758.00,4437.5876,N,12402.8850,W,1,08,1.0,25.3,M,-21.8,M,,*64
2021-06-27 17:58:01Z, 6cda8203-a249-e411-b0cc-f8bc1246af59, $GPGGA,175800.00,4437.5873,N,12402.8851,W,1,08,1.0,24.9,M,-21.8,M,,*69
2021-06-27 17:58:02Z, 6cda8203-a249-e411-b0cc-f8bc1246af59, $GPGGA,175801.00,4437.5872,N,12402.8850,W,1,08,1.0,24.7,M,-21.8,M,,*66
2021-06-27 17:58:04Z, 6cda8203-a249-e411-b0cc-f8bc1246af59, $GPGGA,175803.00,4437.5860,N,12402.8847,W,1,08,1.0,24.6,M,-21.8,M,,*60
2021-06-27 17:58:05Z, 6cda8203-a249-e411-b0cc-f8bc1246af59, $GPGGA,175804.00,4437.5857,N,12402.8845,W,1,08,1.0,24.6,M,-21.8,M,,*61
2021-06-27 17:58:07Z, 6cda8203-a249-e411-b0cc-f8bc1246af59, $GPGGA,175806.00,4437.5851,N,12402.8845,W,1,08,1.0,24.4,M,-21.8,M,,*67
2021-06-27 17:58:08Z, 6cda8203-a249-e411-b0cc-f8bc1246af59, $GPGGA,175807.00,4437.5851,N,12402.8846,W,1,08,1.0,24.3,M,-21.8,M,,*62
2021-06-27 17:58:10Z, 6cda8203-a249-e411-b0cc-f8bc1246af59, $GPGGA,175809.00,4437.5849,N,12402.8844,W,1,08,1.0,24.1,M,-21.8,M,,*65
2021-06-27 17:58:11Z, 6cda8203-a249-e411-b0cc-f8bc1246af59, $GPGGA,175810.00,4437.5850,N,12402.8843,W,1,08,1.0,24.1,M,-21.8,M,,*62
2021-06-27 17:58:13Z, 6cda8203-a249-e411-b0cc-f8bc1246af59, $GPGGA,175812.00,4437.5851,N,12402.8844,W,1,08,1.0,24.0,M,-21.8,M,,*67
2021-06-27 17:58:14Z, 6cda8203-a249-e411-b0cc-f8bc1246af59, $GPGGA,175813.00,4437.5851,N,12402.8846,W,1,08,1.0,24.0,M,-21.8,M,,*64
2021-06-27 17:58:16Z, 6cda8203-a249-e411-b0cc-f8bc1246af59, $GPGGA,175815.00,4437.5851,N,12402.8849,W,1,08,1.0,24.1,M,-21.8,M,,*6C
2021-06-27 17:58:17Z, 6cda8203-a249-e411-b0cc-f8bc1246af59, $GPGGA,175816.00,4437.5851,N,12402.8853,W,1,08,1.0,24.1,M,-21.8,M,,*64
2021-06-27 17:58:19Z, 6cda8203-a249-e411-b0cc-f8bc1246af59, $GPGGA,175818.00,4437.5850,N,12402.8855,W,1,08,1.0,24.1,M,-21.8,M,,*6D
2021-06-27 17:58:20Z, 6cda8203-a249-e411-b0cc-f8bc1246af59, $GPGGA,175819.00,4437.5851,N,12402.8858,W,1,08,1.0,24.0,M,-21.8,M,,*61
2021-06-27 17:58:22Z, 6cda8203-a249-e411-b0cc-f8bc1246af59, $GPGGA,175821.00,4437.5852,N,12402.8845,W,1,08,1.0,23.7,M,-21.8,M,,*65
2021-06-27 17:58:23Z, 6cda8203-a249-e411-b0cc-f8bc1246af59, $GPGGA,175822.00,4437.5852,N,12402.8845,W,1,08,1.0,23.6,M,-21.8,M,,*67
2021-06-27 17:58:25Z, 6cda8203-a249-e411-b0cc-f8bc1246af59, $GPGGA,175824.00,4437.5852,N,12402.8843,W,1,08,1.0,23.5,M,-21.8,M,,*64
2021-06-27 17:58:26Z, 6cda8203-a249-e411-b0cc-f8bc1246af59, $GPGGA,175825.00,4437.5852,N,12402.8843,W,1,08,1.0,23.5,M,-21.8,M,,*65
2021-06-27 17:58:28Z, 6cda8203-a249-e411-b0cc-f8bc1246af59, $GPGGA,175827.00,4437.5853,N,12402.8843,W,1,08,1.0,23.5,M,-21.8,M,,*66
2021-06-27 17:58:29Z, 6cda8203-a249-e411-b0cc-f8bc1246af59, $GPGGA,175828.00,4437.5852,N,12402.8843,W,1,08,1.0,23.5,M,-21.8,M,,*68
2021-06-27 17:58:31Z, 6cda8203-a249-e411-b0cc-f8bc1246af59, $GPGGA,175830.00,4437.5841,N,12402.8855,W,1,08,1.0,23.3,M,-21.8,M,,*62
2021-06-27 17:58:32Z, 6cda8203-a249-e411-b0cc-f8bc1246af59, $GPGGA,175831.00,4437.5840,N,12402.8854,W,1,08,1.0,23.3,M,-21.8,M,,*63
2021-06-27 17:58:34Z, 6cda8203-a249-e411-b0cc-f8bc1246af59, $GPGGA,175833.00,4437.5840,N,12402.8854,W,1,08,1.0,23.3,M,-21.8,M,,*61
2021-06-27 17:58:35Z, 6cda8203-a249-e411-b0cc-f8bc1246af59, $GPGGA,175834.00,4437.5839,N,12402.8854,W,1,08,1.0,23.3,M,-21.8,M,,*68
2021-06-27 17:58:37Z, 6cda8203-a249-e411-b0cc-f8bc1246af59, $GPGGA,175836.00,4437.5838,N,12402.8854,W,1,08,1.0,23.3,M,-21.8,M,,*6B
2021-06-27 17:58:38Z, 6cda8203-a249-e411-b0cc-f8bc1246af59, $GPGGA,175837.00,4437.5838,N,12402.8854,W,1,08,1.0,23.3,M,-21.8,M,,*6A
2021-06-27 17:58:40Z, 6cda8203-a249-e411-b0cc-f8bc1246af59, $GPGGA,175839.00,4437.5838,N,12402.8853,W,1,08,1.0,23.3,M,-21.8,M,,*63
2021-06-27 17:58:41Z, 6cda8203-a249-e411-b0cc-f8bc1246af59, $GPGGA,175840.00,4437.5835,N,12402.8849,W,1,08,1.0,23.2,M,-21.8,M,,*6A
2021-06-27 17:58:43Z, 6cda8203-a249-e411-b0cc-f8bc1246af59, $GPGGA,175842.00,4437.5844,N,12402.8839,W,1,08,1.0,22.7,M,-21.8,M,,*6D
2021-06-27 17:58:44Z, 6cda8203-a249-e411-b0cc-f8bc1246af59, $GPGGA,175843.00,4437.5845,N,12402.8838,W,1,08,1.0,22.6,M,-21.8,M,,*6D
2021-06-27 17:58:45Z, 6cda8203-a249-e411-b0cc-f8bc1246af59, $GPGGA,175844.00,4437.5846,N,12402.8836,W,1,08,1.0,22.5,M,-21.8,M,,*64
2021-06-27 17:58:46Z, 6cda8203-a249-e411-b0cc-f8bc1246af59, $GPGGA,175845.00,4437.5846,N,12402.8835,W,1,08,1.0,22.5,M,-21.8,M,,*66
2021-06-27 17:58:47Z, 6cda8203-a249-e411-b0cc-f8bc1246af59, $GPGGA,175846.00,4437.5845,N,12402.8835,W,1,08,1.0,22.5,M,-21.8,M,,*66
2021-06-27 17:58:48Z, 6cda8203-a249-e411-b0cc-f8bc1246af59, $GPGGA,175847.00,4437.5845,N,12402.8835,W,1,08,1.0,22.5,M,-21.8,M,,*67
2021-06-27 17:58:50Z, 6cda8203-a249-e411-b0cc-f8bc1246af59, $GPGGA,175848.00,4437.5845,N,12402.8834,W,1,08,1.0,22.4,M,-21.8,M,,*68
2021-06-27 17:58:51Z, 6cda8203-a249-e411-b0cc-f8bc1246af59, $GPGGA,175850.00,4437.5845,N,12402.8833,W,1,08,1.0,22.4,M,-21.8,M,,*66
2021-06-27 17:58:52Z, 6cda8203-a249-e411-b0cc-f8bc1246af59, $GPGGA,175851.00,4437.5844,N,12402.8833,W,1,08,1.0,22.5,M,-21.8,M,,*67
2021-06-27 17:58:54Z, 6cda8203-a249-e411-b0cc-f8bc1246af59, $GPGGA,175853.00,4437.5844,N,12402.8833,W,1,08,1.0,22.5,M,-21.8,M,,*65
2021-06-27 17:58:55Z, 6cda8203-a249-e411-b0cc-f8bc1246af59, $GPGGA,175854.00,4437.5846,N,12402.8836,W,1,08,1.0,22.6,M,-21.8,M,,*66
2021-06-27 17:58:57Z, 6cda8203-a249-e411-b0cc-f8bc1246af59, $GPGGA,175856.00,4437.5847,N,12402.8837,W,1,08,1.0,22.7,M,-21.8,M,,*65
2021-06-27 17:58:58Z, 6cda8203-a249-e411-b0cc-f8bc1246af59, $GPGGA,175857.00,4437.5847,N,12402.8839,W,1,08,1.0,22.6,M,-21.8,M,,*6B
2021-06-27 17:59:00Z, 6cda8203-a249-e411-b0cc-f8bc1246af59, $GPGGA,175859.00,4437.5850,N,12402.8844,W,1,08,1.0,22.7,M,-21.8,M,,*68
2021-06-27 17:59:01Z, 6cda8203-a249-e411-b0cc-f8bc1246af59, $GPGGA,175900.00,4437.5850,N,12402.8846,W,1,08,1.0,22.9,M,-21.8,M,,*69
2021-06-27 17:59:03Z, 6cda8203-a249-e411-b0cc-f8bc1246af59, $GPGGA,175902.00,4437.5850,N,12402.8835,W,1,08,1.0,24.2,M,-21.8,M,,*62
2021-06-27 17:59:04Z, 6cda8203-a249-e411-b0cc-f8bc1246af59, $GPGGA,175903.00,4437.5853,N,12402.8841,W,1,08,1.0,24.4,M,-21.8,M,,*65
2021-06-27 17:59:06Z, 6cda8203-a249-e411-b0cc-f8bc1246af59, $GPGGA,175905.00,4437.5859,N,12402.8840,W,1,08,1.0,25.3,M,-21.8,M,,*6E
2021-06-27 17:59:07Z, 6cda8203-a249-e411-b0cc-f8bc1246af59, $GPGGA,175906.00,4437.5860,N,12402.8842,W,1,08,1.0,25.3,M,-21.8,M,,*65
2021-06-27 17:59:09Z, 6cda8203-a249-e411-b0cc-f8bc1246af59, $GPGGA,175908.00,4437.5860,N,12402.8847,W,1,08,1.0,25.2,M,-21.8,M,,*6F
2021-06-27 17:59:10Z, 6cda8203-a249-e411-b0cc-f8bc1246af59, $GPGGA,175909.00,4437.5860,N,12402.8848,W,1,08,1.0,24.9,M,-21.8,M,,*6B
2021-06-27 17:59:12Z, 6cda8203-a249-e411-b0cc-f8bc1246af59, $GPGGA,175911.00,4437.5858,N,12402.8849,W,1,08,1.0,25.0,M,-21.8,M,,*60
2021-06-27 17:59:13Z, 6cda8203-a249-e411-b0cc-f8bc1246af59, $GPGGA,175912.00,4437.5859,N,12402.8850,W,1,08,1.0,25.0,M,-21.8,M,,*6A
2021-06-27 17:59:15Z, 6cda8203-a249-e411-b0cc-f8bc1246af59, $GPGGA,175914.00,4437.5857,N,12402.8853,W,1,08,1.0,25.1,M,-21.8,M,,*60
2021-06-27 17:59:16Z, 6cda8203-a249-e411-b0cc-f8bc1246af59, $GPGGA,175915.00,4437.5855,N,12402.8851,W,1,08,1.0,25.2,M,-21.8,M,,*62
2021-06-27 17:59:18Z, 6cda8203-a249-e411-b0cc-f8bc1246af59, $GPGGA,175917.00,4437.5853,N,12402.8850,W,1,08,1.0,25.4,M,-21.8,M,,*61
2021-06-27 17:59:19Z, 6cda8203-a249-e411-b0cc-f8bc1246af59, $GPGGA,175918.00,4437.5853,N,12402.8850,W,1,08,1.0,25.5,M,-21.8,M,,*6F
2021-06-27 17:59:21Z, 6cda8203-a249-e411-b0cc-f8bc1246af59, $GPGGA,175920.00,4437.5851,N,12402.8851,W,1,08,1.0,25.6,M,-21.8,M,,*64
2021-06-27 17:59:22Z, 6cda8203-a249-e411-b0cc-f8bc1246af59, $GPGGA,175921.00,4437.5851,N,12402.8852,W,1,08,1.0,25.6,M,-21.8,M,,*66
2021-06-27 17:59:24Z, 6cda8203-a249-e411-b0cc-f8bc1246af59, $GPGGA,175923.00,4437.5851,N,12402.8854,W,1,08,1.0,25.5,M,-21.8,M,,*61
2021-06-27 17:59:25Z, 6cda8203-a249-e411-b0cc-f8bc1246af59, $GPGGA,175924.00,4437.5851,N,12402.8853,W,1,08,1.0,25.4,M,-21.8,M,,*60
2021-06-27 17:59:27Z, 6cda8203-a249-e411-b0cc-f8bc1246af59, $GPGGA,175926.00,4437.5854,N,12402.8855,W,1,08,1.0,25.1,M,-21.8,M,,*64
2021-06-27 17:59:28Z, 6cda8203-a249-e411-b0cc-f8bc1246af59, $GPGGA,175927.00,4437.5855,N,12402.8856,W,1,08,1.0,25.0,M,-21.8,M,,*66
2021-06-27 17:59:30Z, 6cda8203-a249-e411-b0cc-f8bc1246af59, $GPGGA,175929.00,4437.5854,N,12402.8860,W,1,08,1.0,24.8,M,-21.8,M,,*65
2021-06-27 17:59:31Z, 6cda8203-a249-e411-b0cc-f8bc1246af59, $GPGGA,175930.00,4437.5856,N,12402.8860,W,1,08,1.0,24.8,M,-21.8,M,,*6F
2021-06-27 17:59:33Z, 6cda8203-a249-e411-b0cc-f8bc1246af59, $GPGGA,175932.00,4437.5858,N,12402.8861,W,1,08,1.0,24.5,M,-21.8,M,,*6F
2021-06-27 17:59:34Z, 6cda8203-a249-e411-b0cc-f8bc1246af59, $GPGGA,175933.00,4437.5860,N,12402.8862,W,1,08,1.0,24.4,M,-21.8,M,,*67
2021-06-27 17:59:36Z, 6cda8203-a249-e411-b0cc-f8bc1246af59, $GPGGA,175935.00,4437.5862,N,12402.8864,W,1,08,1.0,24.3,M,-21.8,M,,*62
2021-06-27 17:59:37Z, 6cda8203-a249-e411-b0cc-f8bc1246af59, $GPGGA,175936.00,4437.5863,N,12402.8868,W,1,08,1.0,24.1,M,-21.8,M,,*6E
2021-06-27 17:59:39Z, 6cda8203-a249-e411-b0cc-f8bc1246af59, $GPGGA,175938.00,4437.5863,N,12402.8869,W,1,08,1.0,23.8,M,-21.8,M,,*6F
2021-06-27 17:59:40Z, 6cda8203-a249-e411-b0cc-f8bc1246af59, $GPGGA,175939.00,4437.5864,N,12402.8871,W,1,08,1.0,23.6,M,-21.8,M,,*6E
2021-06-27 17:59:42Z, 6cda8203-a249-e411-b0cc-f8bc1246af59, $GPGGA,175941.00,4437.5865,N,12402.8872,W,1,08,1.0,23.5,M,-21.8,M,,*60
2021-06-27 17:59:43Z, 6cda8203-a249-e411-b0cc-f8bc1246af59, $GPGGA,175942.00,4437.5865,N,12402.8871,W,1,08,1.0,23.3,M,-21.8,M,,*66
2021-06-27 17:59:45Z, 6cda8203-a249-e411-b0cc-f8bc1246af59, $GPGGA,175944.00,4437.5865,N,12402.8874,W,1,08,1.0,23.2,M,-21.8,M,,*64
2021-06-27 17:59:46Z, 6cda8203-a249-e411-b0cc-f8bc1246af59, $GPGGA,175945.00,4437.5864,N,12402.8874,W,1,08,1.0,23.1,M,-21.8,M,,*67
2021-06-27 17:59:48Z, 6cda8203-a249-e411-b0cc-f8bc1246af59, $GPGGA,175947.00,4437.5863,N,12402.8873,W,1,08,1.0,23.1,M,-21.8,M,,*65
2021-06-27 17:59:49Z, 6cda8203-a249-e411-b0cc-f8bc1246af59, $GPGGA,175948.00,4437.5862,N,12402.8873,W,1,08,1.0,23.1,M,-21.8,M,,*6B
2021-06-27 17:59:51Z, 6cda8203-a249-e411-b0cc-f8bc1246af59, $GPGGA,175950.00,4437.5861,N,12402.8873,W,1,08,1.0,23.2,M,-21.8,M,,*62
2021-06-27 17:59:52Z, 6cda8203-a249-e411-b0cc-f8bc1246af59, $GPGGA,175951.00,4437.5860,N,12402.8871,W,1,08,1.0,23.2,M,-21.8,M,,*60
2021-06-27 17:59:54Z, 6cda8203-a249-e411-b0cc-f8bc1246af59, $GPGGA,175953.00,4437.5858,N,12402.8868,W,1,08,1.0,23.3,M,-21.8,M,,*60
2021-06-27 17:59:55Z, 6cda8203-a249-e411-b0cc-f8bc1246af59, $GPGGA,175954.00,4437.5859,N,12402.8864,W,1,08,1.0,23.3,M,-21.8,M,,*6A
2021-06-27 17:59:57Z, 6cda8203-a249-e411-b0cc-f8bc1246af59, $GPGGA,175956.00,4437.5854,N,12402.8876,W,1,08,1.0,24.8,M,-21.8,M,,*6A
2021-06-27 17:59:58Z, 6cda8203-a249-e411-b0cc-f8bc1246af59, $GPGGA,175957.00,4437.5854,N,12402.8875,W,1,08,1.0,25.0,M,-21.8,M,,*61
2021-06-27 18:00:00Z, 6cda8203-a249-e411-b0cc-f8bc1246af59, $GPGGA,175959.00,4437.5853,N,12402.8875,W,1,08,1.0,25.2,M,-21.8,M,,*6A
2021-06-27 18:00:01Z, 6cda8203-a249-e411-b0cc-f8bc1246af59, $GPGGA,180000.00,4437.5856,N,12402.8874,W,1,08,1.0,25.2,M,-21.8,M,,*61
2021-06-27 18:00:03Z, 6cda8203-a249-e411-b0cc-f8bc1246af59, $GPGGA,180002.00,4437.5858,N,12402.8875,W,1,08,1.0,25.4,M,-21.8,M,,*6A
2021-06-27 18:00:04Z, 6cda8203-a249-e411-b0cc-f8bc1246af59, $GPGGA,180003.00,4437.5857,N,12402.8875,W,1,08,1.0,25.5,M,-21.8,M,,*65
2021-06-27 18:00:06Z, 6cda8203-a249-e411-b0cc-f8bc1246af59, $GPGGA,180005.00,4437.5858,N,12402.8870,W,1,08,1.0,25.4,M,-21.8,M,,*68
2021-06-27 18:00:07Z, 6cda8203-a249-e411-b0cc-f8bc1246af59, $GPGGA,180006.00,4437.5857,N,12402.8871,W,1,08,1.0,25.4,M,-21.8,M,,*65
2021-06-27 18:00:09Z, 6cda8203-a249-e411-b0cc-f8bc1246af59, $GPGGA,180008.00,4437.5855,N,12402.8871,W,1,08,1.0,25.2,M,-21.8,M,,*6F
2021-06-27 18:00:10Z, 6cda8203-a249-e411-b0cc-f8bc1246af59, $GPGGA,180009.00,4437.5854,N,12402.8870,W,1,08,1.0,25.2,M,-21.8,M,,*6E
2021-06-27 18:00:12Z, 6cda8203-a249-e411-b0cc-f8bc1246af59, $GPGGA,180011.00,4437.5853,N,12402.8869,W,1,08,1.0,24.9,M,-21.8,M,,*62
2021-06-27 18:00:13Z, 6cda8203-a249-e411-b0cc-f8bc1246af59, $GPGGA,180012.00,4437.5855,N,12402.8864,W,1,08,1.0,24.6,M,-21.8,M,,*65
2021-06-27 18:00:15Z, 6cda8203-a249-e411-b0cc-f8bc1246af59, $GPGGA,180014.00,4437.5851,N,12402.8862,W,1,08,1.0,24.3,M,-21.8,M,,*64
2021-06-27 18:00:16Z, 6cda8203-a249-e411-b0cc-f8bc1246af59, $GPGGA,180015.00,4437.5848,N,12402.8860,W,1,08,1.0,24.1,M,-21.8,M,,*6D
2021-06-27 18:00:18Z, 6cda8203-a249-e411-b0cc-f8bc1246af59, $GPGGA,180017.00,4437.5842,N,12402.8860,W,1,08,1.0,23.8,M,-21.8,M,,*6B
2021-06-27 18:00:19Z, 6cda8203-a249-e411-b0cc-f8bc1246af59, $GPGGA,180018.00,4437.5839,N,12402.8858,W,1,08,1.0,23.6,M,-21.8,M,,*6D
2021-06-27 18:00:21Z, 6cda8203-a249-e411-b0cc-f8bc1246af59, $GPGGA,180020.00,4437.5832,N,12402.8854,W,1,08,1.0,23.3,M,-21.8,M,,*64
2021-06-27 18:00:22Z, 6cda8203-a249-e411-b0cc-f8bc1246af59, $GPGGA,180021.00,4437.5829,N,12402.8853,W,1,08,1.0,23.1,M,-21.8,M,,*6A
2021-06-27 18:00:24Z, 6cda8203-a249-e411-b0cc-f8bc1246af59, $GPGGA,180023.00,4437.5831,N,12402.8851,W,1,08,1.0,23.0,M,-21.8,M,,*62
2021-06-27 18:00:25Z, 6cda8203-a249-e411-b0cc-f8bc1246af59, $GPGGA,180024.00,4437.5833,N,12402.8851,W,1,08,1.0,23.0,M,-21.8,M,,*67
2021-06-27 18:00:27Z, 6cda8203-a249-e411-b0cc-f8bc1246af59, $GPGGA,180026.00,4437.5833,N,12402.8852,W,1,08,1.0,22.8,M,-21.8,M,,*6F
2021-06-27 18:00:28Z, 6cda8203-a249-e411-b0cc-f8bc1246af59, $GPGGA,180027.00,4437.5834,N,12402.8852,W,1,08,1.0,22.8,M,-21.8,M,,*69
2021-06-27 18:00:30Z, 6cda8203-a249-e411-b0cc-f8bc1246af59, $GPGGA,180029.00,4437.5834,N,12402.8851,W,1,08,1.0,22.8,M,-21.8,M,,*64
2021-06-27 18:00:31Z, 6cda8203-a249-e411-b0cc-f8bc1246af59, $GPGGA,180030.00,4437.5834,N,12402.8848,W,1,08,1.0,22.9,M,-21.8,M,,*65
2021-06-27 18:00:33Z, 6cda8203-a249-e411-b0cc-f8bc1246af59, $GPGGA,180032.00,4437.5836,N,12402.8848,W,1,08,1.0,22.9,M,-21.8,M,,*65
2021-06-27 18:00:34Z, 6cda8203-a249-e411-b0cc-f8bc1246af59, $GPGGA,180033.00,4437.5840,N,12402.8847,W,1,08,1.0,23.0,M,-21.8,M,,*62
2021-06-27 18:00:36Z, 6cda8203-a249-e411-b0cc-f8bc1246af59, $GPGGA,180035.00,4437.5842,N,12402.8851,W,1,08,1.0,23.1,M,-21.8,M,,*60
2021-06-27 18:00:37Z, 6cda8203-a249-e411-b0cc-f8bc1246af59, $GPGGA,180036.00,4437.5845,N,12402.8852,W,1,08,1.0,23.1,M,-21.8,M,,*67
2021-06-27 18:00:39Z, 6cda8203-a249-e411-b0cc-f8bc1246af59, $GPGGA,180038.00,4437.5844,N,12402.8848,W,1,08,1.0,23.0,M,-21.8,M,,*62
2021-06-27 18:00:40Z, 6cda8203-a249-e411-b0cc-f8bc1246af59, $GPGGA,180039.00,4437.5843,N,12402.8845,W,1,08,1.0,22.9,M,-21.8,M,,*61
2021-06-27 18:00:42Z, 6cda8203-a249-e411-b0cc-f8bc1246af59, $GPGGA,180041.00,4437.5844,N,12402.8840,W,1,08,1.0,22.9,M,-21.8,M,,*6C
2021-06-27 18:00:43Z, 6cda8203-a249-e411-b0cc-f8bc1246af59, $GPGGA,180042.00,4437.5843,N,12402.8841,W,1,08,1.0,22.9,M,-21.8,M,,*69
2021-06-27 18:00:45Z, 6cda8203-a249-e411-b0cc-f8bc1246af59, $GPGGA,180044.00,4437.5841,N,12402.8841,W,1,08,1.0,22.9,M,-21.8,M,,*6D
2021-06-27 18:00:46Z, 6cda8203-a249-e411-b0cc-f8bc1246af59, $GPGGA,180045.00,4437.5841,N,12402.8842,W,1,08,1.0,22.9,M,-21.8,M,,*6F
2021-06-27 18:00:48Z, 6cda8203-a249-e411-b0cc-f8bc1246af59, $GPGGA,180047.00,4437.5840,N,12402.8842,W,1,08,1.0,22.8,M,-21.8,M,,*6D
2021-06-27 18:00:49Z, 6cda8203-a249-e411-b0cc-f8bc1246af59, $GPGGA,180048.00,4437.5840,N,12402.8841,W,1,08,1.0,22.8,M,-21.8,M,,*61
2021-06-27 18:00:50Z, 6cda8203-a249-e411-b0cc-f8bc1246af59, $GPGGA,180049.00,4437.5840,N,12402.8843,W,1,08,1.0,22.8,M,-21.8,M,,*62
2021-06-27 18:00:51Z, 6cda8203-a249-e411-b0cc-f8bc1246af59, $GPGGA,180050.00,4437.5839,N,12402.8844,W,1,08,1.0,22.9,M,-21.8,M,,*62
2021-06-27 18:00:53Z, 6cda8203-a249-e411-b0cc-f8bc1246af59, $GPGGA,180051.00,4437.5838,N,12402.8845,W,1,08,1.0,22.9,M,-21.8,M,,*63
2021-06-27 18:00:53Z, 6cda8203-a249-e411-b0cc-f8bc1246af59, $GPGGA,180052.00,4437.5837,N,12402.8847,W,1,08,1.0,22.9,M,-21.8,M,,*6D
2021-06-27 18:00:55Z, 6cda8203-a249-e411-b0cc-f8bc1246af59, $GPGGA,180053.00,4437.5835,N,12402.8850,W,1,08,1.0,23.0,M,-21.8,M,,*60
2021-06-27 18:00:56Z, 6cda8203-a249-e411-b0cc-f8bc1246af59, $GPGGA,180055.00,4437.5832,N,12402.8851,W,1,08,1.0,23.1,M,-21.8,M,,*61
2021-06-27 18:00:57Z, 6cda8203-a249-e411-b0cc-f8bc1246af59, $GPGGA,180056.00,4437.5830,N,12402.8850,W,1,08,1.0,23.1,M,-21.8,M,,*61
2021-06-27 18:00:59Z, 6cda8203-a249-e411-b0cc-f8bc1246af59, $GPGGA,180058.00,4437.5826,N,12402.8854,W,1,08,1.0,23.2,M,-21.8,M,,*6F
2021-06-27 18:01:00Z, 6cda8203-a249-e411-b0cc-f8bc1246af59, $GPGGA,180059.00,4437.5826,N,12402.8852,W,1,08,1.0,23.3,M,-21.8,M,,*69
2021-06-27 18:01:02Z, 6cda8203-a249-e411-b0cc-f8bc1246af59, $GPGGA,180101.00,4437.5823,N,12402.8849,W,1,08,1.0,23.5,M,-21.8,M,,*6C
2021-06-27 18:01:03Z, 6cda8203-a249-e411-b0cc-f8bc1246af59, $GPGGA,180102.00,4437.5822,N,12402.8850,W,1,08,1.0,23.5,M,-21.8,M,,*66
2021-06-27 18:01:05Z, 6cda8203-a249-e411-b0cc-f8bc1246af59, $GPGGA,180104.00,4437.5821,N,12402.8847,W,1,08,1.0,23.5,M,-21.8,M,,*65
2021-06-27 18:01:06Z, 6cda8203-a249-e411-b0cc-f8bc1246af59, $GPGGA,180105.00,4437.5821,N,12402.8846,W,1,08,1.0,23.5,M,-21.8,M,,*65
2021-06-27 18:01:08Z, 6cda8203-a249-e411-b0cc-f8bc1246af59, $GPGGA,180107.00,4437.5822,N,12402.8844,W,1,08,1.0,23.4,M,-21.8,M,,*67
2021-06-27 18:01:09Z, 6cda8203-a249-e411-b0cc-f8bc1246af59, $GPGGA,180108.00,4437.5821,N,12402.8846,W,1,08,1.0,23.5,M,-21.8,M,,*68
2021-06-27 18:01:11Z, 6cda8203-a249-e411-b0cc-f8bc1246af59, $GPGGA,180110.00,4437.5820,N,12402.8841,W,1,08,1.0,23.5,M,-21.8,M,,*67
2021-06-27 18:01:12Z, 6cda8203-a249-e411-b0cc-f8bc1246af59, $GPGGA,180111.00,4437.5818,N,12402.8841,W,1,08,1.0,23.6,M,-21.8,M,,*6E
2021-06-27 18:01:14Z, 6cda8203-a249-e411-b0cc-f8bc1246af59, $GPGGA,180113.00,4437.5818,N,12402.8841,W,1,08,1.0,23.6,M,-21.8,M,,*6C
2021-06-27 18:01:15Z, 6cda8203-a249-e411-b0cc-f8bc1246af59, $GPGGA,180114.00,4437.5818,N,12402.8839,W,1,08,1.0,23.6,M,-21.8,M,,*64
2021-06-27 18:01:17Z, 6cda8203-a249-e411-b0cc-f8bc1246af59, $GPGGA,180116.00,4437.5820,N,12402.8836,W,1,08,1.0,23.5,M,-21.8,M,,*61
2021-06-27 18:01:18Z, 6cda8203-a249-e411-b0cc-f8bc1246af59, $GPGGA,180117.00,4437.5818,N,12402.8833,W,1,08,1.0,23.3,M,-21.8,M,,*68
2021-06-27 18:01:20Z, 6cda8203-a249-e411-b0cc-f8bc1246af59, $GPGGA,180119.00,4437.5813,N,12402.8827,W,1,08,1.0,23.1,M,-21.8,M,,*6A
2021-06-27 18:01:21Z, 6cda8203-a249-e411-b0cc-f8bc1246af59, $GPGGA,180120.00,4437.5812,N,12402.8821,W,1,08,1.0,23.1,M,-21.8,M,,*67
2021-06-27 18:01:23Z, 6cda8203-a249-e411-b0cc-f8bc1246af59, $GPGGA,180122.00,4437.5811,N,12402.8816,W,1,08,1.0,23.2,M,-21.8,M,,*61
2021-06-27 18:01:24Z, 6cda8203-a249-e411-b0cc-f8bc1246af59, $GPGGA,180123.00,4437.5811,N,12402.8813,W,1,08,1.0,23.2,M,-21.8,M,,*65
2021-06-27 18:01:26Z, 6cda8203-a249-e411-b0cc-f8bc1246af59, $GPGGA,180125.00,4437.5813,N,12402.8810,W,1,08,1.0,23.3,M,-21.8,M,,*63
2021-06-27 18:01:27Z, 6cda8203-a249-e411-b0cc-f8bc1246af59, $GPGGA,180126.00,4437.5815,N,12402.8810,W,1,08,1.0,23.3,M,-21.8,M,,*66
2021-06-27 18:01:29Z, 6cda8203-a249-e411-b0cc-f8bc1246af59, $GPGGA,180128.00,4437.5818,N,12402.8810,W,1,08,1.0,23.4,M,-21.8,M,,*62
2021-06-27 18:01:30Z, 6cda8203-a249-e411-b0cc-f8bc1246af59, $GPGGA,180129.00,4437.5818,N,12402.8812,W,1,08,1.0,23.4,M,-21.8,M,,*61
2021-06-27 18:01:32Z, 6cda8203-a249-e411-b0cc-f8bc1246af59, $GPGGA,180131.00,4437.5816,N,12402.8816,W,1,08,1.0,23.5,M,-21.8,M,,*63
2021-06-27 18:01:33Z, 6cda8203-a249-e411-b0cc-f8bc1246af59, $GPGGA,180132.00,4437.5815,N,12402.8818,W,1,08,1.0,23.5,M,-21.8,M,,*6D
2021-06-27 18:01:35Z, 6cda8203-a249-e411-b0cc-f8bc1246af59, $GPGGA,180134.00,4437.5815,N,12402.8825,W,1,08,1.0,23.6,M,-21.8,M,,*66
2021-06-27 18:01:36Z, 6cda8203-a249-e411-b0cc-f8bc1246af59, $GPGGA,180135.00,4437.5813,N,12402.8827,W,1,08,1.0,23.6,M,-21.8,M,,*63
2021-06-27 18:01:38Z, 6cda8203-a249-e411-b0cc-f8bc1246af59, $GPGGA,180137.00,4437.5813,N,12402.8830,W,1,08,1.0,23.6,M,-21.8,M,,*67
2021-06-27 18:01:39Z, 6cda8203-a249-e411-b0cc-f8bc1246af59, $GPGGA,180138.00,4437.5815,N,12402.8832,W,1,08,1.0,23.5,M,-21.8,M,,*6F
2021-06-27 18:01:41Z, 6cda8203-a249-e411-b0cc-f8bc1246af59, $GPGGA,180140.00,4437.5813,N,12402.8835,W,1,08,1.0,23.4,M,-21.8,M,,*60
2021-06-27 18:01:42Z, 6cda8203-a249-e411-b0cc-f8bc1246af59, $GPGGA,180141.00,4437.5814,N,12402.8839,W,1,08,1.0,23.4,M,-21.8,M,,*6A
2021-06-27 18:01:44Z, 6cda8203-a249-e411-b0cc-f8bc1246af59, $GPGGA,180143.00,4437.5816,N,12402.8845,W,1,08,1.0,23.4,M,-21.8,M,,*61
2021-06-27 18:01:45Z, 6cda8203-a249-e411-b0cc-f8bc1246af59, $GPGGA,180144.00,4437.5815,N,12402.8851,W,1,08,1.0,23.3,M,-21.8,M,,*67
2021-06-27 18:01:47Z, 6cda8203-a249-e411-b0cc-f8bc1246af59, $GPGGA,180146.00,4437.5818,N,12402.8857,W,1,08,1.0,23.3,M,-21.8,M,,*6E
2021-06-27 18:01:48Z, 6cda8203-a249-e411-b0cc-f8bc1246af59, $GPGGA,180147.00,4437.5820,N,12402.8862,W,1,08,1.0,23.2,M,-21.8,M,,*63
2021-06-27 18:01:50Z, 6cda8203-a249-e411-b0cc-f8bc1246af59, $GPGGA,180149.00,4437.5819,N,12402.8866,W,1,08,1.0,23.0,M,-21.8,M,,*61
2021-06-27 18:01:51Z, 6cda8203-a249-e411-b0cc-f8bc1246af59, $GPGGA,180150.00,4437.5818,N,12402.8866,W,1,08,1.0,23.0,M,-21.8,M,,*68
2021-06-27 18:01:53Z, 6cda8203-a249-e411-b0cc-f8bc1246af59, $GPGGA,180152.00,4437.5816,N,12402.8869,W,1,08,1.0,23.2,M,-21.8,M,,*69
2021-06-27 18:01:54Z, 6cda8203-a249-e411-b0cc-f8bc1246af59, $GPGGA,180153.00,4437.5814,N,12402.8870,W,1,08,1.0,23.2,M,-21.8,M,,*62
2021-06-27 18:01:56Z, 6cda8203-a249-e411-b0cc-f8bc1246af59, $GPGGA,180155.00,4437.5814,N,12402.8872,W,1,08,1.0,23.2,M,-21.8,M,,*66
2021-06-27 18:01:57Z, 6cda8203-a249-e411-b0cc-f8bc1246af59, $GPGGA,180156.00,4437.5815,N,12402.8874,W,1,08,1.0,23.2,M,-21.8,M,,*62
2021-06-27 18:01:59Z, 6cda8203-a249-e411-b0cc-f8bc1246af59, $GPGGA,180158.00,4437.5813,N,12402.8883,W,1,08,1.0,22.9,M,-21.8,M,,*68
2021-06-27 18:02:00Z, 6cda8203-a249-e411-b0cc-f8bc1246af59, $GPGGA,180159.00,4437.5813,N,12402.8885,W,1,08,1.0,22.8,M,-21.8,M,,*6E
2021-06-27 18:02:02Z, 6cda8203-a249-e411-b0cc-f8bc1246af59, $GPGGA,180201.00,4437.5815,N,12402.8886,W,1,08,1.0,22.8,M,-21.8,M,,*65
2021-06-27 18:02:03Z, 6cda8203-a249-e411-b0cc-f8bc1246af59, $GPGGA,180202.00,4437.5817,N,12402.8887,W,1,08,1.0,22.8,M,-21.8,M,,*65
2021-06-27 18:02:05Z, 6cda8203-a249-e411-b0cc-f8bc1246af59, $GPGGA,180204.00,4437.5821,N,12402.8888,W,1,08,1.0,22.7,M,-21.8,M,,*66
2021-06-27 18:02:06Z, 6cda8203-a249-e411-b0cc-f8bc1246af59, $GPGGA,180205.00,4437.5823,N,12402.8891,W,1,08,1.0,22.7,M,-21.8,M,,*6D
2021-06-27 18:02:08Z, 6cda8203-a249-e411-b0cc-f8bc1246af59, $GPGGA,180207.00,4437.5826,N,12402.8890,W,1,08,1.0,22.7,M,-21.8,M,,*6B
2021-06-27 18:02:09Z, 6cda8203-a249-e411-b0cc-f8bc1246af59, $GPGGA,180208.00,4437.5826,N,12402.8889,W,1,08,1.0,22.7,M,-21.8,M,,*6C
2021-06-27 18:02:11Z, 6cda8203-a249-e411-b0cc-f8bc1246af59, $GPGGA,180210.00,4437.5826,N,12402.8889,W,1,08,1.0,22.9,M,-21.8,M,,*6B
2021-06-27 18:02:12Z, 6cda8203-a249-e411-b0cc-f8bc1246af59, $GPGGA,180211.00,4437.5827,N,12402.8888,W,1,08,1.0,22.8,M,-21.8,M,,*6B
2021-06-27 18:02:14Z, 6cda8203-a249-e411-b0cc-f8bc1246af59, $GPGGA,180213.00,4437.5826,N,12402.8890,W,1,08,1.0,22.8,M,-21.8,M,,*61
2021-06-27 18:02:15Z, 6cda8203-a249-e411-b0cc-f8bc1246af59, $GPGGA,180214.00,4437.5826,N,12402.8889,W,1,08,1.0,22.9,M,-21.8,M,,*6F
2021-06-27 18:02:17Z, 6cda8203-a249-e411-b0cc-f8bc1246af59, $GPGGA,180216.00,4437.5826,N,12402.8888,W,1,08,1.0,23.0,M,-21.8,M,,*64
2021-06-27 18:02:18Z, 6cda8203-a249-e411-b0cc-f8bc1246af59, $GPGGA,180217.00,4437.5826,N,12402.8889,W,1,08,1.0,23.0,M,-21.8,M,,*64
