ACQ Timestamp (Server Time in UTC), MessageID, Data Value For: GNSS-6452-$GPGGA
2021-06-15 21:58:59Z, 6cda8203-a249-e411-b0cc-f8bc1246af59, $GPGGA,215858.00,4437.5858,N,12402.8870,W,1,12,0.8,22.1,M,-21.8,M,,*67
2021-06-15 21:59:00Z, 6cda8203-a249-e411-b0cc-f8bc1246af59, $GPGGA,215859.00,4437.5859,N,12402.8870,W,1,12,0.8,22.1,M,-21.8,M,,*67
2021-06-15 21:59:02Z, 6cda8203-a249-e411-b0cc-f8bc1246af59, $GPGGA,215901.00,4437.5859,N,12402.8870,W,1,12,0.8,22.1,M,-21.8,M,,*6B
2021-06-15 21:59:03Z, 6cda8203-a249-e411-b0cc-f8bc1246af59, $GPGGA,215902.00,4437.5861,N,12402.8871,W,1,12,0.8,22.1,M,-21.8,M,,*62
2021-06-15 21:59:05Z, 6cda8203-a249-e411-b0cc-f8bc1246af59, $GPGGA,215904.00,4437.5862,N,12402.8869,W,1,12,0.8,22.1,M,-21.8,M,,*6E
2021-06-15 21:59:06Z, 6cda8203-a249-e411-b0cc-f8bc1246af59, $GPGGA,215905.00,4437.5862,N,12402.8869,W,1,12,0.8,22.1,M,-21.8,M,,*6F
2021-06-15 21:59:08Z, 6cda8203-a249-e411-b0cc-f8bc1246af59, $GPGGA,215907.00,4437.5860,N,12402.8867,W,1,12,0.8,22.1,M,-21.8,M,,*61
2021-06-15 21:59:09Z, 6cda8203-a249-e411-b0cc-f8bc1246af59, $GPGGA,215908.00,4437.5860,N,12402.8866,W,1,12,0.8,22.3,M,-21.8,M,,*6D
2021-06-15 21:59:11Z, 6cda8203-a249-e411-b0cc-f8bc1246af59, $GPGGA,215910.00,4437.5861,N,12402.8866,W,1,12,0.8,22.5,M,-21.8,M,,*63
2021-06-15 21:59:12Z, 6cda8203-a249-e411-b0cc-f8bc1246af59, $GPGGA,215911.00,4437.5862,N,12402.8863,W,1,12,0.8,22.6,M,-21.8,M,,*67
2021-06-15 21:59:14Z, 6cda8203-a249-e411-b0cc-f8bc1246af59, $GPGGA,215913.00,4437.5863,N,12402.8865,W,1,12,0.8,22.9,M,-21.8,M,,*6D
2021-06-15 21:59:15Z, 6cda8203-a249-e411-b0cc-f8bc1246af59, $GPGGA,215914.00,4437.5863,N,12402.8865,W,1,12,0.8,23.0,M,-21.8,M,,*62
2021-06-15 21:59:17Z, 6cda8203-a249-e411-b0cc-f8bc1246af59, $GPGGA,215916.00,4437.5862,N,12402.8869,W,1,12,0.8,23.1,M,-21.8,M,,*6C
2021-06-15 21:59:18Z, 6cda8203-a249-e411-b0cc-f8bc1246af59, $GPGGA,215917.00,4437.5860,N,12402.8868,W,1,12,0.8,23.0,M,-21.8,M,,*6F
2021-06-15 21:59:20Z, 6cda8203-a249-e411-b0cc-f8bc1246af59, $GPGGA,215919.00,4437.5858,N,12402.8873,W,1,12,0.8,23.0,M,-21.8,M,,*60
2021-06-15 21:59:21Z, 6cda8203-a249-e411-b0cc-f8bc1246af59, $GPGGA,215920.00,4437.5858,N,12402.8874,W,1,12,0.8,23.1,M,-21.8,M,,*6C
2021-06-15 21:59:23Z, 6cda8203-a249-e411-b0cc-f8bc1246af59, $GPGGA,215922.00,4437.5861,N,12402.8873,W,1,12,0.8,23.3,M,-21.8,M,,*61
2021-06-15 21:59:24Z, 6cda8203-a249-e411-b0cc-f8bc1246af59, $GPGGA,215923.00,4437.5862,N,12402.8872,W,1,12,0.8,23.5,M,-21.8,M,,*64
2021-06-15 21:59:26Z, 6cda8203-a249-e411-b0cc-f8bc1246af59, $GPGGA,215925.00,4437.5864,N,12402.8871,W,1,12,0.8,23.7,M,-21.8,M,,*65
2021-06-15 21:59:27Z, 6cda8203-a249-e411-b0cc-f8bc1246af59, $GPGGA,215926.00,4437.5864,N,12402.8871,W,1,12,0.8,23.8,M,-21.8,M,,*69
2021-06-15 21:59:29Z, 6cda8203-a249-e411-b0cc-f8bc1246af59, $GPGGA,215928.00,4437.5865,N,12402.8869,W,1,12,0.8,24.2,M,-21.8,M,,*62
2021-06-15 21:59:30Z, 6cda8203-a249-e411-b0cc-f8bc1246af59, $GPGGA,215929.00,4437.5866,N,12402.8868,W,1,12,0.8,24.3,M,-21.8,M,,*60
2021-06-15 21:59:32Z, 6cda8203-a249-e411-b0cc-f8bc1246af59, $GPGGA,215931.00,4437.5868,N,12402.8867,W,1,12,0.8,24.5,M,-21.8,M,,*6E
2021-06-15 21:59:33Z, 6cda8203-a249-e411-b0cc-f8bc1246af59, $GPGGA,215932.00,4437.5869,N,12402.8866,W,1,12,0.8,24.6,M,-21.8,M,,*6E
2021-06-15 21:59:35Z, 6cda8203-a249-e411-b0cc-f8bc1246af59, $GPGGA,215934.00,4437.5870,N,12402.8861,W,1,12,0.8,24.8,M,-21.8,M,,*69
2021-06-15 21:59:36Z, 6cda8203-a249-e411-b0cc-f8bc1246af59, $GPGGA,215935.00,4437.5870,N,12402.8859,W,1,12,0.8,24.8,M,-21.8,M,,*63
2021-06-15 21:59:38Z, 6cda8203-a249-e411-b0cc-f8bc1246af59, $GPGGA,215937.00,4437.5868,N,12402.8855,W,1,12,0.8,25.0,M,-21.8,M,,*6D
2021-06-15 21:59:39Z, 6cda8203-a249-e411-b0cc-f8bc1246af59, $GPGGA,215938.00,4437.5866,N,12402.8857,W,1,12,0.8,24.9,M,-21.8,M,,*66
2021-06-15 21:59:39Z, 6cda8203-a249-e411-b0cc-f8bc1246af59, $GPGGA,215939.00,4437.5865,N,12402.8861,W,1,12,0.8,25.0,M,-21.8,M,,*69
2021-06-15 21:59:41Z, 6cda8203-a249-e411-b0cc-f8bc1246af59, $GPGGA,215940.00,4437.5867,N,12402.8861,W,1,12,0.8,25.0,M,-21.8,M,,*65
2021-06-15 21:59:42Z, 6cda8203-a249-e411-b0cc-f8bc1246af59, $GPGGA,215941.00,4437.5867,N,12402.8860,W,1,12,0.8,25.0,M,-21.8,M,,*65
2021-06-15 21:59:43Z, 6cda8203-a249-e411-b0cc-f8bc1246af59, $GPGGA,215942.00,4437.5866,N,12402.8861,W,1,12,0.8,25.0,M,-21.8,M,,*66
2021-06-15 21:59:44Z, 6cda8203-a249-e411-b0cc-f8bc1246af59, $GPGGA,215943.00,4437.5866,N,12402.8862,W,1,12,0.8,24.9,M,-21.8,M,,*6C
2021-06-15 21:59:45Z, 6cda8203-a249-e411-b0cc-f8bc1246af59, $GPGGA,215944.00,4437.5866,N,12402.8864,W,1,12,0.8,24.9,M,-21.8,M,,*6D
2021-06-15 21:59:47Z, 6cda8203-a249-e411-b0cc-f8bc1246af59, $GPGGA,215946.00,4437.5864,N,12402.8863,W,1,12,0.8,24.8,M,-21.8,M,,*6B
2021-06-15 21:59:48Z, 6cda8203-a249-e411-b0cc-f8bc1246af59, $GPGGA,215947.00,4437.5863,N,12402.8862,W,1,12,0.8,24.6,M,-21.8,M,,*62
2021-06-15 21:59:50Z, 6cda8203-a249-e411-b0cc-f8bc1246af59, $GPGGA,215949.00,4437.5863,N,12402.8861,W,1,12,0.8,24.1,M,-21.8,M,,*68
2021-06-15 21:59:51Z, 6cda8203-a249-e411-b0cc-f8bc1246af59, $GPGGA,215950.00,4437.5864,N,12402.8859,W,1,12,0.8,23.9,M,-21.8,M,,*63
2021-06-15 21:59:53Z, 6cda8203-a249-e411-b0cc-f8bc1246af59, $GPGGA,215952.00,4437.5865,N,12402.8862,W,1,12,0.8,24.0,M,-21.8,M,,*66
2021-06-15 21:59:54Z, 6cda8203-a249-e411-b0cc-f8bc1246af59, $GPGGA,215953.00,4437.5867,N,12402.8861,W,1,12,0.8,24.0,M,-21.8,M,,*66
2021-06-15 21:59:56Z, 6cda8203-a249-e411-b0cc-f8bc1246af59, $GPGGA,215955.00,4437.5868,N,12402.8862,W,1,12,0.8,24.2,M,-21.8,M,,*6E
2021-06-15 21:59:57Z, 6cda8203-a249-e411-b0cc-f8bc1246af59, $GPGGA,215956.00,4437.5869,N,12402.8861,W,1,12,0.8,24.2,M,-21.8,M,,*6F
2021-06-15 21:59:59Z, 6cda8203-a249-e411-b0cc-f8bc1246af59, $GPGGA,215958.00,4437.5870,N,12402.8862,W,1,12,0.8,24.4,M,-21.8,M,,*6C
2021-06-15 22:00:00Z, 6cda8203-a249-e411-b0cc-f8bc1246af59, $GPGGA,215959.00,4437.5870,N,12402.8861,W,1,12,0.8,24.4,M,-21.8,M,,*6E
2021-06-15 22:00:02Z, 6cda8203-a249-e411-b0cc-f8bc1246af59, $GPGGA,220001.00,4437.5869,N,12402.8862,W,1,12,0.8,24.8,M,-21.8,M,,*6B
2021-06-15 22:00:03Z, 6cda8203-a249-e411-b0cc-f8bc1246af59, $GPGGA,220002.00,4437.5868,N,12402.8862,W,1,12,0.8,24.8,M,-21.8,M,,*69
2021-06-15 22:00:05Z, 6cda8203-a249-e411-b0cc-f8bc1246af59, $GPGGA,220004.00,4437.5872,N,12402.8861,W,1,12,0.8,24.8,M,-21.8,M,,*67
2021-06-15 22:00:06Z, 6cda8203-a249-e411-b0cc-f8bc1246af59, $GPGGA,220005.00,4437.5871,N,12402.8860,W,1,12,0.8,24.8,M,-21.8,M,,*64
2021-06-15 22:00:08Z, 6cda8203-a249-e411-b0cc-f8bc1246af59, $GPGGA,220007.00,4437.5872,N,12402.8862,W,1,12,0.8,24.7,M,-21.8,M,,*68
2021-06-15 22:00:09Z, 6cda8203-a249-e411-b0cc-f8bc1246af59, $GPGGA,220008.00,4437.5872,N,12402.8864,W,1,12,0.8,24.7,M,-21.8,M,,*61
2021-06-15 22:00:11Z, 6cda8203-a249-e411-b0cc-f8bc1246af59, $GPGGA,220010.00,4437.5871,N,12402.8863,W,1,12,0.8,24.8,M,-21.8,M,,*63
2021-06-15 22:00:12Z, 6cda8203-a249-e411-b0cc-f8bc1246af59, $GPGGA,220011.00,4437.5871,N,12402.8863,W,1,12,0.8,24.9,M,-21.8,M,,*63
2021-06-15 22:00:14Z, 6cda8203-a249-e411-b0cc-f8bc1246af59, $GPGGA,220013.00,4437.5872,N,12402.8862,W,1,11,0.8,24.9,M,-21.8,M,,*60
2021-06-15 22:00:15Z, 6cda8203-a249-e411-b0cc-f8bc1246af59, $GPGGA,220014.00,4437.5872,N,12402.8859,W,1,11,0.8,25.0,M,-21.8,M,,*67
2021-06-15 22:00:17Z, 6cda8203-a249-e411-b0cc-f8bc1246af59, $GPGGA,220016.00,4437.5872,N,12402.8856,W,1,11,0.8,24.8,M,-21.8,M,,*63
2021-06-15 22:00:18Z, 6cda8203-a249-e411-b0cc-f8bc1246af59, $GPGGA,220017.00,4437.5871,N,12402.8859,W,1,11,0.8,24.6,M,-21.8,M,,*60
2021-06-15 22:00:20Z, 6cda8203-a249-e411-b0cc-f8bc1246af59, $GPGGA,220019.00,4437.5873,N,12402.8858,W,1,11,0.8,24.6,M,-21.8,M,,*6D
2021-06-15 22:00:21Z, 6cda8203-a249-e411-b0cc-f8bc1246af59, $GPGGA,220020.00,4437.5874,N,12402.8857,W,1,11,0.8,24.5,M,-21.8,M,,*6C
2021-06-15 22:00:23Z, 6cda8203-a249-e411-b0cc-f8bc1246af59, $GPGGA,220022.00,4437.5875,N,12402.8858,W,1,11,0.8,24.5,M,-21.8,M,,*60
2021-06-15 22:00:24Z, 6cda8203-a249-e411-b0cc-f8bc1246af59, $GPGGA,220023.00,4437.5874,N,12402.8858,W,1,11,0.8,24.4,M,-21.8,M,,*61
2021-06-15 22:00:26Z, 6cda8203-a249-e411-b0cc-f8bc1246af59, $GPGGA,220025.00,4437.5876,N,12402.8858,W,1,11,0.8,24.5,M,-21.8,M,,*64
2021-06-15 22:00:27Z, 6cda8203-a249-e411-b0cc-f8bc1246af59, $GPGGA,220026.00,4437.5877,N,12402.8859,W,1,11,0.8,24.5,M,-21.8,M,,*67
2021-06-15 22:00:29Z, 6cda8203-a249-e411-b0cc-f8bc1246af59, $GPGGA,220028.00,4437.5878,N,12402.8858,W,1,11,0.8,24.5,M,-21.8,M,,*67
2021-06-15 22:00:30Z, 6cda8203-a249-e411-b0cc-f8bc1246af59, $GPGGA,220029.00,4437.5880,N,12402.8858,W,1,11,0.8,24.5,M,-21.8,M,,*61
2021-06-15 22:00:32Z, 6cda8203-a249-e411-b0cc-f8bc1246af59, $GPGGA,220031.00,4437.5875,N,12402.8853,W,1,11,0.8,24.3,M,-21.8,M,,*6F
2021-06-15 22:00:33Z, 6cda8203-a249-e411-b0cc-f8bc1246af59, $GPGGA,220032.00,4437.5874,N,12402.8855,W,1,11,0.8,24.2,M,-21.8,M,,*6A
2021-06-15 22:00:35Z, 6cda8203-a249-e411-b0cc-f8bc1246af59, $GPGGA,220034.00,4437.5874,N,12402.8856,W,1,11,0.8,24.3,M,-21.8,M,,*6E
2021-06-15 22:00:36Z, 6cda8203-a249-e411-b0cc-f8bc1246af59, $GPGGA,220035.00,4437.5875,N,12402.8857,W,1,11,0.8,24.3,M,-21.8,M,,*6F
2021-06-15 22:00:38Z, 6cda8203-a249-e411-b0cc-f8bc1246af59, $GPGGA,220037.00,4437.5873,N,12402.8858,W,1,11,0.8,24.3,M,-21.8,M,,*64
2021-06-15 22:00:39Z, 6cda8203-a249-e411-b0cc-f8bc1246af59, $GPGGA,220038.00,4437.5873,N,12402.8857,W,1,11,0.8,24.3,M,-21.8,M,,*64
2021-06-15 22:00:41Z, 6cda8203-a249-e411-b0cc-f8bc1246af59, $GPGGA,220040.00,4437.5870,N,12402.8856,W,1,11,0.8,24.5,M,-21.8,M,,*6F
2021-06-15 22:00:42Z, 6cda8203-a249-e411-b0cc-f8bc1246af59, $GPGGA,220041.00,4437.5871,N,12402.8857,W,1,11,0.8,24.5,M,-21.8,M,,*6E
2021-06-15 22:00:44Z, 6cda8203-a249-e411-b0cc-f8bc1246af59, $GPGGA,220043.00,4437.5868,N,12402.8857,W,1,11,0.8,24.4,M,-21.8,M,,*65
2021-06-15 22:00:45Z, 6cda8203-a249-e411-b0cc-f8bc1246af59, $GPGGA,220044.00,4437.5866,N,12402.8855,W,1,11,0.8,24.5,M,-21.8,M,,*6F
2021-06-15 22:00:47Z, 6cda8203-a249-e411-b0cc-f8bc1246af59, $GPGGA,220046.00,4437.5867,N,12402.8857,W,1,11,0.8,24.6,M,-21.8,M,,*6D
2021-06-15 22:00:48Z, 6cda8203-a249-e411-b0cc-f8bc1246af59, $GPGGA,220047.00,4437.5868,N,12402.8860,W,1,11,0.8,24.7,M,-21.8,M,,*66
2021-06-15 22:00:50Z, 6cda8203-a249-e411-b0cc-f8bc1246af59, $GPGGA,220049.00,4437.5868,N,12402.8858,W,1,11,0.8,25.1,M,-21.8,M,,*64
2021-06-15 22:00:51Z, 6cda8203-a249-e411-b0cc-f8bc1246af59, $GPGGA,220050.00,4437.5868,N,12402.8858,W,1,11,0.8,25.1,M,-21.8,M,,*6C
2021-06-15 22:00:53Z, 6cda8203-a249-e411-b0cc-f8bc1246af59, $GPGGA,220052.00,4437.5868,N,12402.8855,W,1,11,0.8,25.2,M,-21.8,M,,*60
2021-06-15 22:00:54Z, 6cda8203-a249-e411-b0cc-f8bc1246af59, $GPGGA,220053.00,4437.5869,N,12402.8853,W,1,11,0.8,25.3,M,-21.8,M,,*67
2021-06-15 22:00:56Z, 6cda8203-a249-e411-b0cc-f8bc1246af59, $GPGGA,220055.00,4437.5867,N,12402.8850,W,1,11,0.8,25.2,M,-21.8,M,,*6D
2021-06-15 22:00:57Z, 6cda8203-a249-e411-b0cc-f8bc1246af59, $GPGGA,220056.00,4437.5868,N,12402.8851,W,1,11,0.8,25.2,M,-21.8,M,,*60
2021-06-15 22:00:59Z, 6cda8203-a249-e411-b0cc-f8bc1246af59, $GPGGA,220058.00,4437.5867,N,12402.8854,W,1,11,0.8,25.0,M,-21.8,M,,*66
2021-06-15 22:01:00Z, 6cda8203-a249-e411-b0cc-f8bc1246af59, $GPGGA,220059.00,4437.5867,N,12402.8854,W,1,11,0.8,25.0,M,-21.8,M,,*67
2021-06-15 22:01:02Z, 6cda8203-a249-e411-b0cc-f8bc1246af59, $GPGGA,220101.00,4437.5869,N,12402.8854,W,1,11,0.8,25.0,M,-21.8,M,,*65
2021-06-15 22:01:03Z, 6cda8203-a249-e411-b0cc-f8bc1246af59, $GPGGA,220102.00,4437.5869,N,12402.8853,W,1,11,0.8,25.0,M,-21.8,M,,*61
2021-06-15 22:01:05Z, 6cda8203-a249-e411-b0cc-f8bc1246af59, $GPGGA,220104.00,4437.5869,N,12402.8854,W,1,11,0.8,24.9,M,-21.8,M,,*68
2021-06-15 22:01:06Z, 6cda8203-a249-e411-b0cc-f8bc1246af59, $GPGGA,220105.00,4437.5869,N,12402.8856,W,1,11,0.8,24.8,M,-21.8,M,,*6A
2021-06-15 22:01:08Z, 6cda8203-a249-e411-b0cc-f8bc1246af59, $GPGGA,220107.00,4437.5867,N,12402.8856,W,1,11,0.8,24.8,M,-21.8,M,,*66
2021-06-15 22:01:09Z, 6cda8203-a249-e411-b0cc-f8bc1246af59, $GPGGA,220108.00,4437.5867,N,12402.8856,W,1,11,0.8,24.7,M,-21.8,M,,*66
2021-06-15 22:01:11Z, 6cda8203-a249-e411-b0cc-f8bc1246af59, $GPGGA,220110.00,4437.5868,N,12402.8851,W,1,11,0.8,24.6,M,-21.8,M,,*66
2021-06-15 22:01:12Z, 6cda8203-a249-e411-b0cc-f8bc1246af59, $GPGGA,220111.00,4437.5868,N,12402.8852,W,1,11,0.8,24.7,M,-21.8,M,,*65
2021-06-15 22:01:14Z, 6cda8203-a249-e411-b0cc-f8bc1246af59, $GPGGA,220113.00,4437.5869,N,12402.8848,W,1,11,0.8,24.6,M,-21.8,M,,*6C
2021-06-15 22:01:15Z, 6cda8203-a249-e411-b0cc-f8bc1246af59, $GPGGA,220114.00,4437.5871,N,12402.8849,W,1,11,0.8,24.7,M,-21.8,M,,*62
2021-06-15 22:01:17Z, 6cda8203-a249-e411-b0cc-f8bc1246af59, $GPGGA,220116.00,4437.5874,N,12402.8850,W,1,11,0.8,24.7,M,-21.8,M,,*6D
2021-06-15 22:01:18Z, 6cda8203-a249-e411-b0cc-f8bc1246af59, $GPGGA,220117.00,4437.5876,N,12402.8848,W,1,11,0.8,24.7,M,-21.8,M,,*67
2021-06-15 22:01:20Z, 6cda8203-a249-e411-b0cc-f8bc1246af59, $GPGGA,220119.00,4437.5876,N,12402.8849,W,1,11,0.8,24.8,M,-21.8,M,,*67
2021-06-15 22:01:21Z, 6cda8203-a249-e411-b0cc-f8bc1246af59, $GPGGA,220120.00,4437.5875,N,12402.8848,W,1,11,0.8,24.9,M,-21.8,M,,*6E
2021-06-15 22:01:23Z, 6cda8203-a249-e411-b0cc-f8bc1246af59, $GPGGA,220122.00,4437.5875,N,12402.8850,W,1,11,0.8,24.9,M,-21.8,M,,*65
2021-06-15 22:01:24Z, 6cda8203-a249-e411-b0cc-f8bc1246af59, $GPGGA,220123.00,4437.5876,N,12402.8851,W,1,11,0.8,24.9,M,-21.8,M,,*66
2021-06-15 22:01:26Z, 6cda8203-a249-e411-b0cc-f8bc1246af59, $GPGGA,220125.00,4437.5876,N,12402.8854,W,1,11,0.8,25.1,M,-21.8,M,,*6C
2021-06-15 22:01:27Z, 6cda8203-a249-e411-b0cc-f8bc1246af59, $GPGGA,220126.00,4437.5876,N,12402.8855,W,1,11,0.8,25.1,M,-21.8,M,,*6E
2021-06-15 22:01:29Z, 6cda8203-a249-e411-b0cc-f8bc1246af59, $GPGGA,220128.00,4437.5878,N,12402.8858,W,1,11,0.8,25.4,M,-21.8,M,,*66
2021-06-15 22:01:30Z, 6cda8203-a249-e411-b0cc-f8bc1246af59, $GPGGA,220129.00,4437.5876,N,12402.8859,W,1,11,0.8,25.5,M,-21.8,M,,*69
2021-06-15 22:01:32Z, 6cda8203-a249-e411-b0cc-f8bc1246af59, $GPGGA,220131.00,4437.5876,N,12402.8860,W,1,11,0.8,25.6,M,-21.8,M,,*69
2021-06-15 22:01:33Z, 6cda8203-a249-e411-b0cc-f8bc1246af59, $GPGGA,220132.00,4437.5876,N,12402.8862,W,1,11,0.8,25.5,M,-21.8,M,,*6B
2021-06-15 22:01:35Z, 6cda8203-a249-e411-b0cc-f8bc1246af59, $GPGGA,220134.00,4437.5877,N,12402.8865,W,1,11,0.8,25.5,M,-21.8,M,,*6B
2021-06-15 22:01:36Z, 6cda8203-a249-e411-b0cc-f8bc1246af59, $GPGGA,220135.00,4437.5878,N,12402.8867,W,1,11,0.8,25.6,M,-21.8,M,,*64
2021-06-15 22:01:38Z, 6cda8203-a249-e411-b0cc-f8bc1246af59, $GPGGA,220137.00,4437.5878,N,12402.8874,W,1,11,0.8,25.3,M,-21.8,M,,*61
2021-06-15 22:01:39Z, 6cda8203-a249-e411-b0cc-f8bc1246af59, $GPGGA,220138.00,4437.5877,N,12402.8876,W,1,11,0.8,25.3,M,-21.8,M,,*63
2021-06-15 22:01:41Z, 6cda8203-a249-e411-b0cc-f8bc1246af59, $GPGGA,220140.00,4437.5877,N,12402.8878,W,1,11,0.8,25.3,M,-21.8,M,,*62
2021-06-15 22:01:42Z, 6cda8203-a249-e411-b0cc-f8bc1246af59, $GPGGA,220141.00,4437.5877,N,12402.8881,W,1,11,0.8,25.3,M,-21.8,M,,*65
2021-06-15 22:01:44Z, 6cda8203-a249-e411-b0cc-f8bc1246af59, $GPGGA,220143.00,4437.5876,N,12402.8884,W,1,11,0.8,25.5,M,-21.8,M,,*65
2021-06-15 22:01:45Z, 6cda8203-a249-e411-b0cc-f8bc1246af59, $GPGGA,220144.00,4437.5875,N,12402.8884,W,1,11,0.8,25.5,M,-21.8,M,,*61
2021-06-15 22:01:46Z, 6cda8203-a249-e411-b0cc-f8bc1246af59, $GPGGA,220145.00,4437.5875,N,12402.8886,W,1,11,0.8,25.6,M,-21.8,M,,*61
2021-06-15 22:01:47Z, 6cda8203-a249-e411-b0cc-f8bc1246af59, $GPGGA,220146.00,4437.5874,N,12402.8886,W,1,11,0.8,25.6,M,-21.8,M,,*63
2021-06-15 22:01:48Z, 6cda8203-a249-e411-b0cc-f8bc1246af59, $GPGGA,220147.00,4437.5873,N,12402.8885,W,1,11,0.8,25.7,M,-21.8,M,,*67
2021-06-15 22:01:49Z, 6cda8203-a249-e411-b0cc-f8bc1246af59, $GPGGA,220148.00,4437.5874,N,12402.8885,W,1,11,0.8,25.8,M,-21.8,M,,*60
2021-06-15 22:01:51Z, 6cda8203-a249-e411-b0cc-f8bc1246af59, $GPGGA,220149.00,4437.5873,N,12402.8887,W,1,11,0.8,25.8,M,-21.8,M,,*64
2021-06-15 22:01:52Z, 6cda8203-a249-e411-b0cc-f8bc1246af59, $GPGGA,220151.00,4437.5872,N,12402.8888,W,1,11,0.8,25.9,M,-21.8,M,,*62
2021-06-15 22:01:53Z, 6cda8203-a249-e411-b0cc-f8bc1246af59, $GPGGA,220152.00,4437.5872,N,12402.8889,W,1,11,0.8,25.9,M,-21.8,M,,*60
2021-06-15 22:01:55Z, 6cda8203-a249-e411-b0cc-f8bc1246af59, $GPGGA,220154.00,4437.5870,N,12402.8892,W,1,11,0.8,25.9,M,-21.8,M,,*6E
2021-06-15 22:01:56Z, 6cda8203-a249-e411-b0cc-f8bc1246af59, $GPGGA,220155.00,4437.5869,N,12402.8892,W,1,11,0.8,25.9,M,-21.8,M,,*67
2021-06-15 22:01:58Z, 6cda8203-a249-e411-b0cc-f8bc1246af59, $GPGGA,220157.00,4437.5869,N,12402.8891,W,1,11,0.8,26.1,M,-21.8,M,,*6D
2021-06-15 22:01:59Z, 6cda8203-a249-e411-b0cc-f8bc1246af59, $GPGGA,220158.00,4437.5870,N,12402.8889,W,1,11,0.8,26.0,M,-21.8,M,,*62
2021-06-15 22:02:01Z, 6cda8203-a249-e411-b0cc-f8bc1246af59, $GPGGA,220200.00,4437.5869,N,12402.8887,W,1,11,0.8,25.9,M,-21.8,M,,*60
2021-06-15 22:02:02Z, 6cda8203-a249-e411-b0cc-f8bc1246af59, $GPGGA,220201.00,4437.5870,N,12402.8885,W,1,11,0.8,25.9,M,-21.8,M,,*6B
2021-06-15 22:02:04Z, 6cda8203-a249-e411-b0cc-f8bc1246af59, $GPGGA,220203.00,4437.5870,N,12402.8881,W,1,11,0.8,25.8,M,-21.8,M,,*6C
2021-06-15 22:02:05Z, 6cda8203-a249-e411-b0cc-f8bc1246af59, $GPGGA,220204.00,4437.5869,N,12402.8879,W,1,11,0.8,25.7,M,-21.8,M,,*6B
2021-06-15 22:02:07Z, 6cda8203-a249-e411-b0cc-f8bc1246af59, $GPGGA,220206.00,4437.5868,N,12402.8873,W,1,11,0.8,25.5,M,-21.8,M,,*60
2021-06-15 22:02:08Z, 6cda8203-a249-e411-b0cc-f8bc1246af59, $GPGGA,220207.00,4437.5868,N,12402.8874,W,1,11,0.8,25.5,M,-21.8,M,,*66
2021-06-15 22:02:10Z, 6cda8203-a249-e411-b0cc-f8bc1246af59, $GPGGA,220209.00,4437.5871,N,12402.8873,W,1,11,0.8,25.5,M,-21.8,M,,*67
2021-06-15 22:02:11Z, 6cda8203-a249-e411-b0cc-f8bc1246af59, $GPGGA,220210.00,4437.5872,N,12402.8871,W,1,11,0.8,25.5,M,-21.8,M,,*6E
2021-06-15 22:02:13Z, 6cda8203-a249-e411-b0cc-f8bc1246af59, $GPGGA,220212.00,4437.5874,N,12402.8866,W,1,11,0.8,25.4,M,-21.8,M,,*6D
2021-06-15 22:02:14Z, 6cda8203-a249-e411-b0cc-f8bc1246af59, $GPGGA,220213.00,4437.5873,N,12402.8865,W,1,11,0.8,25.3,M,-21.8,M,,*6F
2021-06-15 22:02:16Z, 6cda8203-a249-e411-b0cc-f8bc1246af59, $GPGGA,220215.00,4437.5872,N,12402.8864,W,1,11,0.8,25.1,M,-21.8,M,,*6B
2021-06-15 22:02:17Z, 6cda8203-a249-e411-b0cc-f8bc1246af59, $GPGGA,220216.00,4437.5871,N,12402.8866,W,1,11,0.8,25.0,M,-21.8,M,,*68
2021-06-15 22:02:19Z, 6cda8203-a249-e411-b0cc-f8bc1246af59, $GPGGA,220218.00,4437.5869,N,12402.8869,W,1,11,0.8,24.7,M,-21.8,M,,*66
2021-06-15 22:02:20Z, 6cda8203-a249-e411-b0cc-f8bc1246af59, $GPGGA,220219.00,4437.5868,N,12402.8867,W,1,11,0.8,24.6,M,-21.8,M,,*69
2021-06-15 22:02:22Z, 6cda8203-a249-e411-b0cc-f8bc1246af59, $GPGGA,220221.00,4437.5866,N,12402.8867,W,1,11,0.8,24.6,M,-21.8,M,,*6C
2021-06-15 22:02:23Z, 6cda8203-a249-e411-b0cc-f8bc1246af59, $GPGGA,220222.00,4437.5865,N,12402.8868,W,1,11,0.8,24.7,M,-21.8,M,,*62
2021-06-15 22:02:25Z, 6cda8203-a249-e411-b0cc-f8bc1246af59, $GPGGA,220224.00,4437.5864,N,12402.8869,W,1,11,0.8,24.6,M,-21.8,M,,*65
2021-06-15 22:02:26Z, 6cda8203-a249-e411-b0cc-f8bc1246af59, $GPGGA,220225.00,4437.5863,N,12402.8869,W,1,11,0.8,24.5,M,-21.8,M,,*60
2021-06-15 22:02:28Z, 6cda8203-a249-e411-b0cc-f8bc1246af59, $GPGGA,220227.00,4437.5862,N,12402.8870,W,1,11,0.8,24.3,M,-21.8,M,,*6D
2021-06-15 22:02:29Z, 6cda8203-a249-e411-b0cc-f8bc1246af59, $GPGGA,220228.00,4437.5862,N,12402.8869,W,1,11,0.8,24.2,M,-21.8,M,,*6B
2021-06-15 22:02:31Z, 6cda8203-a249-e411-b0cc-f8bc1246af59, $GPGGA,220230.00,4437.5859,N,12402.8873,W,1,11,0.8,24.1,M,-21.8,M,,*62
2021-06-15 22:02:32Z, 6cda8203-a249-e411-b0cc-f8bc1246af59, $GPGGA,220231.00,4437.5859,N,12402.8874,W,1,11,0.8,24.0,M,-21.8,M,,*65
2021-06-15 22:02:34Z, 6cda8203-a249-e411-b0cc-f8bc1246af59, $GPGGA,220233.00,4437.5855,N,12402.8875,W,1,11,0.8,23.9,M,-21.8,M,,*64
2021-06-15 22:02:35Z, 6cda8203-a249-e411-b0cc-f8bc1246af59, $GPGGA,220234.00,4437.5853,N,12402.8875,W,1,11,0.8,24.0,M,-21.8,M,,*6B
2021-06-15 22:02:37Z, 6cda8203-a249-e411-b0cc-f8bc1246af59, $GPGGA,220236.00,4437.5854,N,12402.8877,W,1,11,0.8,24.0,M,-21.8,M,,*6C
2021-06-15 22:02:38Z, 6cda8203-a249-e411-b0cc-f8bc1246af59, $GPGGA,220237.00,4437.5855,N,12402.8878,W,1,11,0.8,24.0,M,-21.8,M,,*63
2021-06-15 22:02:40Z, 6cda8203-a249-e411-b0cc-f8bc1246af59, $GPGGA,220239.00,4437.5855,N,12402.8876,W,1,11,0.8,24.0,M,-21.8,M,,*63
2021-06-15 22:02:41Z, 6cda8203-a249-e411-b0cc-f8bc1246af59, $GPGGA,220240.00,4437.5855,N,12402.8875,W,1,11,0.8,23.9,M,-21.8,M,,*60
2021-06-15 22:02:43Z, 6cda8203-a249-e411-b0cc-f8bc1246af59, $GPGGA,220242.00,4437.5857,N,12402.8876,W,1,11,0.8,23.9,M,-21.8,M,,*63
2021-06-15 22:02:44Z, 6cda8203-a249-e411-b0cc-f8bc1246af59, $GPGGA,220243.00,4437.5858,N,12402.8876,W,1,11,0.8,23.9,M,-21.8,M,,*6D
2021-06-15 22:02:46Z, 6cda8203-a249-e411-b0cc-f8bc1246af59, $GPGGA,220245.00,4437.5861,N,12402.8878,W,1,11,0.8,23.9,M,-21.8,M,,*6F
2021-06-15 22:02:47Z, 6cda8203-a249-e411-b0cc-f8bc1246af59, $GPGGA,220246.00,4437.5863,N,12402.8880,W,1,11,0.8,23.9,M,-21.8,M,,*69
2021-06-15 22:02:49Z, 6cda8203-a249-e411-b0cc-f8bc1246af59, $GPGGA,220248.00,4437.5865,N,12402.8879,W,1,11,0.8,23.9,M,-21.8,M,,*67
2021-06-15 22:02:50Z, 6cda8203-a249-e411-b0cc-f8bc1246af59, $GPGGA,220249.00,4437.5865,N,12402.8878,W,1,11,0.8,23.8,M,-21.8,M,,*66
2021-06-15 22:02:52Z, 6cda8203-a249-e411-b0cc-f8bc1246af59, $GPGGA,220251.00,4437.5865,N,12402.8877,W,1,11,0.8,23.7,M,-21.8,M,,*6F
2021-06-15 22:02:53Z, 6cda8203-a249-e411-b0cc-f8bc1246af59, $GPGGA,220252.00,4437.5867,N,12402.8876,W,1,11,0.8,23.7,M,-21.8,M,,*6F
2021-06-15 22:02:55Z, 6cda8203-a249-e411-b0cc-f8bc1246af59, $GPGGA,220254.00,4437.5865,N,12402.8876,W,1,11,0.8,23.5,M,-21.8,M,,*69
2021-06-15 22:02:56Z, 6cda8203-a249-e411-b0cc-f8bc1246af59, $GPGGA,220255.00,4437.5863,N,12402.8875,W,1,11,0.8,23.5,M,-21.8,M,,*6D
2021-06-15 22:02:58Z, 6cda8203-a249-e411-b0cc-f8bc1246af59, $GPGGA,220257.00,4437.5860,N,12402.8873,W,1,11,0.8,23.6,M,-21.8,M,,*69
2021-06-15 22:02:59Z, 6cda8203-a249-e411-b0cc-f8bc1246af59, $GPGGA,220258.00,4437.5859,N,12402.8871,W,1,11,0.8,23.7,M,-21.8,M,,*6F
2021-06-15 22:03:01Z, 6cda8203-a249-e411-b0cc-f8bc1246af59, $GPGGA,220300.00,4437.5854,N,12402.8871,W,1,11,0.8,23.8,M,-21.8,M,,*61
2021-06-15 22:03:02Z, 6cda8203-a249-e411-b0cc-f8bc1246af59, $GPGGA,220301.00,4437.5854,N,12402.8871,W,1,11,0.8,23.9,M,-21.8,M,,*61
2021-06-15 22:03:04Z, 6cda8203-a249-e411-b0cc-f8bc1246af59, $GPGGA,220303.00,4437.5854,N,12402.8870,W,1,11,0.8,23.8,M,-21.8,M,,*63
2021-06-15 22:03:05Z, 6cda8203-a249-e411-b0cc-f8bc1246af59, $GPGGA,220304.00,4437.5853,N,12402.8871,W,1,11,0.8,23.8,M,-21.8,M,,*62
2021-06-15 22:03:07Z, 6cda8203-a249-e411-b0cc-f8bc1246af59, $GPGGA,220306.00,4437.5851,N,12402.8869,W,1,11,0.8,23.6,M,-21.8,M,,*65
2021-06-15 22:03:08Z, 6cda8203-a249-e411-b0cc-f8bc1246af59, $GPGGA,220307.00,4437.5849,N,12402.8869,W,1,11,0.8,23.5,M,-21.8,M,,*6E
2021-06-15 22:03:10Z, 6cda8203-a249-e411-b0cc-f8bc1246af59, $GPGGA,220309.00,4437.5847,N,12402.8865,W,1,11,0.8,23.5,M,-21.8,M,,*62
2021-06-15 22:03:11Z, 6cda8203-a249-e411-b0cc-f8bc1246af59, $GPGGA,220310.00,4437.5847,N,12402.8861,W,1,11,0.8,23.5,M,-21.8,M,,*6E
2021-06-15 22:03:13Z, 6cda8203-a249-e411-b0cc-f8bc1246af59, $GPGGA,220312.00,4437.5843,N,12402.8860,W,1,11,0.8,23.6,M,-21.8,M,,*6A
2021-06-15 22:03:14Z, 6cda8203-a249-e411-b0cc-f8bc1246af59, $GPGGA,220313.00,4437.5842,N,12402.8857,W,1,11,0.8,23.6,M,-21.8,M,,*6E
2021-06-15 22:03:16Z, 6cda8203-a249-e411-b0cc-f8bc1246af59, $GPGGA,220315.00,4437.5840,N,12402.8855,W,1,11,0.8,23.9,M,-21.8,M,,*67
2021-06-15 22:03:17Z, 6cda8203-a249-e411-b0cc-f8bc1246af59, $GPGGA,220316.00,4437.5839,N,12402.8854,W,1,11,0.8,24.0,M,-21.8,M,,*65
2021-06-15 22:03:19Z, 6cda8203-a249-e411-b0cc-f8bc1246af59, $GPGGA,220318.00,4437.5840,N,12402.8851,W,1,11,0.8,24.0,M,-21.8,M,,*60
2021-06-15 22:03:20Z, 6cda8203-a249-e411-b0cc-f8bc1246af59, $GPGGA,220319.00,4437.5841,N,12402.8851,W,1,11,0.8,24.0,M,-21.8,M,,*60
2021-06-15 22:03:22Z, 6cda8203-a249-e411-b0cc-f8bc1246af59, $GPGGA,220321.00,4437.5840,N,12402.8851,W,1,11,0.8,23.8,M,-21.8,M,,*65
2021-06-15 22:03:23Z, 6cda8203-a249-e411-b0cc-f8bc1246af59, $GPGGA,220322.00,4437.5839,N,12402.8852,W,1,11,0.8,23.7,M,-21.8,M,,*64
2021-06-15 22:03:25Z, 6cda8203-a249-e411-b0cc-f8bc1246af59, $GPGGA,220324.00,4437.5841,N,12402.8852,W,1,11,0.8,23.7,M,-21.8,M,,*6D
2021-06-15 22:03:26Z, 6cda8203-a249-e411-b0cc-f8bc1246af59, $GPGGA,220325.00,4437.5842,N,12402.8853,W,1,11,0.8,23.6,M,-21.8,M,,*6F
2021-06-15 22:03:28Z, 6cda8203-a249-e411-b0cc-f8bc1246af59, $GPGGA,220327.00,4437.5845,N,12402.8852,W,1,11,0.8,23.8,M,-21.8,M,,*65
2021-06-15 22:03:29Z, 6cda8203-a249-e411-b0cc-f8bc1246af59, $GPGGA,220328.00,4437.5847,N,12402.8852,W,1,11,0.8,23.8,M,-21.8,M,,*68
2021-06-15 22:03:31Z, 6cda8203-a249-e411-b0cc-f8bc1246af59, $GPGGA,220330.00,4437.5849,N,12402.8851,W,1,11,0.8,23.9,M,-21.8,M,,*6D
2021-06-15 22:03:32Z, 6cda8203-a249-e411-b0cc-f8bc1246af59, $GPGGA,220331.00,4437.5850,N,12402.8850,W,1,11,0.8,24.0,M,-21.8,M,,*6B
2021-06-15 22:03:34Z, 6cda8203-a249-e411-b0cc-f8bc1246af59, $GPGGA,220333.00,4437.5849,N,12402.8850,W,1,11,0.8,23.9,M,-21.8,M,,*6F
2021-06-15 22:03:35Z, 6cda8203-a249-e411-b0cc-f8bc1246af59, $GPGGA,220334.00,4437.5849,N,12402.8850,W,1,11,0.8,24.0,M,-21.8,M,,*66
2021-06-15 22:03:37Z, 6cda8203-a249-e411-b0cc-f8bc1246af59, $GPGGA,220336.00,4437.5849,N,12402.8850,W,1,11,0.8,24.1,M,-21.8,M,,*65
2021-06-15 22:03:38Z, 6cda8203-a249-e411-b0cc-f8bc1246af59, $GPGGA,220337.00,4437.5848,N,12402.8852,W,1,11,0.8,24.1,M,-21.8,M,,*67
2021-06-15 22:03:40Z, 6cda8203-a249-e411-b0cc-f8bc1246af59, $GPGGA,220339.00,4437.5848,N,12402.8853,W,1,11,0.8,23.9,M,-21.8,M,,*67
2021-06-15 22:03:41Z, 6cda8203-a249-e411-b0cc-f8bc1246af59, $GPGGA,220340.00,4437.5849,N,12402.8854,W,1,11,0.8,23.9,M,-21.8,M,,*6F
2021-06-15 22:03:43Z, 6cda8203-a249-e411-b0cc-f8bc1246af59, $GPGGA,220342.00,4437.5852,N,12402.8858,W,1,11,0.8,23.9,M,-21.8,M,,*6B
2021-06-15 22:03:44Z, 6cda8203-a249-e411-b0cc-f8bc1246af59, $GPGGA,220343.00,4437.5853,N,12402.8859,W,1,11,0.8,23.9,M,-21.8,M,,*6A
2021-06-15 22:03:46Z, 6cda8203-a249-e411-b0cc-f8bc1246af59, $GPGGA,220345.00,4437.5853,N,12402.8860,W,1,11,0.8,24.0,M,-21.8,M,,*68
2021-06-15 22:03:47Z, 6cda8203-a249-e411-b0cc-f8bc1246af59, $GPGGA,220346.00,4437.5853,N,12402.8859,W,1,11,0.8,23.9,M,-21.8,M,,*6F
2021-06-15 22:03:49Z, 6cda8203-a249-e411-b0cc-f8bc1246af59, $GPGGA,220348.00,4437.5854,N,12402.8862,W,1,11,0.8,23.7,M,-21.8,M,,*60
2021-06-15 22:03:50Z, 6cda8203-a249-e411-b0cc-f8bc1246af59, $GPGGA,220349.00,4437.5855,N,12402.8863,W,1,11,0.8,23.6,M,-21.8,M,,*60
2021-06-15 22:03:51Z, 6cda8203-a249-e411-b0cc-f8bc1246af59, $GPGGA,220350.00,4437.5855,N,12402.8862,W,1,11,0.8,23.4,M,-21.8,M,,*6B
2021-06-15 22:03:52Z, 6cda8203-a249-e411-b0cc-f8bc1246af59, $GPGGA,220351.00,4437.5855,N,12402.8861,W,1,11,0.8,23.4,M,-21.8,M,,*69
2021-06-15 22:03:53Z, 6cda8203-a249-e411-b0cc-f8bc1246af59, $GPGGA,220352.00,4437.5854,N,12402.8859,W,1,11,0.8,23.4,M,-21.8,M,,*60
2021-06-15 22:03:55Z, 6cda8203-a249-e411-b0cc-f8bc1246af59, $GPGGA,220353.00,4437.5853,N,12402.8858,W,1,11,0.8,23.4,M,-21.8,M,,*67
2021-06-15 22:03:56Z, 6cda8203-a249-e411-b0cc-f8bc1246af59, $GPGGA,220354.00,4437.5851,N,12402.8855,W,1,11,0.8,23.4,M,-21.8,M,,*6F
2021-06-15 22:03:57Z, 6cda8203-a249-e411-b0cc-f8bc1246af59, $GPGGA,220356.00,4437.5852,N,12402.8853,W,1,11,0.8,23.5,M,-21.8,M,,*69
2021-06-15 22:03:58Z, 6cda8203-a249-e411-b0cc-f8bc1246af59, $GPGGA,220357.00,4437.5852,N,12402.8849,W,1,11,0.8,23.6,M,-21.8,M,,*60
2021-06-15 22:04:00Z, 6cda8203-a249-e411-b0cc-f8bc1246af59, $GPGGA,220359.00,4437.5851,N,12402.8848,W,1,11,0.8,23.5,M,-21.8,M,,*6F
2021-06-15 22:04:02Z, 6cda8203-a249-e411-b0cc-f8bc1246af59, $GPGGA,220400.00,4437.5850,N,12402.8848,W,1,11,0.8,23.5,M,-21.8,M,,*65
2021-06-15 22:04:04Z, 6cda8203-a249-e411-b0cc-f8bc1246af59, $GPGGA,220402.00,4437.5848,N,12402.8847,W,1,11,0.8,23.4,M,-21.8,M,,*60
2021-06-15 22:04:05Z, 6cda8203-a249-e411-b0cc-f8bc1246af59, $GPGGA,220403.00,4437.5847,N,12402.8846,W,1,11,0.8,23.4,M,-21.8,M,,*6F
2021-06-15 22:04:07Z, 6cda8203-a249-e411-b0cc-f8bc1246af59, $GPGGA,220405.00,4437.5846,N,12402.8848,W,1,11,0.8,23.3,M,-21.8,M,,*61
2021-06-15 22:04:08Z, 6cda8203-a249-e411-b0cc-f8bc1246af59, $GPGGA,220406.00,4437.5845,N,12402.8849,W,1,11,0.8,23.2,M,-21.8,M,,*61
2021-06-15 22:04:09Z, 6cda8203-a249-e411-b0cc-f8bc1246af59, $GPGGA,220408.00,4437.5844,N,12402.8851,W,1,11,0.8,23.2,M,-21.8,M,,*67
2021-06-15 22:04:10Z, 6cda8203-a249-e411-b0cc-f8bc1246af59, $GPGGA,220409.00,4437.5844,N,12402.8852,W,1,11,0.8,23.2,M,-21.8,M,,*65
2021-06-15 22:04:12Z, 6cda8203-a249-e411-b0cc-f8bc1246af59, $GPGGA,220411.00,4437.5841,N,12402.8853,W,1,11,0.8,23.2,M,-21.8,M,,*68
2021-06-15 22:04:13Z, 6cda8203-a249-e411-b0cc-f8bc1246af59, $GPGGA,220412.00,4437.5843,N,12402.8853,W,1,11,0.8,23.2,M,-21.8,M,,*69
2021-06-15 22:04:15Z, 6cda8203-a249-e411-b0cc-f8bc1246af59, $GPGGA,220414.00,4437.5844,N,12402.8857,W,1,11,0.8,23.0,M,-21.8,M,,*6E
2021-06-15 22:04:16Z, 6cda8203-a249-e411-b0cc-f8bc1246af59, $GPGGA,220415.00,4437.5844,N,12402.8857,W,1,11,0.8,23.0,M,-21.8,M,,*6F
2021-06-15 22:04:18Z, 6cda8203-a249-e411-b0cc-f8bc1246af59, $GPGGA,220417.00,4437.5843,N,12402.8859,W,1,11,0.8,23.0,M,-21.8,M,,*64
2021-06-15 22:04:19Z, 6cda8203-a249-e411-b0cc-f8bc1246af59, $GPGGA,220418.00,4437.5844,N,12402.8860,W,1,11,0.8,23.0,M,-21.8,M,,*66
2021-06-15 22:04:21Z, 6cda8203-a249-e411-b0cc-f8bc1246af59, $GPGGA,220420.00,4437.5844,N,12402.8864,W,1,11,0.8,23.0,M,-21.8,M,,*69
2021-06-15 22:04:22Z, 6cda8203-a249-e411-b0cc-f8bc1246af59, $GPGGA,220421.00,4437.5844,N,12402.8866,W,1,11,0.8,23.1,M,-21.8,M,,*6B
2021-06-15 22:04:24Z, 6cda8203-a249-e411-b0cc-f8bc1246af59, $GPGGA,220423.00,4437.5844,N,12402.8863,W,1,11,0.8,23.3,M,-21.8,M,,*6E
2021-06-15 22:04:25Z, 6cda8203-a249-e411-b0cc-f8bc1246af59, $GPGGA,220424.00,4437.5844,N,12402.8862,W,1,11,0.8,23.3,M,-21.8,M,,*68
2021-06-15 22:04:27Z, 6cda8203-a249-e411-b0cc-f8bc1246af59, $GPGGA,220426.00,4437.5852,N,12402.8857,W,1,11,0.8,23.7,M,-21.8,M,,*6F
2021-06-15 22:04:28Z, 6cda8203-a249-e411-b0cc-f8bc1246af59, $GPGGA,220427.00,4437.5851,N,12402.8855,W,1,11,0.8,23.8,M,-21.8,M,,*60
2021-06-15 22:04:30Z, 6cda8203-a249-e411-b0cc-f8bc1246af59, $GPGGA,220429.00,4437.5851,N,12402.8855,W,1,11,0.8,24.0,M,-21.8,M,,*61
2021-06-15 22:04:31Z, 6cda8203-a249-e411-b0cc-f8bc1246af59, $GPGGA,220430.00,4437.5853,N,12402.8857,W,1,11,0.8,24.0,M,-21.8,M,,*69
2021-06-15 22:04:33Z, 6cda8203-a249-e411-b0cc-f8bc1246af59, $GPGGA,220432.00,4437.5856,N,12402.8859,W,1,11,0.8,24.0,M,-21.8,M,,*60
2021-06-15 22:04:34Z, 6cda8203-a249-e411-b0cc-f8bc1246af59, $GPGGA,220433.00,4437.5858,N,12402.8860,W,1,11,0.8,24.1,M,-21.8,M,,*64
2021-06-15 22:04:36Z, 6cda8203-a249-e411-b0cc-f8bc1246af59, $GPGGA,220435.00,4437.5868,N,12402.8858,W,1,11,0.8,24.0,M,-21.8,M,,*6B
2021-06-15 22:04:37Z, 6cda8203-a249-e411-b0cc-f8bc1246af59, $GPGGA,220436.00,4437.5869,N,12402.8861,W,1,11,0.8,24.0,M,-21.8,M,,*63
2021-06-15 22:04:39Z, 6cda8203-a249-e411-b0cc-f8bc1246af59, $GPGGA,220438.00,4437.5866,N,12402.8866,W,1,11,0.8,23.9,M,-21.8,M,,*6B
2021-06-15 22:04:40Z, 6cda8203-a249-e411-b0cc-f8bc1246af59, $GPGGA,220439.00,4437.5864,N,12402.8865,W,1,11,0.8,23.9,M,-21.8,M,,*6B
2021-06-15 22:04:42Z, 6cda8203-a249-e411-b0cc-f8bc1246af59, $GPGGA,220441.00,4437.5863,N,12402.8859,W,1,11,0.8,23.8,M,-21.8,M,,*6D
2021-06-15 22:04:43Z, 6cda8203-a249-e411-b0cc-f8bc1246af59, $GPGGA,220442.00,4437.5864,N,12402.8858,W,1,11,0.8,23.8,M,-21.8,M,,*68
2021-06-15 22:04:45Z, 6cda8203-a249-e411-b0cc-f8bc1246af59, $GPGGA,220444.00,4437.5863,N,12402.8858,W,1,11,0.8,23.7,M,-21.8,M,,*66
2021-06-15 22:04:46Z, 6cda8203-a249-e411-b0cc-f8bc1246af59, $GPGGA,220445.00,4437.5863,N,12402.8857,W,1,11,0.8,23.6,M,-21.8,M,,*69
2021-06-15 22:04:48Z, 6cda8203-a249-e411-b0cc-f8bc1246af59, $GPGGA,220447.00,4437.5865,N,12402.8853,W,1,11,0.8,23.3,M,-21.8,M,,*6C
2021-06-15 22:04:49Z, 6cda8203-a249-e411-b0cc-f8bc1246af59, $GPGGA,220448.00,4437.5865,N,12402.8852,W,1,11,0.8,23.1,M,-21.8,M,,*60
2021-06-15 22:04:51Z, 6cda8203-a249-e411-b0cc-f8bc1246af59, $GPGGA,220450.00,4437.5863,N,12402.8851,W,1,11,0.8,23.2,M,-21.8,M,,*6F
2021-06-15 22:04:52Z, 6cda8203-a249-e411-b0cc-f8bc1246af59, $GPGGA,220451.00,4437.5864,N,12402.8849,W,1,11,0.8,23.1,M,-21.8,M,,*63
2021-06-15 22:04:54Z, 6cda8203-a249-e411-b0cc-f8bc1246af59, $GPGGA,220453.00,4437.5863,N,12402.8849,W,1,11,0.8,23.0,M,-21.8,M,,*67
2021-06-15 22:04:55Z, 6cda8203-a249-e411-b0cc-f8bc1246af59, $GPGGA,220454.00,4437.5862,N,12402.8848,W,1,11,0.8,22.9,M,-21.8,M,,*68
2021-06-15 22:04:57Z, 6cda8203-a249-e411-b0cc-f8bc1246af59, $GPGGA,220456.00,4437.5862,N,12402.8846,W,1,11,0.8,22.8,M,-21.8,M,,*65
2021-06-15 22:04:58Z, 6cda8203-a249-e411-b0cc-f8bc1246af59, $GPGGA,220457.00,4437.5862,N,12402.8847,W,1,11,0.8,22.8,M,-21.8,M,,*65
2021-06-15 22:05:00Z, 6cda8203-a249-e411-b0cc-f8bc1246af59, $GPGGA,220459.00,4437.5864,N,12402.8852,W,1,11,0.8,22.3,M,-21.8,M,,*62
2021-06-15 22:05:01Z, 6cda8203-a249-e411-b0cc-f8bc1246af59, $GPGGA,220500.00,4437.5864,N,12402.8849,W,1,11,0.8,22.2,M,-21.8,M,,*64
2021-06-15 22:05:03Z, 6cda8203-a249-e411-b0cc-f8bc1246af59, $GPGGA,220502.00,4437.5866,N,12402.8848,W,1,11,0.8,22.2,M,-21.8,M,,*65
2021-06-15 22:05:04Z, 6cda8203-a249-e411-b0cc-f8bc1246af59, $GPGGA,220503.00,4437.5867,N,12402.8848,W,1,11,0.8,22.1,M,-21.8,M,,*66
2021-06-15 22:05:06Z, 6cda8203-a249-e411-b0cc-f8bc1246af59, $GPGGA,220505.00,4437.5865,N,12402.8847,W,1,11,0.8,22.1,M,-21.8,M,,*6D
2021-06-15 22:05:07Z, 6cda8203-a249-e411-b0cc-f8bc1246af59, $GPGGA,220506.00,4437.5866,N,12402.8848,W,1,11,0.8,22.2,M,-21.8,M,,*61
2021-06-15 22:05:09Z, 6cda8203-a249-e411-b0cc-f8bc1246af59, $GPGGA,220508.00,4437.5868,N,12402.8849,W,1,11,0.8,22.3,M,-21.8,M,,*61
2021-06-15 22:05:10Z, 6cda8203-a249-e411-b0cc-f8bc1246af59, $GPGGA,220509.00,4437.5869,N,12402.8849,W,1,11,0.8,22.4,M,-21.8,M,,*66
2021-06-15 22:05:12Z, 6cda8203-a249-e411-b0cc-f8bc1246af59, $GPGGA,220511.00,4437.5870,N,12402.8852,W,1,11,0.8,22.5,M,-21.8,M,,*6C
2021-06-15 22:05:13Z, 6cda8203-a249-e411-b0cc-f8bc1246af59, $GPGGA,220512.00,4437.5871,N,12402.8853,W,1,11,0.8,22.6,M,-21.8,M,,*6C
2021-06-15 22:05:15Z, 6cda8203-a249-e411-b0cc-f8bc1246af59, $GPGGA,220514.00,4437.5873,N,12402.8852,W,1,11,0.8,22.7,M,-21.8,M,,*68
2021-06-15 22:05:16Z, 6cda8203-a249-e411-b0cc-f8bc1246af59, $GPGGA,220515.00,4437.5873,N,12402.8855,W,1,11,0.8,22.7,M,-21.8,M,,*6E
2021-06-15 22:05:18Z, 6cda8203-a249-e411-b0cc-f8bc1246af59, $GPGGA,220517.00,4437.5873,N,12402.8858,W,1,11,0.8,22.8,M,-21.8,M,,*6E
2021-06-15 22:05:19Z, 6cda8203-a249-e411-b0cc-f8bc1246af59, $GPGGA,220518.00,4437.5874,N,12402.8861,W,1,11,0.8,22.8,M,-21.8,M,,*6C
2021-06-15 22:05:21Z, 6cda8203-a249-e411-b0cc-f8bc1246af59, $GPGGA,220520.00,4437.5874,N,12402.8865,W,1,11,0.8,22.9,M,-21.8,M,,*62
2021-06-15 22:05:22Z, 6cda8203-a249-e411-b0cc-f8bc1246af59, $GPGGA,220521.00,4437.5873,N,12402.8866,W,1,11,0.8,23.0,M,-21.8,M,,*6F
2021-06-15 22:05:24Z, 6cda8203-a249-e411-b0cc-f8bc1246af59, $GPGGA,220523.00,4437.5868,N,12402.8868,W,1,11,0.8,23.3,M,-21.8,M,,*6A
2021-06-15 22:05:25Z, 6cda8203-a249-e411-b0cc-f8bc1246af59, $GPGGA,220524.00,4437.5866,N,12402.8869,W,1,11,0.8,23.5,M,-21.8,M,,*64
2021-06-15 22:05:27Z, 6cda8203-a249-e411-b0cc-f8bc1246af59, $GPGGA,220526.00,4437.5864,N,12402.8871,W,1,11,0.8,23.7,M,-21.8,M,,*6F
2021-06-15 22:05:28Z, 6cda8203-a249-e411-b0cc-f8bc1246af59, $GPGGA,220527.00,4437.5862,N,12402.8870,W,1,11,0.8,23.8,M,-21.8,M,,*66
2021-06-15 22:05:30Z, 6cda8203-a249-e411-b0cc-f8bc1246af59, $GPGGA,220529.00,4437.5860,N,12402.8869,W,1,11,0.8,23.9,M,-21.8,M,,*63
2021-06-15 22:05:31Z, 6cda8203-a249-e411-b0cc-f8bc1246af59, $GPGGA,220530.00,4437.5859,N,12402.8867,W,1,11,0.8,23.9,M,-21.8,M,,*6F
2021-06-15 22:05:33Z, 6cda8203-a249-e411-b0cc-f8bc1246af59, $GPGGA,220532.00,4437.5856,N,12402.8866,W,1,11,0.8,24.0,M,-21.8,M,,*6D
2021-06-15 22:05:34Z, 6cda8203-a249-e411-b0cc-f8bc1246af59, $GPGGA,220533.00,4437.5854,N,12402.8866,W,1,11,0.8,24.2,M,-21.8,M,,*6C
2021-06-15 22:05:36Z, 6cda8203-a249-e411-b0cc-f8bc1246af59, $GPGGA,220535.00,4437.5851,N,12402.8866,W,1,11,0.8,24.4,M,-21.8,M,,*69
2021-06-15 22:05:37Z, 6cda8203-a249-e411-b0cc-f8bc1246af59, $GPGGA,220536.00,4437.5850,N,12402.8867,W,1,11,0.8,24.5,M,-21.8,M,,*6B
2021-06-15 22:05:39Z, 6cda8203-a249-e411-b0cc-f8bc1246af59, $GPGGA,220538.00,4437.5848,N,12402.8865,W,1,11,0.8,24.5,M,-21.8,M,,*6E
2021-06-15 22:05:40Z, 6cda8203-a249-e411-b0cc-f8bc1246af59, $GPGGA,220539.00,4437.5848,N,12402.8863,W,1,11,0.8,24.5,M,-21.8,M,,*69
2021-06-15 22:05:42Z, 6cda8203-a249-e411-b0cc-f8bc1246af59, $GPGGA,220541.00,4437.5847,N,12402.8862,W,1,11,0.8,24.4,M,-21.8,M,,*69
2021-06-15 22:05:43Z, 6cda8203-a249-e411-b0cc-f8bc1246af59, $GPGGA,220542.00,4437.5846,N,12402.8862,W,1,11,0.8,24.4,M,-21.8,M,,*6B
2021-06-15 22:05:45Z, 6cda8203-a249-e411-b0cc-f8bc1246af59, $GPGGA,220544.00,4437.5844,N,12402.8862,W,1,11,0.8,24.2,M,-21.8,M,,*69
2021-06-15 22:05:46Z, 6cda8203-a249-e411-b0cc-f8bc1246af59, $GPGGA,220545.00,4437.5844,N,12402.8862,W,1,11,0.8,24.1,M,-21.8,M,,*6B
2021-06-15 22:05:48Z, 6cda8203-a249-e411-b0cc-f8bc1246af59, $GPGGA,220547.00,4437.5843,N,12402.8864,W,1,11,0.8,24.0,M,-21.8,M,,*69
2021-06-15 22:05:49Z, 6cda8203-a249-e411-b0cc-f8bc1246af59, $GPGGA,220548.00,4437.5840,N,12402.8865,W,1,11,0.8,24.1,M,-21.8,M,,*65
2021-06-15 22:05:51Z, 6cda8203-a249-e411-b0cc-f8bc1246af59, $GPGGA,220550.00,4437.5840,N,12402.8866,W,1,11,0.8,24.3,M,-21.8,M,,*6D
2021-06-15 22:05:52Z, 6cda8203-a249-e411-b0cc-f8bc1246af59, $GPGGA,220551.00,4437.5839,N,12402.8864,W,1,11,0.8,24.3,M,-21.8,M,,*60
2021-06-15 22:05:54Z, 6cda8203-a249-e411-b0cc-f8bc1246af59, $GPGGA,220553.00,4437.5839,N,12402.8866,W,1,11,0.8,24.4,M,-21.8,M,,*67
2021-06-15 22:05:55Z, 6cda8203-a249-e411-b0cc-f8bc1246af59, $GPGGA,220554.00,4437.5840,N,12402.8867,W,1,11,0.8,24.5,M,-21.8,M,,*6E
2021-06-15 22:05:56Z, 6cda8203-a249-e411-b0cc-f8bc1246af59, $GPGGA,220555.00,4437.5841,N,12402.8869,W,1,11,0.8,24.5,M,-21.8,M,,*60
2021-06-15 22:05:57Z, 6cda8203-a249-e411-b0cc-f8bc1246af59, $GPGGA,220556.00,4437.5842,N,12402.8869,W,1,11,0.8,24.7,M,-21.8,M,,*62
2021-06-15 22:05:58Z, 6cda8203-a249-e411-b0cc-f8bc1246af59, $GPGGA,220557.00,4437.5844,N,12402.8871,W,1,11,0.8,24.7,M,-21.8,M,,*6C
2021-06-15 22:06:00Z, 6cda8203-a249-e411-b0cc-f8bc1246af59, $GPGGA,220558.00,4437.5844,N,12402.8871,W,1,11,0.8,24.7,M,-21.8,M,,*63
2021-06-15 22:06:01Z, 6cda8203-a249-e411-b0cc-f8bc1246af59, $GPGGA,220559.00,4437.5846,N,12402.8871,W,1,11,0.8,24.8,M,-21.8,M,,*6F
2021-06-15 22:06:02Z, 6cda8203-a249-e411-b0cc-f8bc1246af59, $GPGGA,220601.00,4437.5849,N,12402.8871,W,1,11,0.8,25.0,M,-21.8,M,,*67
2021-06-15 22:06:03Z, 6cda8203-a249-e411-b0cc-f8bc1246af59, $GPGGA,220602.00,4437.5850,N,12402.8873,W,1,11,0.8,25.0,M,-21.8,M,,*6E
2021-06-15 22:06:05Z, 6cda8203-a249-e411-b0cc-f8bc1246af59, $GPGGA,220604.00,4437.5854,N,12402.8873,W,1,11,0.8,25.0,M,-21.8,M,,*6C
2021-06-15 22:06:06Z, 6cda8203-a249-e411-b0cc-f8bc1246af59, $GPGGA,220605.00,4437.5857,N,12402.8873,W,1,11,0.8,25.3,M,-21.8,M,,*6D
2021-06-15 22:06:08Z, 6cda8203-a249-e411-b0cc-f8bc1246af59, $GPGGA,220607.00,4437.5860,N,12402.8876,W,1,11,0.8,25.4,M,-21.8,M,,*69
2021-06-15 22:06:09Z, 6cda8203-a249-e411-b0cc-f8bc1246af59, $GPGGA,220608.00,4437.5861,N,12402.8876,W,1,11,0.8,25.5,M,-21.8,M,,*66
2021-06-15 22:06:11Z, 6cda8203-a249-e411-b0cc-f8bc1246af59, $GPGGA,220610.00,4437.5862,N,12402.8876,W,1,11,0.8,25.8,M,-21.8,M,,*61
2021-06-15 22:06:12Z, 6cda8203-a249-e411-b0cc-f8bc1246af59, $GPGGA,220611.00,4437.5864,N,12402.8878,W,1,11,0.8,25.9,M,-21.8,M,,*69
2021-06-15 22:06:14Z, 6cda8203-a249-e411-b0cc-f8bc1246af59, $GPGGA,220613.00,4437.5865,N,12402.8877,W,1,11,0.8,25.7,M,-21.8,M,,*6B
2021-06-15 22:06:15Z, 6cda8203-a249-e411-b0cc-f8bc1246af59, $GPGGA,220614.00,4437.5866,N,12402.8878,W,1,11,0.8,25.8,M,-21.8,M,,*6F
2021-06-15 22:06:17Z, 6cda8203-a249-e411-b0cc-f8bc1246af59, $GPGGA,220616.00,4437.5870,N,12402.8878,W,1,11,0.8,25.9,M,-21.8,M,,*6B
2021-06-15 22:06:18Z, 6cda8203-a249-e411-b0cc-f8bc1246af59, $GPGGA,220617.00,4437.5870,N,12402.8876,W,1,11,0.8,26.0,M,-21.8,M,,*6E
2021-06-15 22:06:20Z, 6cda8203-a249-e411-b0cc-f8bc1246af59, $GPGGA,220619.00,4437.5870,N,12402.8878,W,1,11,0.8,26.0,M,-21.8,M,,*6E
2021-06-15 22:06:21Z, 6cda8203-a249-e411-b0cc-f8bc1246af59, $GPGGA,220620.00,4437.5870,N,12402.8877,W,1,11,0.8,26.0,M,-21.8,M,,*6B
2021-06-15 22:06:23Z, 6cda8203-a249-e411-b0cc-f8bc1246af59, $GPGGA,220622.00,4437.5869,N,12402.8877,W,1,11,0.8,26.1,M,-21.8,M,,*60
2021-06-15 22:06:24Z, 6cda8203-a249-e411-b0cc-f8bc1246af59, $GPGGA,220623.00,4437.5868,N,12402.8881,W,1,11,0.8,25.9,M,-21.8,M,,*62
2021-06-15 22:06:26Z, 6cda8203-a249-e411-b0cc-f8bc1246af59, $GPGGA,220625.00,4437.5867,N,12402.8882,W,1,11,0.8,25.8,M,-21.8,M,,*69
2021-06-15 22:06:27Z, 6cda8203-a249-e411-b0cc-f8bc1246af59, $GPGGA,220626.00,4437.5867,N,12402.8880,W,1,11,0.8,25.8,M,-21.8,M,,*68
2021-06-15 22:06:29Z, 6cda8203-a249-e411-b0cc-f8bc1246af59, $GPGGA,220628.00,4437.5865,N,12402.8880,W,1,11,0.8,26.0,M,-21.8,M,,*6F
2021-06-15 22:06:30Z, 6cda8203-a249-e411-b0cc-f8bc1246af59, $GPGGA,220629.00,4437.5863,N,12402.8880,W,1,11,0.8,26.1,M,-21.8,M,,*69
2021-06-15 22:06:32Z, 6cda8203-a249-e411-b0cc-f8bc1246af59, $GPGGA,220631.00,4437.5862,N,12402.8878,W,1,11,0.8,26.1,M,-21.8,M,,*66
2021-06-15 22:06:33Z, 6cda8203-a249-e411-b0cc-f8bc1246af59, $GPGGA,220632.00,4437.5863,N,12402.8879,W,1,11,0.8,26.2,M,-21.8,M,,*66
2021-06-15 22:06:35Z, 6cda8203-a249-e411-b0cc-f8bc1246af59, $GPGGA,220634.00,4437.5864,N,12402.8879,W,1,11,0.8,26.3,M,-21.8,M,,*66
2021-06-15 22:06:36Z, 6cda8203-a249-e411-b0cc-f8bc1246af59, $GPGGA,220635.00,4437.5862,N,12402.8878,W,1,11,0.8,26.4,M,-21.8,M,,*67
2021-06-15 22:06:38Z, 6cda8203-a249-e411-b0cc-f8bc1246af59, $GPGGA,220637.00,4437.5861,N,12402.8877,W,1,11,0.8,26.4,M,-21.8,M,,*69
2021-06-15 22:06:39Z, 6cda8203-a249-e411-b0cc-f8bc1246af59, $GPGGA,220638.00,4437.5858,N,12402.8875,W,1,11,0.8,26.4,M,-21.8,M,,*6E
2021-06-15 22:06:41Z, 6cda8203-a249-e411-b0cc-f8bc1246af59, $GPGGA,220640.00,4437.5855,N,12402.8874,W,1,11,0.8,26.5,M,-21.8,M,,*6C
2021-06-15 22:06:42Z, 6cda8203-a249-e411-b0cc-f8bc1246af59, $GPGGA,220641.00,4437.5855,N,12402.8874,W,1,11,0.8,26.6,M,-21.8,M,,*6E
2021-06-15 22:06:44Z, 6cda8203-a249-e411-b0cc-f8bc1246af59, $GPGGA,220643.00,4437.5852,N,12402.8871,W,1,11,0.8,26.8,M,-21.8,M,,*60
2021-06-15 22:06:45Z, 6cda8203-a249-e411-b0cc-f8bc1246af59, $GPGGA,220644.00,4437.5851,N,12402.8872,W,1,11,0.8,26.8,M,-21.8,M,,*67
2021-06-15 22:06:47Z, 6cda8203-a249-e411-b0cc-f8bc1246af59, $GPGGA,220646.00,4437.5850,N,12402.8873,W,1,11,0.8,26.7,M,-21.8,M,,*6A
2021-06-15 22:06:48Z, 6cda8203-a249-e411-b0cc-f8bc1246af59, $GPGGA,220647.00,4437.5848,N,12402.8872,W,1,11,0.8,26.7,M,-21.8,M,,*63
2021-06-15 22:06:50Z, 6cda8203-a249-e411-b0cc-f8bc1246af59, $GPGGA,220649.00,4437.5848,N,12402.8873,W,1,11,0.8,26.8,M,-21.8,M,,*63
2021-06-15 22:06:51Z, 6cda8203-a249-e411-b0cc-f8bc1246af59, $GPGGA,220650.00,4437.5849,N,12402.8874,W,1,11,0.8,26.9,M,-21.8,M,,*6C
2021-06-15 22:06:53Z, 6cda8203-a249-e411-b0cc-f8bc1246af59, $GPGGA,220652.00,4437.5847,N,12402.8876,W,1,11,0.8,26.9,M,-21.8,M,,*62
2021-06-15 22:06:54Z, 6cda8203-a249-e411-b0cc-f8bc1246af59, $GPGGA,220653.00,4437.5848,N,12402.8876,W,1,11,0.8,26.8,M,-21.8,M,,*6D
2021-06-15 22:06:56Z, 6cda8203-a249-e411-b0cc-f8bc1246af59, $GPGGA,220655.00,4437.5849,N,12402.8877,W,1,11,0.8,26.7,M,-21.8,M,,*64
2021-06-15 22:06:57Z, 6cda8203-a249-e411-b0cc-f8bc1246af59, $GPGGA,220656.00,4437.5850,N,12402.8876,W,1,11,0.8,26.6,M,-21.8,M,,*6F
2021-06-15 22:06:59Z, 6cda8203-a249-e411-b0cc-f8bc1246af59, $GPGGA,220658.00,4437.5851,N,12402.8875,W,1,11,0.8,26.5,M,-21.8,M,,*60
2021-06-15 22:07:00Z, 6cda8203-a249-e411-b0cc-f8bc1246af59, $GPGGA,220659.00,4437.5853,N,12402.8874,W,1,11,0.8,26.4,M,-21.8,M,,*63
2021-06-15 22:07:02Z, 6cda8203-a249-e411-b0cc-f8bc1246af59, $GPGGA,220701.00,4437.5855,N,12402.8877,W,1,11,0.8,26.2,M,-21.8,M,,*6C
2021-06-15 22:07:03Z, 6cda8203-a249-e411-b0cc-f8bc1246af59, $GPGGA,220702.00,4437.5855,N,12402.8881,W,1,11,0.8,26.2,M,-21.8,M,,*66
2021-06-15 22:07:05Z, 6cda8203-a249-e411-b0cc-f8bc1246af59, $GPGGA,220704.00,4437.5859,N,12402.8881,W,1,11,0.8,26.2,M,-21.8,M,,*6C
2021-06-15 22:07:06Z, 6cda8203-a249-e411-b0cc-f8bc1246af59, $GPGGA,220705.00,4437.5859,N,12402.8880,W,1,11,0.8,26.2,M,-21.8,M,,*6C
2021-06-15 22:07:08Z, 6cda8203-a249-e411-b0cc-f8bc1246af59, $GPGGA,220707.00,4437.5859,N,12402.8878,W,1,11,0.8,26.1,M,-21.8,M,,*6A
2021-06-15 22:07:09Z, 6cda8203-a249-e411-b0cc-f8bc1246af59, $GPGGA,220708.00,4437.5860,N,12402.8876,W,1,11,0.8,26.1,M,-21.8,M,,*61
2021-06-15 22:07:11Z, 6cda8203-a249-e411-b0cc-f8bc1246af59, $GPGGA,220710.00,4437.5861,N,12402.8872,W,1,11,0.8,26.0,M,-21.8,M,,*6C
2021-06-15 22:07:12Z, 6cda8203-a249-e411-b0cc-f8bc1246af59, $GPGGA,220711.00,4437.5861,N,12402.8869,W,1,11,0.8,25.9,M,-21.8,M,,*6D
2021-06-15 22:07:14Z, 6cda8203-a249-e411-b0cc-f8bc1246af59, $GPGGA,220713.00,4437.5862,N,12402.8865,W,1,11,0.8,25.7,M,-21.8,M,,*6E
2021-06-15 22:07:15Z, 6cda8203-a249-e411-b0cc-f8bc1246af59, $GPGGA,220714.00,4437.5862,N,12402.8862,W,1,11,0.8,25.7,M,-21.8,M,,*6E
2021-06-15 22:07:17Z, 6cda8203-a249-e411-b0cc-f8bc1246af59, $GPGGA,220716.00,4437.5863,N,12402.8857,W,1,11,0.8,25.8,M,-21.8,M,,*64
2021-06-15 22:07:18Z, 6cda8203-a249-e411-b0cc-f8bc1246af59, $GPGGA,220717.00,4437.5864,N,12402.8852,W,1,11,0.8,25.8,M,-21.8,M,,*67
2021-06-15 22:07:20Z, 6cda8203-a249-e411-b0cc-f8bc1246af59, $GPGGA,220719.00,4437.5865,N,12402.8853,W,1,11,0.8,25.7,M,-21.8,M,,*66
2021-06-15 22:07:21Z, 6cda8203-a249-e411-b0cc-f8bc1246af59, $GPGGA,220720.00,4437.5865,N,12402.8854,W,1,11,0.8,25.6,M,-21.8,M,,*6A
2021-06-15 22:07:23Z, 6cda8203-a249-e411-b0cc-f8bc1246af59, $GPGGA,220722.00,4437.5865,N,12402.8854,W,1,11,0.8,25.5,M,-21.8,M,,*6B
2021-06-15 22:07:24Z, 6cda8203-a249-e411-b0cc-f8bc1246af59, $GPGGA,220723.00,4437.5866,N,12402.8855,W,1,11,0.8,25.5,M,-21.8,M,,*68
2021-06-15 22:07:26Z, 6cda8203-a249-e411-b0cc-f8bc1246af59, $GPGGA,220725.00,4437.5867,N,12402.8856,W,1,11,0.8,25.4,M,-21.8,M,,*6D
2021-06-15 22:07:27Z, 6cda8203-a249-e411-b0cc-f8bc1246af59, $GPGGA,220726.00,4437.5869,N,12402.8858,W,1,11,0.8,25.4,M,-21.8,M,,*6E
2021-06-15 22:07:29Z, 6cda8203-a249-e411-b0cc-f8bc1246af59, $GPGGA,220728.00,4437.5866,N,12402.8858,W,1,11,0.8,25.4,M,-21.8,M,,*6F
2021-06-15 22:07:30Z, 6cda8203-a249-e411-b0cc-f8bc1246af59, $GPGGA,220729.00,4437.5867,N,12402.8859,W,1,11,0.8,25.3,M,-21.8,M,,*69
2021-06-15 22:07:32Z, 6cda8203-a249-e411-b0cc-f8bc1246af59, $GPGGA,220731.00,4437.5868,N,12402.8860,W,1,11,0.8,25.2,M,-21.8,M,,*64
2021-06-15 22:07:33Z, 6cda8203-a249-e411-b0cc-f8bc1246af59, $GPGGA,220732.00,4437.5868,N,12402.8859,W,1,11,0.8,25.2,M,-21.8,M,,*6D
2021-06-15 22:07:35Z, 6cda8203-a249-e411-b0cc-f8bc1246af59, $GPGGA,220734.00,4437.5868,N,12402.8858,W,1,10,0.8,25.1,M,-21.8,M,,*68
2021-06-15 22:07:36Z, 6cda8203-a249-e411-b0cc-f8bc1246af59, $GPGGA,220735.00,4437.5869,N,12402.8856,W,1,10,0.8,25.1,M,-21.8,M,,*66
2021-06-15 22:07:38Z, 6cda8203-a249-e411-b0cc-f8bc1246af59, $GPGGA,220737.00,4437.5871,N,12402.8851,W,1,10,0.8,25.1,M,-21.8,M,,*6A
2021-06-15 22:07:39Z, 6cda8203-a249-e411-b0cc-f8bc1246af59, $GPGGA,220738.00,4437.5871,N,12402.8849,W,1,10,0.8,25.1,M,-21.8,M,,*6C
2021-06-15 22:07:41Z, 6cda8203-a249-e411-b0cc-f8bc1246af59, $GPGGA,220740.00,4437.5869,N,12402.8843,W,1,10,0.8,25.3,M,-21.8,M,,*62
2021-06-15 22:07:42Z, 6cda8203-a249-e411-b0cc-f8bc1246af59, $GPGGA,220741.00,4437.5869,N,12402.8839,W,1,10,0.8,25.3,M,-21.8,M,,*6E
2021-06-15 22:07:44Z, 6cda8203-a249-e411-b0cc-f8bc1246af59, $GPGGA,220743.00,4437.5868,N,12402.8839,W,1,10,0.8,25.3,M,-21.8,M,,*6D
2021-06-15 22:07:45Z, 6cda8203-a249-e411-b0cc-f8bc1246af59, $GPGGA,220744.00,4437.5868,N,12402.8837,W,1,10,0.8,25.4,M,-21.8,M,,*63
2021-06-15 22:07:47Z, 6cda8203-a249-e411-b0cc-f8bc1246af59, $GPGGA,220746.00,4437.5867,N,12402.8837,W,1,10,0.8,25.5,M,-21.8,M,,*6F
2021-06-15 22:07:48Z, 6cda8203-a249-e411-b0cc-f8bc1246af59, $GPGGA,220747.00,4437.5868,N,12402.8835,W,1,10,0.8,25.6,M,-21.8,M,,*60
2021-06-15 22:07:50Z, 6cda8203-a249-e411-b0cc-f8bc1246af59, $GPGGA,220749.00,4437.5868,N,12402.8834,W,1,10,0.8,25.6,M,-21.8,M,,*6F
2021-06-15 22:07:51Z, 6cda8203-a249-e411-b0cc-f8bc1246af59, $GPGGA,220750.00,4437.5869,N,12402.8834,W,1,10,0.8,25.6,M,-21.8,M,,*66
2021-06-15 22:07:53Z, 6cda8203-a249-e411-b0cc-f8bc1246af59, $GPGGA,220752.00,4437.5871,N,12402.8833,W,1,10,0.8,25.8,M,-21.8,M,,*64
2021-06-15 22:07:54Z, 6cda8203-a249-e411-b0cc-f8bc1246af59, $GPGGA,220753.00,4437.5872,N,12402.8833,W,1,10,0.8,26.0,M,-21.8,M,,*6D
2021-06-15 22:07:56Z, 6cda8203-a249-e411-b0cc-f8bc1246af59, $GPGGA,220755.00,4437.5875,N,12402.8833,W,1,10,0.8,26.2,M,-21.8,M,,*6E
2021-06-15 22:07:57Z, 6cda8203-a249-e411-b0cc-f8bc1246af59, $GPGGA,220756.00,4437.5875,N,12402.8834,W,1,10,0.8,26.3,M,-21.8,M,,*6B
2021-06-15 22:07:59Z, 6cda8203-a249-e411-b0cc-f8bc1246af59, $GPGGA,220758.00,4437.5875,N,12402.8838,W,1,10,0.8,26.5,M,-21.8,M,,*6F
2021-06-15 22:08:00Z, 6cda8203-a249-e411-b0cc-f8bc1246af59, $GPGGA,220759.00,4437.5876,N,12402.8839,W,1,10,0.8,26.4,M,-21.8,M,,*6D
2021-06-15 22:08:01Z, 6cda8203-a249-e411-b0cc-f8bc1246af59, $GPGGA,220800.00,4437.5876,N,12402.8839,W,1,10,0.8,26.4,M,-21.8,M,,*6E
2021-06-15 22:08:02Z, 6cda8203-a249-e411-b0cc-f8bc1246af59, $GPGGA,220801.00,4437.5875,N,12402.8838,W,1,10,0.8,26.3,M,-21.8,M,,*6A
2021-06-15 22:08:03Z, 6cda8203-a249-e411-b0cc-f8bc1246af59, $GPGGA,220802.00,4437.5875,N,12402.8839,W,1,10,0.8,26.3,M,-21.8,M,,*68
2021-06-15 22:08:04Z, 6cda8203-a249-e411-b0cc-f8bc1246af59, $GPGGA,220803.00,4437.5876,N,12402.8839,W,1,10,0.8,26.3,M,-21.8,M,,*6A
2021-06-15 22:08:06Z, 6cda8203-a249-e411-b0cc-f8bc1246af59, $GPGGA,220804.00,4437.5876,N,12402.8840,W,1,10,0.8,26.2,M,-21.8,M,,*62
2021-06-15 22:08:07Z, 6cda8203-a249-e411-b0cc-f8bc1246af59, $GPGGA,220806.00,4437.5875,N,12402.8844,W,1,10,0.8,26.2,M,-21.8,M,,*67
2021-06-15 22:08:08Z, 6cda8203-a249-e411-b0cc-f8bc1246af59, $GPGGA,220807.00,4437.5875,N,12402.8843,W,1,10,0.8,26.2,M,-21.8,M,,*61
2021-06-15 22:08:10Z, 6cda8203-a249-e411-b0cc-f8bc1246af59, $GPGGA,220809.00,4437.5875,N,12402.8844,W,1,10,0.8,26.2,M,-21.8,M,,*68
2021-06-15 22:08:11Z, 6cda8203-a249-e411-b0cc-f8bc1246af59, $GPGGA,220810.00,4437.5875,N,12402.8845,W,1,10,0.8,26.2,M,-21.8,M,,*61
2021-06-15 22:08:13Z, 6cda8203-a249-e411-b0cc-f8bc1246af59, $GPGGA,220812.00,4437.5874,N,12402.8848,W,1,10,0.8,26.4,M,-21.8,M,,*69
2021-06-15 22:08:14Z, 6cda8203-a249-e411-b0cc-f8bc1246af59, $GPGGA,220813.00,4437.5875,N,12402.8849,W,1,10,0.8,26.5,M,-21.8,M,,*69
2021-06-15 22:08:16Z, 6cda8203-a249-e411-b0cc-f8bc1246af59, $GPGGA,220815.00,4437.5883,N,12402.8858,W,1,10,0.8,26.6,M,-21.8,M,,*65
2021-06-15 22:08:17Z, 6cda8203-a249-e411-b0cc-f8bc1246af59, $GPGGA,220816.00,4437.5883,N,12402.8860,W,1,10,0.8,26.6,M,-21.8,M,,*6D
2021-06-15 22:08:19Z, 6cda8203-a249-e411-b0cc-f8bc1246af59, $GPGGA,220818.00,4437.5885,N,12402.8866,W,1,10,0.8,26.8,M,-21.8,M,,*6D
2021-06-15 22:08:20Z, 6cda8203-a249-e411-b0cc-f8bc1246af59, $GPGGA,220819.00,4437.5886,N,12402.8867,W,1,10,0.8,26.7,M,-21.8,M,,*61
2021-06-15 22:08:22Z, 6cda8203-a249-e411-b0cc-f8bc1246af59, $GPGGA,220821.00,4437.5887,N,12402.8870,W,1,10,0.8,26.7,M,-21.8,M,,*6D
2021-06-15 22:08:23Z, 6cda8203-a249-e411-b0cc-f8bc1246af59, $GPGGA,220822.00,4437.5887,N,12402.8871,W,1,10,0.8,26.7,M,-21.8,M,,*6F
2021-06-15 22:08:25Z, 6cda8203-a249-e411-b0cc-f8bc1246af59, $GPGGA,220824.00,4437.5887,N,12402.8874,W,1,10,0.8,26.8,M,-21.8,M,,*63
2021-06-15 22:08:26Z, 6cda8203-a249-e411-b0cc-f8bc1246af59, $GPGGA,220825.00,4437.5889,N,12402.8872,W,1,10,0.8,26.9,M,-21.8,M,,*6B
2021-06-15 22:08:28Z, 6cda8203-a249-e411-b0cc-f8bc1246af59, $GPGGA,220827.00,4437.5888,N,12402.8875,W,1,10,0.8,27.1,M,-21.8,M,,*66
2021-06-15 22:08:29Z, 6cda8203-a249-e411-b0cc-f8bc1246af59, $GPGGA,220828.00,4437.5888,N,12402.8874,W,1,10,0.8,27.1,M,-21.8,M,,*68
2021-06-15 22:08:31Z, 6cda8203-a249-e411-b0cc-f8bc1246af59, $GPGGA,220830.00,4437.5887,N,12402.8872,W,1,10,0.8,27.0,M,-21.8,M,,*69
2021-06-15 22:08:32Z, 6cda8203-a249-e411-b0cc-f8bc1246af59, $GPGGA,220831.00,4437.5887,N,12402.8868,W,1,10,0.8,27.1,M,-21.8,M,,*62
2021-06-15 22:08:34Z, 6cda8203-a249-e411-b0cc-f8bc1246af59, $GPGGA,220833.00,4437.5886,N,12402.8869,W,1,10,0.8,27.0,M,-21.8,M,,*61
2021-06-15 22:08:35Z, 6cda8203-a249-e411-b0cc-f8bc1246af59, $GPGGA,220834.00,4437.5885,N,12402.8870,W,1,10,0.8,27.0,M,-21.8,M,,*6D
2021-06-15 22:08:37Z, 6cda8203-a249-e411-b0cc-f8bc1246af59, $GPGGA,220836.00,4437.5882,N,12402.8868,W,1,10,0.8,26.9,M,-21.8,M,,*69
2021-06-15 22:08:38Z, 6cda8203-a249-e411-b0cc-f8bc1246af59, $GPGGA,220837.00,4437.5880,N,12402.8867,W,1,10,0.8,26.8,M,-21.8,M,,*64
2021-06-15 22:08:40Z, 6cda8203-a249-e411-b0cc-f8bc1246af59, $GPGGA,220839.00,4437.5877,N,12402.8866,W,1,10,0.8,26.7,M,-21.8,M,,*6C
2021-06-15 22:08:41Z, 6cda8203-a249-e411-b0cc-f8bc1246af59, $GPGGA,220840.00,4437.5877,N,12402.8866,W,1,10,0.8,26.8,M,-21.8,M,,*6D
2021-06-15 22:08:43Z, 6cda8203-a249-e411-b0cc-f8bc1246af59, $GPGGA,220842.00,4437.5876,N,12402.8862,W,1,10,0.8,26.8,M,-21.8,M,,*6A
2021-06-15 22:08:44Z, 6cda8203-a249-e411-b0cc-f8bc1246af59, $GPGGA,220843.00,4437.5876,N,12402.8862,W,1,10,0.8,26.9,M,-21.8,M,,*6A
2021-06-15 22:08:46Z, 6cda8203-a249-e411-b0cc-f8bc1246af59, $GPGGA,220845.00,4437.5875,N,12402.8861,W,1,10,0.8,26.9,M,-21.8,M,,*6C
2021-06-15 22:08:47Z, 6cda8203-a249-e411-b0cc-f8bc1246af59, $GPGGA,220846.00,4437.5874,N,12402.8860,W,1,10,0.8,26.9,M,-21.8,M,,*6F
2021-06-15 22:08:49Z, 6cda8203-a249-e411-b0cc-f8bc1246af59, $GPGGA,220848.00,4437.5873,N,12402.8859,W,1,10,0.8,26.9,M,-21.8,M,,*6C
2021-06-15 22:08:50Z, 6cda8203-a249-e411-b0cc-f8bc1246af59, $GPGGA,220849.00,4437.5873,N,12402.8859,W,1,10,0.8,26.9,M,-21.8,M,,*6D
2021-06-15 22:08:52Z, 6cda8203-a249-e411-b0cc-f8bc1246af59, $GPGGA,220851.00,4437.5872,N,12402.8858,W,1,10,0.8,26.9,M,-21.8,M,,*64
2021-06-15 22:08:53Z, 6cda8203-a249-e411-b0cc-f8bc1246af59, $GPGGA,220852.00,4437.5873,N,12402.8858,W,1,10,0.8,26.9,M,-21.8,M,,*66
2021-06-15 22:08:55Z, 6cda8203-a249-e411-b0cc-f8bc1246af59, $GPGGA,220854.00,4437.5872,N,12402.8858,W,1,10,0.8,26.9,M,-21.8,M,,*61
2021-06-15 22:08:56Z, 6cda8203-a249-e411-b0cc-f8bc1246af59, $GPGGA,220855.00,4437.5872,N,12402.8858,W,1,10,0.8,26.9,M,-21.8,M,,*60
2021-06-15 22:08:58Z, 6cda8203-a249-e411-b0cc-f8bc1246af59, $GPGGA,220857.00,4437.5872,N,12402.8857,W,1,10,0.8,26.9,M,-21.8,M,,*6D
2021-06-15 22:08:59Z, 6cda8203-a249-e411-b0cc-f8bc1246af59, $GPGGA,220858.00,4437.5873,N,12402.8857,W,1,10,0.8,26.8,M,-21.8,M,,*62
2021-06-15 22:09:01Z, 6cda8203-a249-e411-b0cc-f8bc1246af59, $GPGGA,220900.00,4437.5873,N,12402.8857,W,1,10,0.8,26.8,M,-21.8,M,,*6E
2021-06-15 22:09:02Z, 6cda8203-a249-e411-b0cc-f8bc1246af59, $GPGGA,220901.00,4437.5872,N,12402.8857,W,1,10,0.8,26.8,M,-21.8,M,,*6E
2021-06-15 22:09:04Z, 6cda8203-a249-e411-b0cc-f8bc1246af59, $GPGGA,220903.00,4437.5872,N,12402.8857,W,1,10,0.8,26.8,M,-21.8,M,,*6C
2021-06-15 22:09:05Z, 6cda8203-a249-e411-b0cc-f8bc1246af59, $GPGGA,220904.00,4437.5873,N,12402.8856,W,1,10,0.8,26.8,M,-21.8,M,,*6B
2021-06-15 22:09:07Z, 6cda8203-a249-e411-b0cc-f8bc1246af59, $GPGGA,220906.00,4437.5871,N,12402.8843,W,1,10,0.8,26.3,M,-21.8,M,,*64
2021-06-15 22:09:08Z, 6cda8203-a249-e411-b0cc-f8bc1246af59, $GPGGA,220907.00,4437.5871,N,12402.8843,W,1,10,0.8,26.3,M,-21.8,M,,*65
2021-06-15 22:09:10Z, 6cda8203-a249-e411-b0cc-f8bc1246af59, $GPGGA,220909.00,4437.5866,N,12402.8833,W,1,10,0.8,26.2,M,-21.8,M,,*6B
2021-06-15 22:09:11Z, 6cda8203-a249-e411-b0cc-f8bc1246af59, $GPGGA,220910.00,4437.5866,N,12402.8831,W,1,10,0.8,26.3,M,-21.8,M,,*60
2021-06-15 22:09:13Z, 6cda8203-a249-e411-b0cc-f8bc1246af59, $GPGGA,220912.00,4437.5866,N,12402.8832,W,1,10,0.8,26.5,M,-21.8,M,,*67
2021-06-15 22:09:14Z, 6cda8203-a249-e411-b0cc-f8bc1246af59, $GPGGA,220913.00,4437.5867,N,12402.8829,W,1,10,0.8,26.6,M,-21.8,M,,*6E
2021-06-15 22:09:16Z, 6cda8203-a249-e411-b0cc-f8bc1246af59, $GPGGA,220915.00,4437.5868,N,12402.8825,W,1,10,0.8,26.7,M,-21.8,M,,*6A
2021-06-15 22:09:17Z, 6cda8203-a249-e411-b0cc-f8bc1246af59, $GPGGA,220916.00,4437.5867,N,12402.8825,W,1,10,0.8,26.7,M,-21.8,M,,*66
2021-06-15 22:09:19Z, 6cda8203-a249-e411-b0cc-f8bc1246af59, $GPGGA,220918.00,4437.5873,N,12402.8819,W,1,10,0.8,28.0,M,-21.8,M,,*6B
2021-06-15 22:09:20Z, 6cda8203-a249-e411-b0cc-f8bc1246af59, $GPGGA,220919.00,4437.5873,N,12402.8818,W,1,10,0.8,28.1,M,-21.8,M,,*6A
2021-06-15 22:09:22Z, 6cda8203-a249-e411-b0cc-f8bc1246af59, $GPGGA,220921.00,4437.5872,N,12402.8815,W,1,10,0.8,28.5,M,-21.8,M,,*69
2021-06-15 22:09:23Z, 6cda8203-a249-e411-b0cc-f8bc1246af59, $GPGGA,220922.00,4437.5872,N,12402.8815,W,1,10,0.8,28.5,M,-21.8,M,,*6A
2021-06-15 22:09:25Z, 6cda8203-a249-e411-b0cc-f8bc1246af59, $GPGGA,220924.00,4437.5870,N,12402.8818,W,1,10,0.8,28.9,M,-21.8,M,,*6F
2021-06-15 22:09:26Z, 6cda8203-a249-e411-b0cc-f8bc1246af59, $GPGGA,220925.00,4437.5867,N,12402.8818,W,1,10,0.8,29.0,M,-21.8,M,,*60
2021-06-15 22:09:28Z, 6cda8203-a249-e411-b0cc-f8bc1246af59, $GPGGA,220927.00,4437.5865,N,12402.8816,W,1,10,0.8,29.0,M,-21.8,M,,*6E
2021-06-15 22:09:29Z, 6cda8203-a249-e411-b0cc-f8bc1246af59, $GPGGA,220928.00,4437.5863,N,12402.8814,W,1,10,0.8,28.8,M,-21.8,M,,*6C
2021-06-15 22:09:31Z, 6cda8203-a249-e411-b0cc-f8bc1246af59, $GPGGA,220930.00,4437.5859,N,12402.8808,W,1,10,0.8,29.2,M,-21.8,M,,*6A
2021-06-15 22:09:32Z, 6cda8203-a249-e411-b0cc-f8bc1246af59, $GPGGA,220931.00,4437.5858,N,12402.8808,W,1,10,0.8,29.5,M,-21.8,M,,*6D
2021-06-15 22:09:34Z, 6cda8203-a249-e411-b0cc-f8bc1246af59, $GPGGA,220933.00,4437.5856,N,12402.8809,W,1,10,0.8,29.9,M,-21.8,M,,*6C
2021-06-15 22:09:35Z, 6cda8203-a249-e411-b0cc-f8bc1246af59, $GPGGA,220934.00,4437.5847,N,12402.8801,W,1,10,0.8,30.8,M,-21.8,M,,*6A
2021-06-15 22:09:37Z, 6cda8203-a249-e411-b0cc-f8bc1246af59, $GPGGA,220936.00,4437.5847,N,12402.8801,W,1,10,0.8,31.3,M,-21.8,M,,*62
2021-06-15 22:09:38Z, 6cda8203-a249-e411-b0cc-f8bc1246af59, $GPGGA,220937.00,4437.5846,N,12402.8801,W,1,10,0.8,31.5,M,-21.8,M,,*64
2021-06-15 22:09:40Z, 6cda8203-a249-e411-b0cc-f8bc1246af59, $GPGGA,220939.00,4437.5845,N,12402.8798,W,1,10,0.8,31.9,M,-21.8,M,,*6A
2021-06-15 22:09:41Z, 6cda8203-a249-e411-b0cc-f8bc1246af59, $GPGGA,220940.00,4437.5846,N,12402.8801,W,1,10,0.8,31.8,M,-21.8,M,,*69
2021-06-15 22:09:43Z, 6cda8203-a249-e411-b0cc-f8bc1246af59, $GPGGA,220942.00,4437.5847,N,12402.8804,W,1,10,0.8,31.7,M,-21.8,M,,*60
2021-06-15 22:09:44Z, 6cda8203-a249-e411-b0cc-f8bc1246af59, $GPGGA,220943.00,4437.5847,N,12402.8805,W,1,10,0.8,31.6,M,-21.8,M,,*61
2021-06-15 22:09:46Z, 6cda8203-a249-e411-b0cc-f8bc1246af59, $GPGGA,220945.00,4437.5850,N,12402.8808,W,1,10,0.8,31.5,M,-21.8,M,,*6F
2021-06-15 22:09:47Z, 6cda8203-a249-e411-b0cc-f8bc1246af59, $GPGGA,220946.00,4437.5850,N,12402.8809,W,1,10,0.8,31.5,M,-21.8,M,,*6D
2021-06-15 22:09:49Z, 6cda8203-a249-e411-b0cc-f8bc1246af59, $GPGGA,220948.00,4437.5852,N,12402.8806,W,1,10,0.8,31.3,M,-21.8,M,,*68
2021-06-15 22:09:50Z, 6cda8203-a249-e411-b0cc-f8bc1246af59, $GPGGA,220949.00,4437.5851,N,12402.8805,W,1,10,0.8,31.3,M,-21.8,M,,*69
2021-06-15 22:09:52Z, 6cda8203-a249-e411-b0cc-f8bc1246af59, $GPGGA,220951.00,4437.5850,N,12402.8806,W,1,10,0.8,31.5,M,-21.8,M,,*64
2021-06-15 22:09:53Z, 6cda8203-a249-e411-b0cc-f8bc1246af59, $GPGGA,220952.00,4437.5849,N,12402.8805,W,1,10,0.8,31.5,M,-21.8,M,,*6C
2021-06-15 22:09:55Z, 6cda8203-a249-e411-b0cc-f8bc1246af59, $GPGGA,220954.00,4437.5849,N,12402.8808,W,1,10,0.8,31.8,M,-21.8,M,,*6A
2021-06-15 22:09:56Z, 6cda8203-a249-e411-b0cc-f8bc1246af59, $GPGGA,220955.00,4437.5849,N,12402.8813,W,1,10,0.8,32.2,M,-21.8,M,,*68
2021-06-15 22:09:58Z, 6cda8203-a249-e411-b0cc-f8bc1246af59, $GPGGA,220957.00,4437.5848,N,12402.8817,W,1,10,0.8,32.5,M,-21.8,M,,*68
2021-06-15 22:09:59Z, 6cda8203-a249-e411-b0cc-f8bc1246af59, $GPGGA,220958.00,4437.5848,N,12402.8819,W,1,10,0.8,32.5,M,-21.8,M,,*69
2021-06-15 22:10:01Z, 6cda8203-a249-e411-b0cc-f8bc1246af59, $GPGGA,221000.00,4437.5849,N,12402.8822,W,1,10,0.8,32.5,M,-21.8,M,,*65
2021-06-15 22:10:02Z, 6cda8203-a249-e411-b0cc-f8bc1246af59, $GPGGA,221001.00,4437.5848,N,12402.8823,W,1,10,0.8,32.6,M,-21.8,M,,*67
2021-06-15 22:10:04Z, 6cda8203-a249-e411-b0cc-f8bc1246af59, $GPGGA,221003.00,4437.5848,N,12402.8826,W,1,10,0.8,32.7,M,-21.8,M,,*61
2021-06-15 22:10:05Z, 6cda8203-a249-e411-b0cc-f8bc1246af59, $GPGGA,221004.00,4437.5849,N,12402.8828,W,1,10,0.8,32.7,M,-21.8,M,,*69
2021-06-15 22:10:06Z, 6cda8203-a249-e411-b0cc-f8bc1246af59, $GPGGA,221005.00,4437.5848,N,12402.8829,W,1,10,0.8,32.6,M,-21.8,M,,*69
2021-06-15 22:10:07Z, 6cda8203-a249-e411-b0cc-f8bc1246af59, $GPGGA,221006.00,4437.5848,N,12402.8829,W,1,10,0.8,32.4,M,-21.8,M,,*68
2021-06-15 22:10:08Z, 6cda8203-a249-e411-b0cc-f8bc1246af59, $GPGGA,221007.00,4437.5848,N,12402.8830,W,1,10,0.8,32.3,M,-21.8,M,,*66
