ACQ Timestamp (Server Time in UTC), MessageID, Data Value For: GNSS-6452-$GPGGA
2021-06-19 00:00:00Z, 6cda8203-a249-e411-b0cc-f8bc1246af59, $GPGGA,235959.00,4437.5832,N,12402.8838,W,1,09,1.0,22.2,M,-21.8,M,,*65
2021-06-19 00:00:01Z, 6cda8203-a249-e411-b0cc-f8bc1246af59, $GPGGA,000000.00,4437.5833,N,12402.8835,W,1,09,1.0,22.1,M,-21.8,M,,*6B
2021-06-19 00:00:03Z, 6cda8203-a249-e411-b0cc-f8bc1246af59, $GPGGA,000002.00,4437.5833,N,12402.8833,W,1,09,1.0,22.3,M,-21.8,M,,*6D
2021-06-19 00:00:04Z, 6cda8203-a249-e411-b0cc-f8bc1246af59, $GPGGA,000003.00,4437.5835,N,12402.8833,W,1,09,1.0,22.3,M,-21.8,M,,*6A
2021-06-19 00:00:05Z, 6cda8203-a249-e411-b0cc-f8bc1246af59, $GPGGA,000004.00,4437.5836,N,12402.8831,W,1,09,1.0,22.1,M,-21.8,M,,*6E
2021-06-19 00:00:06Z, 6cda8203-a249-e411-b0cc-f8bc1246af59, $GPGGA,000005.00,4437.5836,N,12402.8831,W,1,09,1.0,22.3,M,-21.8,M,,*6D
2021-06-19 00:00:08Z, 6cda8203-a249-e411-b0cc-f8bc1246af59, $GPGGA,000007.00,4437.5837,N,12402.8834,W,1,09,1.0,22.3,M,-21.8,M,,*6B
2021-06-19 00:00:09Z, 6cda8203-a249-e411-b0cc-f8bc1246af59, $GPGGA,000008.00,4437.5839,N,12402.8834,W,1,09,1.0,22.3,M,-21.8,M,,*6A
2021-06-19 00:00:11Z, 6cda8203-a249-e411-b0cc-f8bc1246af59, $GPGGA,000010.00,4437.5842,N,12402.8836,W,1,09,0.8,22.3,M,-21.8,M,,*64
2021-06-19 00:00:12Z, 6cda8203-a249-e411-b0cc-f8bc1246af59, $GPGGA,000011.00,4437.5844,N,12402.8837,W,1,09,0.8,22.3,M,-21.8,M,,*62
2021-06-19 00:00:14Z, 6cda8203-a249-e411-b0cc-f8bc1246af59, $GPGGA,000013.00,4437.5843,N,12402.8837,W,1,09,0.8,22.2,M,-21.8,M,,*66
2021-06-19 00:00:15Z, 6cda8203-a249-e411-b0cc-f8bc1246af59, $GPGGA,000014.00,4437.5842,N,12402.8839,W,1,09,0.8,22.2,M,-21.8,M,,*6E
2021-06-19 00:00:16Z, 6cda8203-a249-e411-b0cc-f8bc1246af59, $GPGGA,000015.00,4437.5841,N,12402.8842,W,1,09,0.8,22.1,M,-21.8,M,,*63
2021-06-19 00:00:17Z, 6cda8203-a249-e411-b0cc-f8bc1246af59, $GPGGA,000016.00,4437.5840,N,12402.8846,W,1,09,0.8,22.1,M,-21.8,M,,*65
2021-06-19 00:00:19Z, 6cda8203-a249-e411-b0cc-f8bc1246af59, $GPGGA,000018.00,4437.5840,N,12402.8846,W,1,09,0.8,21.9,M,-21.8,M,,*60
2021-06-19 00:00:20Z, 6cda8203-a249-e411-b0cc-f8bc1246af59, $GPGGA,000019.00,4437.5840,N,12402.8848,W,1,09,0.8,21.9,M,-21.8,M,,*6F
2021-06-19 00:00:21Z, 6cda8203-a249-e411-b0cc-f8bc1246af59, $GPGGA,000020.00,4437.5840,N,12402.8850,W,1,09,0.8,21.9,M,-21.8,M,,*6C
2021-06-19 00:00:22Z, 6cda8203-a249-e411-b0cc-f8bc1246af59, $GPGGA,000021.00,4437.5839,N,12402.8850,W,1,09,0.8,21.9,M,-21.8,M,,*63
2021-06-19 00:00:24Z, 6cda8203-a249-e411-b0cc-f8bc1246af59, $GPGGA,000023.00,4437.5837,N,12402.8846,W,1,09,0.8,21.8,M,-21.8,M,,*69
2021-06-19 00:00:25Z, 6cda8203-a249-e411-b0cc-f8bc1246af59, $GPGGA,000024.00,4437.5838,N,12402.8844,W,1,09,0.8,21.7,M,-21.8,M,,*6C
2021-06-19 00:00:27Z, 6cda8203-a249-e411-b0cc-f8bc1246af59, $GPGGA,000026.00,4437.5838,N,12402.8843,W,1,09,0.8,21.5,M,-21.8,M,,*6B
2021-06-19 00:00:28Z, 6cda8203-a249-e411-b0cc-f8bc1246af59, $GPGGA,000027.00,4437.5837,N,12402.8843,W,1,09,0.8,21.5,M,-21.8,M,,*65
2021-06-19 00:00:30Z, 6cda8203-a249-e411-b0cc-f8bc1246af59, $GPGGA,000029.00,4437.5839,N,12402.8840,W,1,09,0.8,21.6,M,-21.8,M,,*65
2021-06-19 00:00:31Z, 6cda8203-a249-e411-b0cc-f8bc1246af59, $GPGGA,000030.00,4437.5839,N,12402.8840,W,1,09,0.8,21.5,M,-21.8,M,,*6E
2021-06-19 00:00:33Z, 6cda8203-a249-e411-b0cc-f8bc1246af59, $GPGGA,000032.00,4437.5840,N,12402.8843,W,1,09,0.8,21.5,M,-21.8,M,,*61
2021-06-19 00:00:34Z, 6cda8203-a249-e411-b0cc-f8bc1246af59, $GPGGA,000033.00,4437.5841,N,12402.8843,W,1,09,0.8,21.4,M,-21.8,M,,*60
2021-06-19 00:00:35Z, 6cda8203-a249-e411-b0cc-f8bc1246af59, $GPGGA,000034.00,4437.5843,N,12402.8845,W,1,09,0.8,21.3,M,-21.8,M,,*64
2021-06-19 00:00:36Z, 6cda8203-a249-e411-b0cc-f8bc1246af59, $GPGGA,000035.00,4437.5844,N,12402.8846,W,1,09,0.8,21.2,M,-21.8,M,,*60
2021-06-19 00:00:37Z, 6cda8203-a249-e411-b0cc-f8bc1246af59, $GPGGA,000036.00,4437.5844,N,12402.8846,W,1,09,0.8,21.2,M,-21.8,M,,*63
2021-06-19 00:00:38Z, 6cda8203-a249-e411-b0cc-f8bc1246af59, $GPGGA,000037.00,4437.5843,N,12402.8847,W,1,09,0.8,21.1,M,-21.8,M,,*67
2021-06-19 00:00:39Z, 6cda8203-a249-e411-b0cc-f8bc1246af59, $GPGGA,000038.00,4437.5844,N,12402.8849,W,1,09,0.8,21.1,M,-21.8,M,,*61
2021-06-19 00:00:41Z, 6cda8203-a249-e411-b0cc-f8bc1246af59, $GPGGA,000040.00,4437.5846,N,12402.8855,W,1,09,0.8,21.1,M,-21.8,M,,*61
2021-06-19 00:00:42Z, 6cda8203-a249-e411-b0cc-f8bc1246af59, $GPGGA,000041.00,4437.5847,N,12402.8858,W,1,09,0.8,21.1,M,-21.8,M,,*6C
2021-06-19 00:00:43Z, 6cda8203-a249-e411-b0cc-f8bc1246af59, $GPGGA,000042.00,4437.5848,N,12402.8858,W,1,09,0.8,21.2,M,-21.8,M,,*63
2021-06-19 00:00:44Z, 6cda8203-a249-e411-b0cc-f8bc1246af59, $GPGGA,000043.00,4437.5847,N,12402.8858,W,1,09,0.8,21.1,M,-21.8,M,,*6E
2021-06-19 00:00:45Z, 6cda8203-a249-e411-b0cc-f8bc1246af59, $GPGGA,000044.00,4437.5847,N,12402.8858,W,1,09,0.8,21.1,M,-21.8,M,,*69
2021-06-19 00:00:46Z, 6cda8203-a249-e411-b0cc-f8bc1246af59, $GPGGA,000045.00,4437.5847,N,12402.8858,W,1,09,0.8,21.1,M,-21.8,M,,*68
2021-06-19 00:00:47Z, 6cda8203-a249-e411-b0cc-f8bc1246af59, $GPGGA,000046.00,4437.5848,N,12402.8859,W,1,09,0.8,21.2,M,-21.8,M,,*66
2021-06-19 00:00:49Z, 6cda8203-a249-e411-b0cc-f8bc1246af59, $GPGGA,000048.00,4437.5848,N,12402.8862,W,1,09,0.8,21.2,M,-21.8,M,,*60
2021-06-19 00:00:50Z, 6cda8203-a249-e411-b0cc-f8bc1246af59, $GPGGA,000049.00,4437.5849,N,12402.8864,W,1,09,0.8,21.2,M,-21.8,M,,*66
2021-06-19 00:00:51Z, 6cda8203-a249-e411-b0cc-f8bc1246af59, $GPGGA,000050.00,4437.5850,N,12402.8867,W,1,09,0.8,21.1,M,-21.8,M,,*66
2021-06-19 00:00:53Z, 6cda8203-a249-e411-b0cc-f8bc1246af59, $GPGGA,000052.00,4437.5851,N,12402.8868,W,1,09,0.8,21.2,M,-21.8,M,,*69
2021-06-19 00:00:54Z, 6cda8203-a249-e411-b0cc-f8bc1246af59, $GPGGA,000053.00,4437.5851,N,12402.8867,W,1,09,0.8,21.2,M,-21.8,M,,*67
2021-06-19 00:00:55Z, 6cda8203-a249-e411-b0cc-f8bc1246af59, $GPGGA,000054.00,4437.5853,N,12402.8866,W,1,09,0.8,21.1,M,-21.8,M,,*60
2021-06-19 00:00:56Z, 6cda8203-a249-e411-b0cc-f8bc1246af59, $GPGGA,000055.00,4437.5852,N,12402.8868,W,1,09,0.8,21.2,M,-21.8,M,,*6D
2021-06-19 00:00:57Z, 6cda8203-a249-e411-b0cc-f8bc1246af59, $GPGGA,000056.00,4437.5852,N,12402.8871,W,1,09,0.8,21.3,M,-21.8,M,,*67
2021-06-19 00:00:58Z, 6cda8203-a249-e411-b0cc-f8bc1246af59, $GPGGA,000057.00,4437.5850,N,12402.8882,W,1,09,0.8,21.3,M,-21.8,M,,*68
2021-06-19 00:01:00Z, 6cda8203-a249-e411-b0cc-f8bc1246af59, $GPGGA,000059.00,4437.5853,N,12402.8884,W,1,09,0.8,21.4,M,-21.8,M,,*64
2021-06-19 00:01:01Z, 6cda8203-a249-e411-b0cc-f8bc1246af59, $GPGGA,000100.00,4437.5853,N,12402.8886,W,1,09,0.8,21.4,M,-21.8,M,,*6B
2021-06-19 00:01:02Z, 6cda8203-a249-e411-b0cc-f8bc1246af59, $GPGGA,000101.00,4437.5852,N,12402.8885,W,1,09,0.8,21.4,M,-21.8,M,,*68
2021-06-19 00:01:04Z, 6cda8203-a249-e411-b0cc-f8bc1246af59, $GPGGA,000103.00,4437.5853,N,12402.8882,W,1,09,0.8,21.6,M,-21.8,M,,*6E
2021-06-19 00:01:05Z, 6cda8203-a249-e411-b0cc-f8bc1246af59, $GPGGA,000104.00,4437.5854,N,12402.8882,W,1,09,0.8,21.6,M,-21.8,M,,*6E
2021-06-19 00:01:06Z, 6cda8203-a249-e411-b0cc-f8bc1246af59, $GPGGA,000105.00,4437.5854,N,12402.8881,W,1,09,0.8,21.7,M,-21.8,M,,*6D
2021-06-19 00:01:07Z, 6cda8203-a249-e411-b0cc-f8bc1246af59, $GPGGA,000106.00,4437.5854,N,12402.8881,W,1,09,0.8,21.7,M,-21.8,M,,*6E
2021-06-19 00:01:08Z, 6cda8203-a249-e411-b0cc-f8bc1246af59, $GPGGA,000107.00,4437.5855,N,12402.8882,W,1,09,0.8,21.7,M,-21.8,M,,*6D
2021-06-19 00:01:10Z, 6cda8203-a249-e411-b0cc-f8bc1246af59, $GPGGA,000109.00,4437.5853,N,12402.8883,W,1,09,0.8,21.8,M,-21.8,M,,*6B
2021-06-19 00:01:11Z, 6cda8203-a249-e411-b0cc-f8bc1246af59, $GPGGA,000110.00,4437.5853,N,12402.8882,W,1,09,0.8,21.9,M,-21.8,M,,*63
2021-06-19 00:01:12Z, 6cda8203-a249-e411-b0cc-f8bc1246af59, $GPGGA,000111.00,4437.5853,N,12402.8882,W,1,09,0.8,22.0,M,-21.8,M,,*68
2021-06-19 00:01:14Z, 6cda8203-a249-e411-b0cc-f8bc1246af59, $GPGGA,000113.00,4437.5854,N,12402.8880,W,1,09,1.0,22.1,M,-21.8,M,,*67
2021-06-19 00:01:15Z, 6cda8203-a249-e411-b0cc-f8bc1246af59, $GPGGA,000114.00,4437.5854,N,12402.8879,W,1,09,1.0,22.0,M,-21.8,M,,*67
2021-06-19 00:01:17Z, 6cda8203-a249-e411-b0cc-f8bc1246af59, $GPGGA,000116.00,4437.5855,N,12402.8876,W,1,09,1.0,22.1,M,-21.8,M,,*6A
2021-06-19 00:01:18Z, 6cda8203-a249-e411-b0cc-f8bc1246af59, $GPGGA,000117.00,4437.5854,N,12402.8876,W,1,09,1.0,22.1,M,-21.8,M,,*6A
2021-06-19 00:01:19Z, 6cda8203-a249-e411-b0cc-f8bc1246af59, $GPGGA,000118.00,4437.5854,N,12402.8875,W,1,09,1.0,22.2,M,-21.8,M,,*65
2021-06-19 00:01:20Z, 6cda8203-a249-e411-b0cc-f8bc1246af59, $GPGGA,000119.00,4437.5853,N,12402.8875,W,1,09,1.0,22.2,M,-21.8,M,,*63
2021-06-19 00:01:20Z, 6cda8203-a249-e411-b0cc-f8bc1246af59, $GPGGA,000120.00,4437.5853,N,12402.8875,W,1,09,1.0,22.2,M,-21.8,M,,*69
2021-06-19 00:01:22Z, 6cda8203-a249-e411-b0cc-f8bc1246af59, $GPGGA,000121.00,4437.5853,N,12402.8872,W,1,09,1.0,22.2,M,-21.8,M,,*6F
2021-06-19 00:01:23Z, 6cda8203-a249-e411-b0cc-f8bc1246af59, $GPGGA,000122.00,4437.5853,N,12402.8870,W,1,09,1.0,22.3,M,-21.8,M,,*6F
2021-06-19 00:01:24Z, 6cda8203-a249-e411-b0cc-f8bc1246af59, $GPGGA,000123.00,4437.5850,N,12402.8867,W,1,09,1.0,22.3,M,-21.8,M,,*6B
2021-06-19 00:01:25Z, 6cda8203-a249-e411-b0cc-f8bc1246af59, $GPGGA,000124.00,4437.5850,N,12402.8866,W,1,09,1.0,22.3,M,-21.8,M,,*6D
2021-06-19 00:01:26Z, 6cda8203-a249-e411-b0cc-f8bc1246af59, $GPGGA,000125.00,4437.5851,N,12402.8865,W,1,09,1.0,22.3,M,-21.8,M,,*6E
2021-06-19 00:01:28Z, 6cda8203-a249-e411-b0cc-f8bc1246af59, $GPGGA,000127.00,4437.5847,N,12402.8863,W,1,09,1.0,22.3,M,-21.8,M,,*6D
2021-06-19 00:01:29Z, 6cda8203-a249-e411-b0cc-f8bc1246af59, $GPGGA,000128.00,4437.5845,N,12402.8862,W,1,09,1.0,22.2,M,-21.8,M,,*60
2021-06-19 00:01:31Z, 6cda8203-a249-e411-b0cc-f8bc1246af59, $GPGGA,000130.00,4437.5844,N,12402.8861,W,1,09,1.0,22.2,M,-21.8,M,,*6B
2021-06-19 00:01:32Z, 6cda8203-a249-e411-b0cc-f8bc1246af59, $GPGGA,000131.00,4437.5843,N,12402.8861,W,1,09,1.0,22.1,M,-21.8,M,,*6E
2021-06-19 00:01:34Z, 6cda8203-a249-e411-b0cc-f8bc1246af59, $GPGGA,000133.00,4437.5846,N,12402.8862,W,1,09,1.0,22.2,M,-21.8,M,,*69
2021-06-19 00:01:35Z, 6cda8203-a249-e411-b0cc-f8bc1246af59, $GPGGA,000134.00,4437.5846,N,12402.8862,W,1,09,1.0,22.2,M,-21.8,M,,*6E
2021-06-19 00:01:37Z, 6cda8203-a249-e411-b0cc-f8bc1246af59, $GPGGA,000136.00,4437.5845,N,12402.8864,W,1,09,1.0,22.3,M,-21.8,M,,*68
2021-06-19 00:01:38Z, 6cda8203-a249-e411-b0cc-f8bc1246af59, $GPGGA,000137.00,4437.5844,N,12402.8866,W,1,09,1.0,22.3,M,-21.8,M,,*6A
2021-06-19 00:01:40Z, 6cda8203-a249-e411-b0cc-f8bc1246af59, $GPGGA,000139.00,4437.5843,N,12402.8865,W,1,09,1.0,22.2,M,-21.8,M,,*61
2021-06-19 00:01:41Z, 6cda8203-a249-e411-b0cc-f8bc1246af59, $GPGGA,000140.00,4437.5843,N,12402.8864,W,1,09,1.0,22.3,M,-21.8,M,,*6F
2021-06-19 00:01:43Z, 6cda8203-a249-e411-b0cc-f8bc1246af59, $GPGGA,000142.00,4437.5842,N,12402.8866,W,1,09,1.0,22.2,M,-21.8,M,,*6F
2021-06-19 00:01:44Z, 6cda8203-a249-e411-b0cc-f8bc1246af59, $GPGGA,000143.00,4437.5846,N,12402.8862,W,1,09,1.0,22.1,M,-21.8,M,,*6D
2021-06-19 00:01:46Z, 6cda8203-a249-e411-b0cc-f8bc1246af59, $GPGGA,000145.00,4437.5847,N,12402.8859,W,1,09,1.0,22.1,M,-21.8,M,,*62
2021-06-19 00:01:47Z, 6cda8203-a249-e411-b0cc-f8bc1246af59, $GPGGA,000146.00,4437.5848,N,12402.8859,W,1,09,1.0,22.0,M,-21.8,M,,*6F
2021-06-19 00:01:49Z, 6cda8203-a249-e411-b0cc-f8bc1246af59, $GPGGA,000148.00,4437.5847,N,12402.8860,W,1,09,1.0,21.9,M,-21.8,M,,*6E
2021-06-19 00:01:50Z, 6cda8203-a249-e411-b0cc-f8bc1246af59, $GPGGA,000149.00,4437.5847,N,12402.8860,W,1,09,1.0,21.9,M,-21.8,M,,*6F
2021-06-19 00:01:52Z, 6cda8203-a249-e411-b0cc-f8bc1246af59, $GPGGA,000151.00,4437.5846,N,12402.8862,W,1,09,1.0,21.8,M,-21.8,M,,*64
2021-06-19 00:01:53Z, 6cda8203-a249-e411-b0cc-f8bc1246af59, $GPGGA,000152.00,4437.5847,N,12402.8861,W,1,09,1.0,21.8,M,-21.8,M,,*65
2021-06-19 00:01:55Z, 6cda8203-a249-e411-b0cc-f8bc1246af59, $GPGGA,000154.00,4437.5847,N,12402.8860,W,1,09,1.0,21.8,M,-21.8,M,,*62
2021-06-19 00:01:56Z, 6cda8203-a249-e411-b0cc-f8bc1246af59, $GPGGA,000155.00,4437.5847,N,12402.8859,W,1,09,1.0,21.8,M,-21.8,M,,*69
2021-06-19 00:01:58Z, 6cda8203-a249-e411-b0cc-f8bc1246af59, $GPGGA,000157.00,4437.5848,N,12402.8856,W,1,09,1.0,21.8,M,-21.8,M,,*6B
2021-06-19 00:01:59Z, 6cda8203-a249-e411-b0cc-f8bc1246af59, $GPGGA,000158.00,4437.5847,N,12402.8852,W,1,09,1.0,21.9,M,-21.8,M,,*6E
2021-06-19 00:02:01Z, 6cda8203-a249-e411-b0cc-f8bc1246af59, $GPGGA,000200.00,4437.5844,N,12402.8850,W,1,09,0.8,21.8,M,-21.8,M,,*69
2021-06-19 00:02:02Z, 6cda8203-a249-e411-b0cc-f8bc1246af59, $GPGGA,000201.00,4437.5843,N,12402.8851,W,1,09,0.8,21.8,M,-21.8,M,,*6E
2021-06-19 00:02:04Z, 6cda8203-a249-e411-b0cc-f8bc1246af59, $GPGGA,000203.00,4437.5841,N,12402.8850,W,1,09,0.8,21.7,M,-21.8,M,,*60
2021-06-19 00:02:05Z, 6cda8203-a249-e411-b0cc-f8bc1246af59, $GPGGA,000204.00,4437.5841,N,12402.8854,W,1,09,0.8,21.6,M,-21.8,M,,*62
2021-06-19 00:02:07Z, 6cda8203-a249-e411-b0cc-f8bc1246af59, $GPGGA,000206.00,4437.5839,N,12402.8857,W,1,09,0.8,21.6,M,-21.8,M,,*6C
2021-06-19 00:02:08Z, 6cda8203-a249-e411-b0cc-f8bc1246af59, $GPGGA,000207.00,4437.5838,N,12402.8858,W,1,09,0.8,21.7,M,-21.8,M,,*62
2021-06-19 00:02:10Z, 6cda8203-a249-e411-b0cc-f8bc1246af59, $GPGGA,000209.00,4437.5837,N,12402.8862,W,1,09,0.8,21.4,M,-21.8,M,,*69
2021-06-19 00:02:11Z, 6cda8203-a249-e411-b0cc-f8bc1246af59, $GPGGA,000210.00,4437.5837,N,12402.8863,W,1,09,0.8,21.3,M,-21.8,M,,*67
2021-06-19 00:02:13Z, 6cda8203-a249-e411-b0cc-f8bc1246af59, $GPGGA,000212.00,4437.5836,N,12402.8863,W,1,09,0.8,21.1,M,-21.8,M,,*66
2021-06-19 00:02:14Z, 6cda8203-a249-e411-b0cc-f8bc1246af59, $GPGGA,000213.00,4437.5836,N,12402.8863,W,1,09,0.8,21.1,M,-21.8,M,,*67
2021-06-19 00:02:16Z, 6cda8203-a249-e411-b0cc-f8bc1246af59, $GPGGA,000215.00,4437.5835,N,12402.8865,W,1,09,0.8,21.2,M,-21.8,M,,*67
2021-06-19 00:02:17Z, 6cda8203-a249-e411-b0cc-f8bc1246af59, $GPGGA,000216.00,4437.5835,N,12402.8867,W,1,09,0.8,21.2,M,-21.8,M,,*66
2021-06-19 00:02:19Z, 6cda8203-a249-e411-b0cc-f8bc1246af59, $GPGGA,000218.00,4437.5836,N,12402.8869,W,1,09,0.8,21.0,M,-21.8,M,,*67
2021-06-19 00:02:20Z, 6cda8203-a249-e411-b0cc-f8bc1246af59, $GPGGA,000219.00,4437.5836,N,12402.8870,W,1,09,0.8,21.1,M,-21.8,M,,*6F
2021-06-19 00:02:22Z, 6cda8203-a249-e411-b0cc-f8bc1246af59, $GPGGA,000221.00,4437.5836,N,12402.8872,W,1,09,0.8,21.0,M,-21.8,M,,*67
2021-06-19 00:02:23Z, 6cda8203-a249-e411-b0cc-f8bc1246af59, $GPGGA,000222.00,4437.5836,N,12402.8874,W,1,09,0.8,21.0,M,-21.8,M,,*62
2021-06-19 00:02:25Z, 6cda8203-a249-e411-b0cc-f8bc1246af59, $GPGGA,000224.00,4437.5833,N,12402.8878,W,1,09,0.8,21.0,M,-21.8,M,,*6D
2021-06-19 00:02:26Z, 6cda8203-a249-e411-b0cc-f8bc1246af59, $GPGGA,000225.00,4437.5833,N,12402.8880,W,1,09,0.8,21.0,M,-21.8,M,,*6B
2021-06-19 00:02:28Z, 6cda8203-a249-e411-b0cc-f8bc1246af59, $GPGGA,000227.00,4437.5832,N,12402.8882,W,1,09,0.8,21.0,M,-21.8,M,,*6A
2021-06-19 00:02:29Z, 6cda8203-a249-e411-b0cc-f8bc1246af59, $GPGGA,000228.00,4437.5831,N,12402.8882,W,1,09,0.8,20.9,M,-21.8,M,,*6E
2021-06-19 00:02:31Z, 6cda8203-a249-e411-b0cc-f8bc1246af59, $GPGGA,000230.00,4437.5830,N,12402.8883,W,1,09,0.8,20.7,M,-21.8,M,,*69
2021-06-19 00:02:32Z, 6cda8203-a249-e411-b0cc-f8bc1246af59, $GPGGA,000231.00,4437.5829,N,12402.8882,W,1,09,0.8,20.7,M,-21.8,M,,*61
2021-06-19 00:02:34Z, 6cda8203-a249-e411-b0cc-f8bc1246af59, $GPGGA,000233.00,4437.5827,N,12402.8881,W,1,09,0.8,20.6,M,-21.8,M,,*6F
2021-06-19 00:02:35Z, 6cda8203-a249-e411-b0cc-f8bc1246af59, $GPGGA,000234.00,4437.5829,N,12402.8880,W,1,09,0.8,20.5,M,-21.8,M,,*64
2021-06-19 00:02:37Z, 6cda8203-a249-e411-b0cc-f8bc1246af59, $GPGGA,000236.00,4437.5829,N,12402.8875,W,1,09,0.8,20.4,M,-21.8,M,,*6D
2021-06-19 00:02:38Z, 6cda8203-a249-e411-b0cc-f8bc1246af59, $GPGGA,000237.00,4437.5828,N,12402.8871,W,1,09,0.8,20.3,M,-21.8,M,,*6E
2021-06-19 00:02:40Z, 6cda8203-a249-e411-b0cc-f8bc1246af59, $GPGGA,000239.00,4437.5828,N,12402.8865,W,1,09,0.8,20.0,M,-21.8,M,,*66
2021-06-19 00:02:41Z, 6cda8203-a249-e411-b0cc-f8bc1246af59, $GPGGA,000240.00,4437.5827,N,12402.8865,W,1,09,0.8,20.0,M,-21.8,M,,*67
2021-06-19 00:02:43Z, 6cda8203-a249-e411-b0cc-f8bc1246af59, $GPGGA,000242.00,4437.5827,N,12402.8861,W,1,09,0.8,19.8,M,-21.8,M,,*63
2021-06-19 00:02:44Z, 6cda8203-a249-e411-b0cc-f8bc1246af59, $GPGGA,000243.00,4437.5827,N,12402.8862,W,1,09,0.8,19.9,M,-21.8,M,,*60
2021-06-19 00:02:46Z, 6cda8203-a249-e411-b0cc-f8bc1246af59, $GPGGA,000245.00,4437.5827,N,12402.8863,W,1,09,0.8,20.1,M,-21.8,M,,*65
2021-06-19 00:02:47Z, 6cda8203-a249-e411-b0cc-f8bc1246af59, $GPGGA,000246.00,4437.5828,N,12402.8864,W,1,09,0.8,20.1,M,-21.8,M,,*6E
2021-06-19 00:02:49Z, 6cda8203-a249-e411-b0cc-f8bc1246af59, $GPGGA,000248.00,4437.5830,N,12402.8868,W,1,09,0.8,20.2,M,-21.8,M,,*66
2021-06-19 00:02:50Z, 6cda8203-a249-e411-b0cc-f8bc1246af59, $GPGGA,000249.00,4437.5830,N,12402.8869,W,1,09,0.8,20.2,M,-21.8,M,,*66
2021-06-19 00:02:52Z, 6cda8203-a249-e411-b0cc-f8bc1246af59, $GPGGA,000251.00,4437.5831,N,12402.8868,W,1,09,0.8,20.2,M,-21.8,M,,*6F
2021-06-19 00:02:53Z, 6cda8203-a249-e411-b0cc-f8bc1246af59, $GPGGA,000252.00,4437.5833,N,12402.8869,W,1,09,0.8,20.3,M,-21.8,M,,*6E
2021-06-19 00:02:55Z, 6cda8203-a249-e411-b0cc-f8bc1246af59, $GPGGA,000254.00,4437.5836,N,12402.8871,W,1,09,0.8,20.6,M,-21.8,M,,*61
2021-06-19 00:02:56Z, 6cda8203-a249-e411-b0cc-f8bc1246af59, $GPGGA,000255.00,4437.5837,N,12402.8871,W,1,09,0.8,20.6,M,-21.8,M,,*61
2021-06-19 00:02:58Z, 6cda8203-a249-e411-b0cc-f8bc1246af59, $GPGGA,000257.00,4437.5837,N,12402.8872,W,1,09,0.8,20.6,M,-21.8,M,,*60
2021-06-19 00:02:59Z, 6cda8203-a249-e411-b0cc-f8bc1246af59, $GPGGA,000258.00,4437.5836,N,12402.8872,W,1,09,0.8,20.7,M,-21.8,M,,*6F
2021-06-19 00:03:01Z, 6cda8203-a249-e411-b0cc-f8bc1246af59, $GPGGA,000300.00,4437.5836,N,12402.8874,W,1,09,0.8,20.7,M,-21.8,M,,*65
2021-06-19 00:03:02Z, 6cda8203-a249-e411-b0cc-f8bc1246af59, $GPGGA,000301.00,4437.5835,N,12402.8874,W,1,09,0.8,20.7,M,-21.8,M,,*67
2021-06-19 00:03:04Z, 6cda8203-a249-e411-b0cc-f8bc1246af59, $GPGGA,000303.00,4437.5834,N,12402.8876,W,1,09,0.8,20.7,M,-21.8,M,,*66
2021-06-19 00:03:05Z, 6cda8203-a249-e411-b0cc-f8bc1246af59, $GPGGA,000304.00,4437.5833,N,12402.8876,W,1,09,0.8,20.6,M,-21.8,M,,*67
2021-06-19 00:03:07Z, 6cda8203-a249-e411-b0cc-f8bc1246af59, $GPGGA,000306.00,4437.5834,N,12402.8876,W,1,09,0.8,20.5,M,-21.8,M,,*61
2021-06-19 00:03:08Z, 6cda8203-a249-e411-b0cc-f8bc1246af59, $GPGGA,000307.00,4437.5835,N,12402.8877,W,1,09,0.8,20.5,M,-21.8,M,,*60
2021-06-19 00:03:10Z, 6cda8203-a249-e411-b0cc-f8bc1246af59, $GPGGA,000309.00,4437.5834,N,12402.8879,W,1,09,0.8,20.4,M,-21.8,M,,*60
2021-06-19 00:03:11Z, 6cda8203-a249-e411-b0cc-f8bc1246af59, $GPGGA,000310.00,4437.5833,N,12402.8878,W,1,09,0.8,20.4,M,-21.8,M,,*6E
2021-06-19 00:03:13Z, 6cda8203-a249-e411-b0cc-f8bc1246af59, $GPGGA,000312.00,4437.5831,N,12402.8878,W,1,09,0.8,20.5,M,-21.8,M,,*6F
2021-06-19 00:03:14Z, 6cda8203-a249-e411-b0cc-f8bc1246af59, $GPGGA,000313.00,4437.5830,N,12402.8880,W,1,09,0.8,20.6,M,-21.8,M,,*6B
2021-06-19 00:03:16Z, 6cda8203-a249-e411-b0cc-f8bc1246af59, $GPGGA,000315.00,4437.5829,N,12402.8881,W,1,09,0.8,20.7,M,-21.8,M,,*65
2021-06-19 00:03:17Z, 6cda8203-a249-e411-b0cc-f8bc1246af59, $GPGGA,000316.00,4437.5829,N,12402.8882,W,1,09,0.8,20.7,M,-21.8,M,,*65
2021-06-19 00:03:19Z, 6cda8203-a249-e411-b0cc-f8bc1246af59, $GPGGA,000318.00,4437.5827,N,12402.8881,W,1,09,0.8,20.8,M,-21.8,M,,*69
2021-06-19 00:03:20Z, 6cda8203-a249-e411-b0cc-f8bc1246af59, $GPGGA,000319.00,4437.5826,N,12402.8880,W,1,09,0.8,20.9,M,-21.8,M,,*69
2021-06-19 00:03:22Z, 6cda8203-a249-e411-b0cc-f8bc1246af59, $GPGGA,000321.00,4437.5828,N,12402.8876,W,1,09,0.8,21.0,M,-21.8,M,,*6D
2021-06-19 00:03:23Z, 6cda8203-a249-e411-b0cc-f8bc1246af59, $GPGGA,000322.00,4437.5828,N,12402.8872,W,1,09,0.8,21.1,M,-21.8,M,,*6B
2021-06-19 00:03:25Z, 6cda8203-a249-e411-b0cc-f8bc1246af59, $GPGGA,000324.00,4437.5830,N,12402.8871,W,1,09,0.8,21.1,M,-21.8,M,,*67
2021-06-19 00:03:26Z, 6cda8203-a249-e411-b0cc-f8bc1246af59, $GPGGA,000325.00,4437.5830,N,12402.8871,W,1,09,0.8,21.2,M,-21.8,M,,*65
2021-06-19 00:03:27Z, 6cda8203-a249-e411-b0cc-f8bc1246af59, $GPGGA,000326.00,4437.5829,N,12402.8870,W,1,09,0.8,21.0,M,-21.8,M,,*6D
2021-06-19 00:03:28Z, 6cda8203-a249-e411-b0cc-f8bc1246af59, $GPGGA,000327.00,4437.5826,N,12402.8870,W,1,09,0.8,21.0,M,-21.8,M,,*63
2021-06-19 00:03:29Z, 6cda8203-a249-e411-b0cc-f8bc1246af59, $GPGGA,000328.00,4437.5825,N,12402.8869,W,1,09,0.8,21.0,M,-21.8,M,,*67
2021-06-19 00:03:30Z, 6cda8203-a249-e411-b0cc-f8bc1246af59, $GPGGA,000329.00,4437.5823,N,12402.8870,W,1,09,0.8,21.0,M,-21.8,M,,*68
2021-06-19 00:03:32Z, 6cda8203-a249-e411-b0cc-f8bc1246af59, $GPGGA,000330.00,4437.5826,N,12402.8869,W,1,09,0.8,20.9,M,-21.8,M,,*65
2021-06-19 00:03:33Z, 6cda8203-a249-e411-b0cc-f8bc1246af59, $GPGGA,000332.00,4437.5830,N,12402.8871,W,1,09,0.8,20.7,M,-21.8,M,,*67
2021-06-19 00:03:34Z, 6cda8203-a249-e411-b0cc-f8bc1246af59, $GPGGA,000333.00,4437.5830,N,12402.8870,W,1,09,0.8,20.5,M,-21.8,M,,*65
2021-06-19 00:03:36Z, 6cda8203-a249-e411-b0cc-f8bc1246af59, $GPGGA,000335.00,4437.5830,N,12402.8869,W,1,09,0.8,20.2,M,-21.8,M,,*6C
2021-06-19 00:03:37Z, 6cda8203-a249-e411-b0cc-f8bc1246af59, $GPGGA,000336.00,4437.5831,N,12402.8867,W,1,09,0.8,20.1,M,-21.8,M,,*63
2021-06-19 00:03:39Z, 6cda8203-a249-e411-b0cc-f8bc1246af59, $GPGGA,000338.00,4437.5830,N,12402.8867,W,1,09,0.8,20.0,M,-21.8,M,,*6D
2021-06-19 00:03:40Z, 6cda8203-a249-e411-b0cc-f8bc1246af59, $GPGGA,000339.00,4437.5832,N,12402.8866,W,1,09,0.8,20.0,M,-21.8,M,,*6F
2021-06-19 00:03:42Z, 6cda8203-a249-e411-b0cc-f8bc1246af59, $GPGGA,000341.00,4437.5832,N,12402.8865,W,1,09,0.8,20.0,M,-21.8,M,,*63
2021-06-19 00:03:43Z, 6cda8203-a249-e411-b0cc-f8bc1246af59, $GPGGA,000342.00,4437.5833,N,12402.8862,W,1,09,0.8,19.9,M,-21.8,M,,*65
2021-06-19 00:03:45Z, 6cda8203-a249-e411-b0cc-f8bc1246af59, $GPGGA,000344.00,4437.5835,N,12402.8858,W,1,09,0.8,19.9,M,-21.8,M,,*6C
2021-06-19 00:03:46Z, 6cda8203-a249-e411-b0cc-f8bc1246af59, $GPGGA,000345.00,4437.5836,N,12402.8857,W,1,09,0.8,19.8,M,-21.8,M,,*60
2021-06-19 00:03:48Z, 6cda8203-a249-e411-b0cc-f8bc1246af59, $GPGGA,000347.00,4437.5837,N,12402.8855,W,1,09,0.8,19.7,M,-21.8,M,,*6E
2021-06-19 00:03:49Z, 6cda8203-a249-e411-b0cc-f8bc1246af59, $GPGGA,000348.00,4437.5839,N,12402.8854,W,1,09,0.8,19.6,M,-21.8,M,,*6F
2021-06-19 00:03:51Z, 6cda8203-a249-e411-b0cc-f8bc1246af59, $GPGGA,000350.00,4437.5840,N,12402.8852,W,1,09,0.8,19.6,M,-21.8,M,,*6E
2021-06-19 00:03:52Z, 6cda8203-a249-e411-b0cc-f8bc1246af59, $GPGGA,000351.00,4437.5841,N,12402.8851,W,1,09,0.8,19.5,M,-21.8,M,,*6E
2021-06-19 00:03:54Z, 6cda8203-a249-e411-b0cc-f8bc1246af59, $GPGGA,000353.00,4437.5841,N,12402.8848,W,1,09,0.8,19.4,M,-21.8,M,,*65
2021-06-19 00:03:55Z, 6cda8203-a249-e411-b0cc-f8bc1246af59, $GPGGA,000354.00,4437.5842,N,12402.8847,W,1,09,0.8,19.4,M,-21.8,M,,*6E
2021-06-19 00:03:57Z, 6cda8203-a249-e411-b0cc-f8bc1246af59, $GPGGA,000356.00,4437.5842,N,12402.8848,W,1,09,0.8,19.7,M,-21.8,M,,*60
2021-06-19 00:03:58Z, 6cda8203-a249-e411-b0cc-f8bc1246af59, $GPGGA,000357.00,4437.5844,N,12402.8849,W,1,09,0.8,19.7,M,-21.8,M,,*66
2021-06-19 00:04:00Z, 6cda8203-a249-e411-b0cc-f8bc1246af59, $GPGGA,000359.00,4437.5845,N,12402.8851,W,1,09,0.8,19.9,M,-21.8,M,,*6E
2021-06-19 00:04:01Z, 6cda8203-a249-e411-b0cc-f8bc1246af59, $GPGGA,000400.00,4437.5846,N,12402.8850,W,1,09,0.8,20.0,M,-21.8,M,,*64
2021-06-19 00:04:03Z, 6cda8203-a249-e411-b0cc-f8bc1246af59, $GPGGA,000402.00,4437.5848,N,12402.8856,W,1,09,0.8,20.1,M,-21.8,M,,*6F
2021-06-19 00:04:04Z, 6cda8203-a249-e411-b0cc-f8bc1246af59, $GPGGA,000403.00,4437.5848,N,12402.8856,W,1,09,0.8,20.1,M,-21.8,M,,*6E
2021-06-19 00:04:06Z, 6cda8203-a249-e411-b0cc-f8bc1246af59, $GPGGA,000405.00,4437.5846,N,12402.8860,W,1,09,0.8,20.3,M,-21.8,M,,*61
2021-06-19 00:04:07Z, 6cda8203-a249-e411-b0cc-f8bc1246af59, $GPGGA,000406.00,4437.5845,N,12402.8859,W,1,09,0.8,20.3,M,-21.8,M,,*6B
2021-06-19 00:04:09Z, 6cda8203-a249-e411-b0cc-f8bc1246af59, $GPGGA,000408.00,4437.5843,N,12402.8861,W,1,09,0.8,20.4,M,-21.8,M,,*6F
2021-06-19 00:04:10Z, 6cda8203-a249-e411-b0cc-f8bc1246af59, $GPGGA,000409.00,4437.5843,N,12402.8863,W,1,09,0.8,20.5,M,-21.8,M,,*6D
2021-06-19 00:04:12Z, 6cda8203-a249-e411-b0cc-f8bc1246af59, $GPGGA,000411.00,4437.5841,N,12402.8863,W,1,09,0.8,20.8,M,-21.8,M,,*6B
2021-06-19 00:04:13Z, 6cda8203-a249-e411-b0cc-f8bc1246af59, $GPGGA,000412.00,4437.5843,N,12402.8862,W,1,09,0.8,20.9,M,-21.8,M,,*6A
2021-06-19 00:04:15Z, 6cda8203-a249-e411-b0cc-f8bc1246af59, $GPGGA,000414.00,4437.5841,N,12402.8862,W,1,09,0.8,21.0,M,-21.8,M,,*66
2021-06-19 00:04:16Z, 6cda8203-a249-e411-b0cc-f8bc1246af59, $GPGGA,000415.00,4437.5839,N,12402.8863,W,1,09,0.8,21.1,M,-21.8,M,,*68
2021-06-19 00:04:18Z, 6cda8203-a249-e411-b0cc-f8bc1246af59, $GPGGA,000417.00,4437.5841,N,12402.8868,W,1,09,0.8,21.4,M,-21.8,M,,*6B
2021-06-19 00:04:19Z, 6cda8203-a249-e411-b0cc-f8bc1246af59, $GPGGA,000418.00,4437.5839,N,12402.8869,W,1,09,0.8,21.5,M,-21.8,M,,*6B
2021-06-19 00:04:21Z, 6cda8203-a249-e411-b0cc-f8bc1246af59, $GPGGA,000420.00,4437.5839,N,12402.8873,W,1,09,0.8,21.5,M,-21.8,M,,*6B
2021-06-19 00:04:22Z, 6cda8203-a249-e411-b0cc-f8bc1246af59, $GPGGA,000421.00,4437.5838,N,12402.8874,W,1,09,0.8,21.6,M,-21.8,M,,*6F
2021-06-19 00:04:24Z, 6cda8203-a249-e411-b0cc-f8bc1246af59, $GPGGA,000423.00,4437.5840,N,12402.8876,W,1,09,0.8,21.6,M,-21.8,M,,*60
2021-06-19 00:04:25Z, 6cda8203-a249-e411-b0cc-f8bc1246af59, $GPGGA,000424.00,4437.5840,N,12402.8875,W,1,09,0.8,21.5,M,-21.8,M,,*67
2021-06-19 00:04:27Z, 6cda8203-a249-e411-b0cc-f8bc1246af59, $GPGGA,000426.00,4437.5843,N,12402.8875,W,1,09,0.8,21.5,M,-21.8,M,,*66
2021-06-19 00:04:28Z, 6cda8203-a249-e411-b0cc-f8bc1246af59, $GPGGA,000427.00,4437.5841,N,12402.8877,W,1,09,0.8,21.5,M,-21.8,M,,*67
2021-06-19 00:04:30Z, 6cda8203-a249-e411-b0cc-f8bc1246af59, $GPGGA,000429.00,4437.5841,N,12402.8878,W,1,09,0.8,21.4,M,-21.8,M,,*67
2021-06-19 00:04:31Z, 6cda8203-a249-e411-b0cc-f8bc1246af59, $GPGGA,000430.00,4437.5842,N,12402.8877,W,1,09,0.8,21.4,M,-21.8,M,,*63
2021-06-19 00:04:33Z, 6cda8203-a249-e411-b0cc-f8bc1246af59, $GPGGA,000432.00,4437.5840,N,12402.8874,W,1,09,0.8,21.4,M,-21.8,M,,*60
2021-06-19 00:04:34Z, 6cda8203-a249-e411-b0cc-f8bc1246af59, $GPGGA,000433.00,4437.5841,N,12402.8874,W,1,09,0.8,21.3,M,-21.8,M,,*67
2021-06-19 00:04:36Z, 6cda8203-a249-e411-b0cc-f8bc1246af59, $GPGGA,000435.00,4437.5841,N,12402.8874,W,1,09,0.8,21.1,M,-21.8,M,,*63
2021-06-19 00:04:37Z, 6cda8203-a249-e411-b0cc-f8bc1246af59, $GPGGA,000436.00,4437.5842,N,12402.8874,W,1,09,0.8,20.9,M,-21.8,M,,*6A
2021-06-19 00:04:39Z, 6cda8203-a249-e411-b0cc-f8bc1246af59, $GPGGA,000438.00,4437.5842,N,12402.8873,W,1,09,0.8,20.9,M,-21.8,M,,*63
2021-06-19 00:04:40Z, 6cda8203-a249-e411-b0cc-f8bc1246af59, $GPGGA,000439.00,4437.5842,N,12402.8873,W,1,09,0.8,20.9,M,-21.8,M,,*62
2021-06-19 00:04:42Z, 6cda8203-a249-e411-b0cc-f8bc1246af59, $GPGGA,000441.00,4437.5842,N,12402.8870,W,1,09,0.8,21.1,M,-21.8,M,,*67
2021-06-19 00:04:43Z, 6cda8203-a249-e411-b0cc-f8bc1246af59, $GPGGA,000442.00,4437.5841,N,12402.8871,W,1,09,0.8,21.2,M,-21.8,M,,*65
2021-06-19 00:04:45Z, 6cda8203-a249-e411-b0cc-f8bc1246af59, $GPGGA,000444.00,4437.5842,N,12402.8873,W,1,09,0.8,21.5,M,-21.8,M,,*65
2021-06-19 00:04:46Z, 6cda8203-a249-e411-b0cc-f8bc1246af59, $GPGGA,000445.00,4437.5841,N,12402.8871,W,1,09,0.8,21.5,M,-21.8,M,,*65
2021-06-19 00:04:48Z, 6cda8203-a249-e411-b0cc-f8bc1246af59, $GPGGA,000447.00,4437.5840,N,12402.8871,W,1,09,0.8,21.8,M,-21.8,M,,*6B
2021-06-19 00:04:49Z, 6cda8203-a249-e411-b0cc-f8bc1246af59, $GPGGA,000448.00,4437.5837,N,12402.8872,W,1,09,0.8,21.9,M,-21.8,M,,*66
2021-06-19 00:04:51Z, 6cda8203-a249-e411-b0cc-f8bc1246af59, $GPGGA,000450.00,4437.5833,N,12402.8869,W,1,09,0.8,22.2,M,-21.8,M,,*69
2021-06-19 00:04:52Z, 6cda8203-a249-e411-b0cc-f8bc1246af59, $GPGGA,000451.00,4437.5833,N,12402.8867,W,1,09,0.8,22.3,M,-21.8,M,,*67
2021-06-19 00:04:54Z, 6cda8203-a249-e411-b0cc-f8bc1246af59, $GPGGA,000453.00,4437.5834,N,12402.8865,W,1,09,0.8,22.4,M,-21.8,M,,*67
2021-06-19 00:04:55Z, 6cda8203-a249-e411-b0cc-f8bc1246af59, $GPGGA,000454.00,4437.5833,N,12402.8862,W,1,09,0.8,22.5,M,-21.8,M,,*61
2021-06-19 00:04:57Z, 6cda8203-a249-e411-b0cc-f8bc1246af59, $GPGGA,000456.00,4437.5834,N,12402.8862,W,1,09,0.8,22.5,M,-21.8,M,,*64
2021-06-19 00:04:58Z, 6cda8203-a249-e411-b0cc-f8bc1246af59, $GPGGA,000457.00,4437.5833,N,12402.8862,W,1,09,0.8,22.5,M,-21.8,M,,*62
2021-06-19 00:05:00Z, 6cda8203-a249-e411-b0cc-f8bc1246af59, $GPGGA,000459.00,4437.5828,N,12402.8846,W,1,09,0.8,22.8,M,-21.8,M,,*6D
2021-06-19 00:05:01Z, 6cda8203-a249-e411-b0cc-f8bc1246af59, $GPGGA,000500.00,4437.5826,N,12402.8844,W,1,09,0.8,22.9,M,-21.8,M,,*6D
2021-06-19 00:05:03Z, 6cda8203-a249-e411-b0cc-f8bc1246af59, $GPGGA,000502.00,4437.5825,N,12402.8843,W,1,09,0.8,23.0,M,-21.8,M,,*63
2021-06-19 00:05:04Z, 6cda8203-a249-e411-b0cc-f8bc1246af59, $GPGGA,000503.00,4437.5825,N,12402.8844,W,1,09,0.8,22.9,M,-21.8,M,,*6D
2021-06-19 00:05:06Z, 6cda8203-a249-e411-b0cc-f8bc1246af59, $GPGGA,000505.00,4437.5825,N,12402.8841,W,1,09,0.8,22.9,M,-21.8,M,,*6E
2021-06-19 00:05:07Z, 6cda8203-a249-e411-b0cc-f8bc1246af59, $GPGGA,000506.00,4437.5824,N,12402.8841,W,1,09,0.8,22.9,M,-21.8,M,,*6C
2021-06-19 00:05:09Z, 6cda8203-a249-e411-b0cc-f8bc1246af59, $GPGGA,000508.00,4437.5826,N,12402.8841,W,1,09,0.8,23.0,M,-21.8,M,,*68
2021-06-19 00:05:10Z, 6cda8203-a249-e411-b0cc-f8bc1246af59, $GPGGA,000509.00,4437.5828,N,12402.8842,W,1,09,0.8,23.0,M,-21.8,M,,*64
2021-06-19 00:05:12Z, 6cda8203-a249-e411-b0cc-f8bc1246af59, $GPGGA,000511.00,4437.5829,N,12402.8840,W,1,09,0.8,23.0,M,-21.8,M,,*6E
2021-06-19 00:05:13Z, 6cda8203-a249-e411-b0cc-f8bc1246af59, $GPGGA,000512.00,4437.5828,N,12402.8842,W,1,09,0.8,23.0,M,-21.8,M,,*6E
2021-06-19 00:05:15Z, 6cda8203-a249-e411-b0cc-f8bc1246af59, $GPGGA,000514.00,4437.5831,N,12402.8846,W,1,09,0.8,23.0,M,-21.8,M,,*64
2021-06-19 00:05:16Z, 6cda8203-a249-e411-b0cc-f8bc1246af59, $GPGGA,000515.00,4437.5832,N,12402.8846,W,1,09,0.8,23.0,M,-21.8,M,,*66
2021-06-19 00:05:18Z, 6cda8203-a249-e411-b0cc-f8bc1246af59, $GPGGA,000517.00,4437.5837,N,12402.8846,W,1,09,0.8,22.9,M,-21.8,M,,*69
2021-06-19 00:05:19Z, 6cda8203-a249-e411-b0cc-f8bc1246af59, $GPGGA,000518.00,4437.5840,N,12402.8846,W,1,09,0.8,23.0,M,-21.8,M,,*6E
2021-06-19 00:05:21Z, 6cda8203-a249-e411-b0cc-f8bc1246af59, $GPGGA,000520.00,4437.5841,N,12402.8848,W,1,09,0.8,23.0,M,-21.8,M,,*6A
2021-06-19 00:05:22Z, 6cda8203-a249-e411-b0cc-f8bc1246af59, $GPGGA,000521.00,4437.5841,N,12402.8850,W,1,09,0.8,23.1,M,-21.8,M,,*63
2021-06-19 00:05:24Z, 6cda8203-a249-e411-b0cc-f8bc1246af59, $GPGGA,000523.00,4437.5843,N,12402.8856,W,1,09,0.8,23.2,M,-21.8,M,,*66
2021-06-19 00:05:25Z, 6cda8203-a249-e411-b0cc-f8bc1246af59, $GPGGA,000524.00,4437.5843,N,12402.8858,W,1,09,0.8,23.2,M,-21.8,M,,*6F
2021-06-19 00:05:27Z, 6cda8203-a249-e411-b0cc-f8bc1246af59, $GPGGA,000526.00,4437.5842,N,12402.8860,W,1,09,0.8,23.3,M,-21.8,M,,*66
2021-06-19 00:05:28Z, 6cda8203-a249-e411-b0cc-f8bc1246af59, $GPGGA,000527.00,4437.5841,N,12402.8859,W,1,09,0.8,23.3,M,-21.8,M,,*6E
2021-06-19 00:05:30Z, 6cda8203-a249-e411-b0cc-f8bc1246af59, $GPGGA,000529.00,4437.5841,N,12402.8860,W,1,09,0.8,23.4,M,-21.8,M,,*6D
2021-06-19 00:05:31Z, 6cda8203-a249-e411-b0cc-f8bc1246af59, $GPGGA,000530.00,4437.5841,N,12402.8860,W,1,09,0.8,23.4,M,-21.8,M,,*65
2021-06-19 00:05:32Z, 6cda8203-a249-e411-b0cc-f8bc1246af59, $GPGGA,000531.00,4437.5842,N,12402.8862,W,1,09,0.8,23.5,M,-21.8,M,,*64
2021-06-19 00:05:33Z, 6cda8203-a249-e411-b0cc-f8bc1246af59, $GPGGA,000532.00,4437.5844,N,12402.8862,W,1,09,0.8,23.5,M,-21.8,M,,*61
2021-06-19 00:05:34Z, 6cda8203-a249-e411-b0cc-f8bc1246af59, $GPGGA,000533.00,4437.5842,N,12402.8865,W,1,09,0.8,23.5,M,-21.8,M,,*61
2021-06-19 00:05:35Z, 6cda8203-a249-e411-b0cc-f8bc1246af59, $GPGGA,000534.00,4437.5841,N,12402.8866,W,1,09,0.8,23.6,M,-21.8,M,,*65
2021-06-19 00:05:37Z, 6cda8203-a249-e411-b0cc-f8bc1246af59, $GPGGA,000535.00,4437.5841,N,12402.8869,W,1,09,0.8,23.6,M,-21.8,M,,*6B
2021-06-19 00:05:38Z, 6cda8203-a249-e411-b0cc-f8bc1246af59, $GPGGA,000537.00,4437.5843,N,12402.8870,W,1,09,0.8,23.6,M,-21.8,M,,*63
2021-06-19 00:05:39Z, 6cda8203-a249-e411-b0cc-f8bc1246af59, $GPGGA,000538.00,4437.5843,N,12402.8869,W,1,09,0.8,23.7,M,-21.8,M,,*65
2021-06-19 00:05:41Z, 6cda8203-a249-e411-b0cc-f8bc1246af59, $GPGGA,000540.00,4437.5842,N,12402.8868,W,1,09,0.8,23.7,M,-21.8,M,,*6A
2021-06-19 00:05:42Z, 6cda8203-a249-e411-b0cc-f8bc1246af59, $GPGGA,000541.00,4437.5842,N,12402.8869,W,1,09,0.8,23.8,M,-21.8,M,,*65
2021-06-19 00:05:44Z, 6cda8203-a249-e411-b0cc-f8bc1246af59, $GPGGA,000543.00,4437.5841,N,12402.8870,W,1,09,0.8,23.7,M,-21.8,M,,*63
2021-06-19 00:05:45Z, 6cda8203-a249-e411-b0cc-f8bc1246af59, $GPGGA,000544.00,4437.5842,N,12402.8869,W,1,09,0.8,23.6,M,-21.8,M,,*6E
2021-06-19 00:05:47Z, 6cda8203-a249-e411-b0cc-f8bc1246af59, $GPGGA,000546.00,4437.5844,N,12402.8869,W,1,09,0.8,23.5,M,-21.8,M,,*69
2021-06-19 00:05:48Z, 6cda8203-a249-e411-b0cc-f8bc1246af59, $GPGGA,000547.00,4437.5846,N,12402.8867,W,1,09,0.8,23.4,M,-21.8,M,,*65
2021-06-19 00:05:50Z, 6cda8203-a249-e411-b0cc-f8bc1246af59, $GPGGA,000549.00,4437.5845,N,12402.8869,W,1,09,0.8,23.4,M,-21.8,M,,*66
2021-06-19 00:05:51Z, 6cda8203-a249-e411-b0cc-f8bc1246af59, $GPGGA,000550.00,4437.5845,N,12402.8869,W,1,09,0.8,23.3,M,-21.8,M,,*69
2021-06-19 00:05:53Z, 6cda8203-a249-e411-b0cc-f8bc1246af59, $GPGGA,000552.00,4437.5847,N,12402.8871,W,1,09,0.8,23.2,M,-21.8,M,,*61
2021-06-19 00:05:54Z, 6cda8203-a249-e411-b0cc-f8bc1246af59, $GPGGA,000553.00,4437.5846,N,12402.8871,W,1,09,0.8,23.2,M,-21.8,M,,*61
2021-06-19 00:05:56Z, 6cda8203-a249-e411-b0cc-f8bc1246af59, $GPGGA,000555.00,4437.5848,N,12402.8872,W,1,09,0.8,22.9,M,-21.8,M,,*60
2021-06-19 00:05:57Z, 6cda8203-a249-e411-b0cc-f8bc1246af59, $GPGGA,000556.00,4437.5847,N,12402.8871,W,1,09,0.8,23.0,M,-21.8,M,,*67
2021-06-19 00:05:59Z, 6cda8203-a249-e411-b0cc-f8bc1246af59, $GPGGA,000558.00,4437.5848,N,12402.8869,W,1,09,0.8,22.9,M,-21.8,M,,*67
2021-06-19 00:06:00Z, 6cda8203-a249-e411-b0cc-f8bc1246af59, $GPGGA,000559.00,4437.5851,N,12402.8865,W,1,09,0.8,22.8,M,-21.8,M,,*63
2021-06-19 00:06:02Z, 6cda8203-a249-e411-b0cc-f8bc1246af59, $GPGGA,000601.00,4437.5851,N,12402.8865,W,1,09,0.8,22.7,M,-21.8,M,,*62
2021-06-19 00:06:03Z, 6cda8203-a249-e411-b0cc-f8bc1246af59, $GPGGA,000602.00,4437.5849,N,12402.8865,W,1,09,0.8,22.5,M,-21.8,M,,*6A
2021-06-19 00:06:05Z, 6cda8203-a249-e411-b0cc-f8bc1246af59, $GPGGA,000604.00,4437.5850,N,12402.8864,W,1,09,0.8,22.2,M,-21.8,M,,*62
2021-06-19 00:06:06Z, 6cda8203-a249-e411-b0cc-f8bc1246af59, $GPGGA,000605.00,4437.5850,N,12402.8862,W,1,09,0.8,22.0,M,-21.8,M,,*67
2021-06-19 00:06:08Z, 6cda8203-a249-e411-b0cc-f8bc1246af59, $GPGGA,000607.00,4437.5848,N,12402.8862,W,1,09,0.8,21.9,M,-21.8,M,,*66
2021-06-19 00:06:09Z, 6cda8203-a249-e411-b0cc-f8bc1246af59, $GPGGA,000608.00,4437.5846,N,12402.8861,W,1,09,0.8,21.9,M,-21.8,M,,*64
2021-06-19 00:06:11Z, 6cda8203-a249-e411-b0cc-f8bc1246af59, $GPGGA,000610.00,4437.5844,N,12402.8858,W,1,09,0.8,22.0,M,-21.8,M,,*6F
2021-06-19 00:06:12Z, 6cda8203-a249-e411-b0cc-f8bc1246af59, $GPGGA,000611.00,4437.5845,N,12402.8859,W,1,09,0.8,22.0,M,-21.8,M,,*6E
2021-06-19 00:06:14Z, 6cda8203-a249-e411-b0cc-f8bc1246af59, $GPGGA,000613.00,4437.5844,N,12402.8858,W,1,09,0.8,22.0,M,-21.8,M,,*6C
2021-06-19 00:06:15Z, 6cda8203-a249-e411-b0cc-f8bc1246af59, $GPGGA,000614.00,4437.5843,N,12402.8858,W,1,09,0.8,21.9,M,-21.8,M,,*66
2021-06-19 00:06:17Z, 6cda8203-a249-e411-b0cc-f8bc1246af59, $GPGGA,000616.00,4437.5843,N,12402.8858,W,1,09,0.8,21.9,M,-21.8,M,,*64
2021-06-19 00:06:18Z, 6cda8203-a249-e411-b0cc-f8bc1246af59, $GPGGA,000617.00,4437.5842,N,12402.8857,W,1,09,0.8,21.8,M,-21.8,M,,*6A
2021-06-19 00:06:20Z, 6cda8203-a249-e411-b0cc-f8bc1246af59, $GPGGA,000619.00,4437.5840,N,12402.8857,W,1,09,0.8,21.8,M,-21.8,M,,*66
2021-06-19 00:06:21Z, 6cda8203-a249-e411-b0cc-f8bc1246af59, $GPGGA,000620.00,4437.5838,N,12402.8854,W,1,09,0.8,21.9,M,-21.8,M,,*61
2021-06-19 00:06:23Z, 6cda8203-a249-e411-b0cc-f8bc1246af59, $GPGGA,000622.00,4437.5835,N,12402.8855,W,1,09,0.8,22.0,M,-21.8,M,,*65
2021-06-19 00:06:24Z, 6cda8203-a249-e411-b0cc-f8bc1246af59, $GPGGA,000623.00,4437.5834,N,12402.8856,W,1,09,0.8,22.0,M,-21.8,M,,*66
2021-06-19 00:06:26Z, 6cda8203-a249-e411-b0cc-f8bc1246af59, $GPGGA,000625.00,4437.5831,N,12402.8858,W,1,09,0.8,22.1,M,-21.8,M,,*6A
2021-06-19 00:06:27Z, 6cda8203-a249-e411-b0cc-f8bc1246af59, $GPGGA,000626.00,4437.5830,N,12402.8858,W,1,09,0.8,22.1,M,-21.8,M,,*68
2021-06-19 00:06:29Z, 6cda8203-a249-e411-b0cc-f8bc1246af59, $GPGGA,000628.00,4437.5830,N,12402.8858,W,1,09,0.8,22.3,M,-21.8,M,,*64
2021-06-19 00:06:30Z, 6cda8203-a249-e411-b0cc-f8bc1246af59, $GPGGA,000629.00,4437.5830,N,12402.8856,W,1,09,0.8,22.1,M,-21.8,M,,*69
2021-06-19 00:06:32Z, 6cda8203-a249-e411-b0cc-f8bc1246af59, $GPGGA,000631.00,4437.5831,N,12402.8853,W,1,09,0.8,22.0,M,-21.8,M,,*65
2021-06-19 00:06:33Z, 6cda8203-a249-e411-b0cc-f8bc1246af59, $GPGGA,000632.00,4437.5830,N,12402.8852,W,1,09,0.8,21.9,M,-21.8,M,,*6C
2021-06-19 00:06:35Z, 6cda8203-a249-e411-b0cc-f8bc1246af59, $GPGGA,000634.00,4437.5831,N,12402.8853,W,1,09,0.8,21.8,M,-21.8,M,,*6B
2021-06-19 00:06:36Z, 6cda8203-a249-e411-b0cc-f8bc1246af59, $GPGGA,000635.00,4437.5832,N,12402.8851,W,1,09,0.8,21.7,M,-21.8,M,,*64
2021-06-19 00:06:38Z, 6cda8203-a249-e411-b0cc-f8bc1246af59, $GPGGA,000637.00,4437.5833,N,12402.8849,W,1,09,0.8,21.8,M,-21.8,M,,*61
2021-06-19 00:06:39Z, 6cda8203-a249-e411-b0cc-f8bc1246af59, $GPGGA,000638.00,4437.5833,N,12402.8850,W,1,09,0.8,21.7,M,-21.8,M,,*69
2021-06-19 00:06:41Z, 6cda8203-a249-e411-b0cc-f8bc1246af59, $GPGGA,000640.00,4437.5836,N,12402.8847,W,1,09,0.8,21.6,M,-21.8,M,,*64
2021-06-19 00:06:42Z, 6cda8203-a249-e411-b0cc-f8bc1246af59, $GPGGA,000641.00,4437.5837,N,12402.8848,W,1,09,0.8,21.6,M,-21.8,M,,*6B
2021-06-19 00:06:44Z, 6cda8203-a249-e411-b0cc-f8bc1246af59, $GPGGA,000643.00,4437.5839,N,12402.8848,W,1,09,0.8,21.6,M,-21.8,M,,*67
2021-06-19 00:06:45Z, 6cda8203-a249-e411-b0cc-f8bc1246af59, $GPGGA,000644.00,4437.5841,N,12402.8848,W,1,09,0.8,21.7,M,-21.8,M,,*6E
2021-06-19 00:06:47Z, 6cda8203-a249-e411-b0cc-f8bc1246af59, $GPGGA,000646.00,4437.5838,N,12402.8849,W,1,09,0.8,21.8,M,-21.8,M,,*6C
2021-06-19 00:06:48Z, 6cda8203-a249-e411-b0cc-f8bc1246af59, $GPGGA,000647.00,4437.5838,N,12402.8848,W,1,09,0.8,21.8,M,-21.8,M,,*6C
2021-06-19 00:06:50Z, 6cda8203-a249-e411-b0cc-f8bc1246af59, $GPGGA,000649.00,4437.5838,N,12402.8844,W,1,09,0.8,21.7,M,-21.8,M,,*61
2021-06-19 00:06:51Z, 6cda8203-a249-e411-b0cc-f8bc1246af59, $GPGGA,000650.00,4437.5837,N,12402.8842,W,1,09,0.8,21.5,M,-21.8,M,,*62
2021-06-19 00:06:53Z, 6cda8203-a249-e411-b0cc-f8bc1246af59, $GPGGA,000652.00,4437.5838,N,12402.8837,W,1,09,0.8,21.5,M,-21.8,M,,*6D
2021-06-19 00:06:54Z, 6cda8203-a249-e411-b0cc-f8bc1246af59, $GPGGA,000653.00,4437.5838,N,12402.8836,W,1,09,0.8,21.5,M,-21.8,M,,*6D
2021-06-19 00:06:56Z, 6cda8203-a249-e411-b0cc-f8bc1246af59, $GPGGA,000655.00,4437.5838,N,12402.8836,W,1,09,0.8,21.3,M,-21.8,M,,*6D
2021-06-19 00:06:57Z, 6cda8203-a249-e411-b0cc-f8bc1246af59, $GPGGA,000656.00,4437.5837,N,12402.8837,W,1,09,0.8,21.4,M,-21.8,M,,*67
2021-06-19 00:06:59Z, 6cda8203-a249-e411-b0cc-f8bc1246af59, $GPGGA,000658.00,4437.5838,N,12402.8833,W,1,09,0.8,21.3,M,-21.8,M,,*65
2021-06-19 00:07:00Z, 6cda8203-a249-e411-b0cc-f8bc1246af59, $GPGGA,000659.00,4437.5839,N,12402.8832,W,1,09,0.8,21.3,M,-21.8,M,,*64
2021-06-19 00:07:02Z, 6cda8203-a249-e411-b0cc-f8bc1246af59, $GPGGA,000701.00,4437.5837,N,12402.8831,W,1,09,0.8,21.2,M,-21.8,M,,*64
2021-06-19 00:07:03Z, 6cda8203-a249-e411-b0cc-f8bc1246af59, $GPGGA,000702.00,4437.5839,N,12402.8827,W,1,09,0.8,20.9,M,-21.8,M,,*64
2021-06-19 00:07:05Z, 6cda8203-a249-e411-b0cc-f8bc1246af59, $GPGGA,000704.00,4437.5840,N,12402.8832,W,1,09,0.8,20.8,M,-21.8,M,,*69
2021-06-19 00:07:06Z, 6cda8203-a249-e411-b0cc-f8bc1246af59, $GPGGA,000705.00,4437.5840,N,12402.8832,W,1,09,0.8,20.6,M,-21.8,M,,*66
2021-06-19 00:07:08Z, 6cda8203-a249-e411-b0cc-f8bc1246af59, $GPGGA,000707.00,4437.5840,N,12402.8833,W,1,09,0.8,20.3,M,-21.8,M,,*60
2021-06-19 00:07:09Z, 6cda8203-a249-e411-b0cc-f8bc1246af59, $GPGGA,000708.00,4437.5840,N,12402.8834,W,1,09,0.8,20.3,M,-21.8,M,,*68
2021-06-19 00:07:11Z, 6cda8203-a249-e411-b0cc-f8bc1246af59, $GPGGA,000710.00,4437.5840,N,12402.8836,W,1,09,0.8,20.1,M,-21.8,M,,*61
2021-06-19 00:07:12Z, 6cda8203-a249-e411-b0cc-f8bc1246af59, $GPGGA,000711.00,4437.5839,N,12402.8838,W,1,09,0.8,20.0,M,-21.8,M,,*61
2021-06-19 00:07:14Z, 6cda8203-a249-e411-b0cc-f8bc1246af59, $GPGGA,000713.00,4437.5839,N,12402.8840,W,1,09,0.8,19.9,M,-21.8,M,,*6F
2021-06-19 00:07:15Z, 6cda8203-a249-e411-b0cc-f8bc1246af59, $GPGGA,000714.00,4437.5838,N,12402.8841,W,1,09,0.8,19.9,M,-21.8,M,,*68
2021-06-19 00:07:17Z, 6cda8203-a249-e411-b0cc-f8bc1246af59, $GPGGA,000716.00,4437.5839,N,12402.8843,W,1,09,0.8,19.8,M,-21.8,M,,*68
2021-06-19 00:07:18Z, 6cda8203-a249-e411-b0cc-f8bc1246af59, $GPGGA,000717.00,4437.5838,N,12402.8844,W,1,09,0.8,19.8,M,-21.8,M,,*6F
2021-06-19 00:07:20Z, 6cda8203-a249-e411-b0cc-f8bc1246af59, $GPGGA,000719.00,4437.5840,N,12402.8843,W,1,09,0.8,19.8,M,-21.8,M,,*69
2021-06-19 00:07:21Z, 6cda8203-a249-e411-b0cc-f8bc1246af59, $GPGGA,000720.00,4437.5841,N,12402.8844,W,1,09,0.8,19.8,M,-21.8,M,,*65
2021-06-19 00:07:23Z, 6cda8203-a249-e411-b0cc-f8bc1246af59, $GPGGA,000722.00,4437.5843,N,12402.8848,W,1,09,0.8,19.8,M,-21.8,M,,*69
2021-06-19 00:07:24Z, 6cda8203-a249-e411-b0cc-f8bc1246af59, $GPGGA,000723.00,4437.5843,N,12402.8847,W,1,09,0.8,19.8,M,-21.8,M,,*67
2021-06-19 00:07:26Z, 6cda8203-a249-e411-b0cc-f8bc1246af59, $GPGGA,000725.00,4437.5844,N,12402.8848,W,1,09,0.8,19.8,M,-21.8,M,,*69
2021-06-19 00:07:27Z, 6cda8203-a249-e411-b0cc-f8bc1246af59, $GPGGA,000726.00,4437.5844,N,12402.8848,W,1,09,0.8,19.9,M,-21.8,M,,*6B
2021-06-19 00:07:29Z, 6cda8203-a249-e411-b0cc-f8bc1246af59, $GPGGA,000728.00,4437.5844,N,12402.8844,W,1,09,0.8,19.9,M,-21.8,M,,*69
2021-06-19 00:07:30Z, 6cda8203-a249-e411-b0cc-f8bc1246af59, $GPGGA,000729.00,4437.5844,N,12402.8843,W,1,09,0.8,19.9,M,-21.8,M,,*6F
2021-06-19 00:07:32Z, 6cda8203-a249-e411-b0cc-f8bc1246af59, $GPGGA,000731.00,4437.5844,N,12402.8845,W,1,09,0.8,19.9,M,-21.8,M,,*60
2021-06-19 00:07:33Z, 6cda8203-a249-e411-b0cc-f8bc1246af59, $GPGGA,000732.00,4437.5843,N,12402.8847,W,1,09,0.8,19.8,M,-21.8,M,,*67
2021-06-19 00:07:35Z, 6cda8203-a249-e411-b0cc-f8bc1246af59, $GPGGA,000734.00,4437.5840,N,12402.8850,W,1,09,0.8,19.9,M,-21.8,M,,*65
2021-06-19 00:07:36Z, 6cda8203-a249-e411-b0cc-f8bc1246af59, $GPGGA,000735.00,4437.5838,N,12402.8849,W,1,09,1.0,19.9,M,-21.8,M,,*6A
2021-06-19 00:07:37Z, 6cda8203-a249-e411-b0cc-f8bc1246af59, $GPGGA,000736.00,4437.5836,N,12402.8849,W,1,09,1.0,19.9,M,-21.8,M,,*67
2021-06-19 00:07:38Z, 6cda8203-a249-e411-b0cc-f8bc1246af59, $GPGGA,000737.00,4437.5835,N,12402.8849,W,1,09,0.8,19.9,M,-21.8,M,,*6C
2021-06-19 00:07:39Z, 6cda8203-a249-e411-b0cc-f8bc1246af59, $GPGGA,000738.00,4437.5837,N,12402.8851,W,1,09,1.0,19.9,M,-21.8,M,,*61
2021-06-19 00:07:40Z, 6cda8203-a249-e411-b0cc-f8bc1246af59, $GPGGA,000739.00,4437.5835,N,12402.8852,W,1,09,1.0,19.9,M,-21.8,M,,*61
2021-06-19 00:07:42Z, 6cda8203-a249-e411-b0cc-f8bc1246af59, $GPGGA,000740.00,4437.5835,N,12402.8851,W,1,09,0.8,19.9,M,-21.8,M,,*65
2021-06-19 00:07:43Z, 6cda8203-a249-e411-b0cc-f8bc1246af59, $GPGGA,000742.00,4437.5835,N,12402.8852,W,1,09,1.0,20.0,M,-21.8,M,,*6E
2021-06-19 00:07:44Z, 6cda8203-a249-e411-b0cc-f8bc1246af59, $GPGGA,000743.00,4437.5835,N,12402.8852,W,1,09,1.0,19.9,M,-21.8,M,,*6C
2021-06-19 00:07:46Z, 6cda8203-a249-e411-b0cc-f8bc1246af59, $GPGGA,000745.00,4437.5835,N,12402.8854,W,1,09,1.0,19.7,M,-21.8,M,,*62
2021-06-19 00:07:47Z, 6cda8203-a249-e411-b0cc-f8bc1246af59, $GPGGA,000746.00,4437.5835,N,12402.8854,W,1,09,1.0,19.6,M,-21.8,M,,*60
2021-06-19 00:07:49Z, 6cda8203-a249-e411-b0cc-f8bc1246af59, $GPGGA,000748.00,4437.5835,N,12402.8854,W,1,09,0.8,19.7,M,-21.8,M,,*66
2021-06-19 00:07:50Z, 6cda8203-a249-e411-b0cc-f8bc1246af59, $GPGGA,000749.00,4437.5835,N,12402.8854,W,1,09,0.8,19.8,M,-21.8,M,,*68
2021-06-19 00:07:52Z, 6cda8203-a249-e411-b0cc-f8bc1246af59, $GPGGA,000751.00,4437.5837,N,12402.8851,W,1,09,0.8,20.0,M,-21.8,M,,*64
2021-06-19 00:07:53Z, 6cda8203-a249-e411-b0cc-f8bc1246af59, $GPGGA,000752.00,4437.5835,N,12402.8849,W,1,09,0.8,20.0,M,-21.8,M,,*6C
2021-06-19 00:07:55Z, 6cda8203-a249-e411-b0cc-f8bc1246af59, $GPGGA,000754.00,4437.5837,N,12402.8849,W,1,09,0.8,20.1,M,-21.8,M,,*69
2021-06-19 00:07:56Z, 6cda8203-a249-e411-b0cc-f8bc1246af59, $GPGGA,000755.00,4437.5838,N,12402.8850,W,1,09,0.8,20.2,M,-21.8,M,,*6C
2021-06-19 00:07:58Z, 6cda8203-a249-e411-b0cc-f8bc1246af59, $GPGGA,000757.00,4437.5837,N,12402.8849,W,1,09,0.8,20.3,M,-21.8,M,,*68
2021-06-19 00:07:59Z, 6cda8203-a249-e411-b0cc-f8bc1246af59, $GPGGA,000758.00,4437.5837,N,12402.8848,W,1,09,0.8,20.3,M,-21.8,M,,*66
2021-06-19 00:08:01Z, 6cda8203-a249-e411-b0cc-f8bc1246af59, $GPGGA,000800.00,4437.5836,N,12402.8847,W,1,09,0.8,20.3,M,-21.8,M,,*6A
2021-06-19 00:08:02Z, 6cda8203-a249-e411-b0cc-f8bc1246af59, $GPGGA,000801.00,4437.5838,N,12402.8847,W,1,09,0.8,20.3,M,-21.8,M,,*65
2021-06-19 00:08:04Z, 6cda8203-a249-e411-b0cc-f8bc1246af59, $GPGGA,000803.00,4437.5839,N,12402.8844,W,1,09,0.8,20.3,M,-21.8,M,,*65
2021-06-19 00:08:05Z, 6cda8203-a249-e411-b0cc-f8bc1246af59, $GPGGA,000804.00,4437.5837,N,12402.8847,W,1,09,0.8,20.3,M,-21.8,M,,*6F
2021-06-19 00:08:07Z, 6cda8203-a249-e411-b0cc-f8bc1246af59, $GPGGA,000806.00,4437.5835,N,12402.8850,W,1,09,0.8,20.6,M,-21.8,M,,*6C
2021-06-19 00:08:08Z, 6cda8203-a249-e411-b0cc-f8bc1246af59, $GPGGA,000807.00,4437.5833,N,12402.8862,W,1,09,0.8,20.6,M,-21.8,M,,*6A
2021-06-19 00:08:10Z, 6cda8203-a249-e411-b0cc-f8bc1246af59, $GPGGA,000809.004437.,5835,N,12402.8864,W,1,09,0.8,20.5,M,-21.8,M,,*67
2021-06-19 00:08:11Z, 6cda8203-a249-e411-b0cc-f8bc1246af59, $GPGGA,000810.00,4437.5835,N,12402.8868,W,1,09,0.8,20.5,M,-21.8,M,,*63
2021-06-19 00:08:13Z, 6cda8203-a249-e411-b0cc-f8bc1246af59, $GPGGA,000812.00,4437.5836,N,12402.8872,W,1,09,0.8,20.5,M,-21.8,M,,*69
2021-06-19 00:08:14Z, 6cda8203-a249-e411-b0cc-f8bc1246af59, $GPGGA,000813.00,4437.5836,N,12402.8873,W,1,09,0.8,20.5,M,-21.8,M,,*69
2021-06-19 00:08:16Z, 6cda8203-a249-e411-b0cc-f8bc1246af59, $GPGGA,000815.00,4437.5834,N,12402.8871,W,1,09,0.8,20.4,M,-21.8,M,,*6E
2021-06-19 00:08:17Z, 6cda8203-a249-e411-b0cc-f8bc1246af59, $GPGGA,000816.00,4437.5833,N,12402.8871,W,1,09,0.8,20.3,M,-21.8,M,,*6D
2021-06-19 00:08:19Z, 6cda8203-a249-e411-b0cc-f8bc1246af59, $GPGGA,000818.00,4437.5834,N,12402.8869,W,1,09,0.8,20.3,M,-21.8,M,,*6D
2021-06-19 00:08:20Z, 6cda8203-a249-e411-b0cc-f8bc1246af59, $GPGGA,000819.00,4437.5834,N,12402.8870,W,1,09,0.8,20.3,M,-21.8,M,,*64
2021-06-19 00:08:22Z, 6cda8203-a249-e411-b0cc-f8bc1246af59, $GPGGA,000821.00,4437.5836,N,12402.8870,W,1,09,0.8,20.2,M,-21.8,M,,*6C
2021-06-19 00:08:23Z, 6cda8203-a249-e411-b0cc-f8bc1246af59, $GPGGA,000822.00,4437.5835,N,12402.8870,W,1,09,0.8,20.1,M,-21.8,M,,*6F
2021-06-19 00:08:25Z, 6cda8203-a249-e411-b0cc-f8bc1246af59, $GPGGA,000824.00,4437.5836,N,12402.8870,W,1,09,0.8,19.9,M,-21.8,M,,*68
2021-06-19 00:08:26Z, 6cda8203-a249-e411-b0cc-f8bc1246af59, $GPGGA,000825.00,4437.5838,N,12402.8869,W,1,09,0.8,19.9,M,-21.8,M,,*6F
2021-06-19 00:08:28Z, 6cda8203-a249-e411-b0cc-f8bc1246af59, $GPGGA,000827.00,4437.5837,N,12402.8872,W,1,09,0.8,20.1,M,-21.8,M,,*6A
2021-06-19 00:08:29Z, 6cda8203-a249-e411-b0cc-f8bc1246af59, $GPGGA,000828.00,4437.5837,N,12402.8873,W,1,09,0.8,20.2,M,-21.8,M,,*67
2021-06-19 00:08:31Z, 6cda8203-a249-e411-b0cc-f8bc1246af59, $GPGGA,000830.00,4437.5837,N,12402.8873,W,1,09,0.8,20.3,M,-21.8,M,,*6F
2021-06-19 00:08:32Z, 6cda8203-a249-e411-b0cc-f8bc1246af59, $GPGGA,000831.00,4437.5836,N,12402.8873,W,1,09,0.8,20.4,M,-21.8,M,,*68
2021-06-19 00:08:34Z, 6cda8203-a249-e411-b0cc-f8bc1246af59, $GPGGA,000833.00,4437.5836,N,12402.8875,W,1,09,0.8,20.4,M,-21.8,M,,*6C
2021-06-19 00:08:35Z, 6cda8203-a249-e411-b0cc-f8bc1246af59, $GPGGA,000834.00,4437.5836,N,12402.8875,W,1,09,0.8,20.3,M,-21.8,M,,*6C
2021-06-19 00:08:37Z, 6cda8203-a249-e411-b0cc-f8bc1246af59, $GPGGA,000836.00,4437.5836,N,12402.8871,W,1,09,0.8,20.2,M,-21.8,M,,*6B
2021-06-19 00:08:38Z, 6cda8203-a249-e411-b0cc-f8bc1246af59, $GPGGA,000837.00,4437.5835,N,12402.8872,W,1,09,0.8,20.1,M,-21.8,M,,*69
2021-06-19 00:08:40Z, 6cda8203-a249-e411-b0cc-f8bc1246af59, $GPGGA,000839.00,4437.5835,N,12402.8873,W,1,09,0.8,20.0,M,-21.8,M,,*67
2021-06-19 00:08:41Z, 6cda8203-a249-e411-b0cc-f8bc1246af59, $GPGGA,000840.00,4437.5835,N,12402.8870,W,1,09,0.8,20.0,M,-21.8,M,,*6A
2021-06-19 00:08:43Z, 6cda8203-a249-e411-b0cc-f8bc1246af59, $GPGGA,000842.00,4437.5836,N,12402.8868,W,1,09,0.8,20.2,M,-21.8,M,,*60
2021-06-19 00:08:44Z, 6cda8203-a249-e411-b0cc-f8bc1246af59, $GPGGA,000843.00,4437.5836,N,12402.8870,W,1,09,0.8,20.3,M,-21.8,M,,*69
2021-06-19 00:08:46Z, 6cda8203-a249-e411-b0cc-f8bc1246af59, $GPGGA,000845.00,4437.5835,N,12402.8866,W,1,09,0.8,20.3,M,-21.8,M,,*6B
2021-06-19 00:08:47Z, 6cda8203-a249-e411-b0cc-f8bc1246af59, $GPGGA,000846.00,4437.5835,N,12402.8865,W,1,09,0.8,20.3,M,-21.8,M,,*6B
2021-06-19 00:08:49Z, 6cda8203-a249-e411-b0cc-f8bc1246af59, $GPGGA,000848.00,4437.5834,N,12402.8866,W,1,09,0.8,20.3,M,-21.8,M,,*67
2021-06-19 00:08:50Z, 6cda8203-a249-e411-b0cc-f8bc1246af59, $GPGGA,000849.00,4437.5832,N,12402.8866,W,1,09,0.8,20.3,M,-21.8,M,,*60
2021-06-19 00:08:52Z, 6cda8203-a249-e411-b0cc-f8bc1246af59, $GPGGA,000851.00,4437.5831,N,12402.8868,W,1,09,0.8,20.3,M,-21.8,M,,*64
2021-06-19 00:08:53Z, 6cda8203-a249-e411-b0cc-f8bc1246af59, $GPGGA,000852.00,4437.5829,N,12402.8869,W,1,09,0.8,20.3,M,-21.8,M,,*6F
2021-06-19 00:08:55Z, 6cda8203-a249-e411-b0cc-f8bc1246af59, $GPGGA,000854.00,4437.5828,N,12402.8868,W,1,09,0.8,20.4,M,-21.8,M,,*6E
2021-06-19 00:08:56Z, 6cda8203-a249-e411-b0cc-f8bc1246af59, $GPGGA,000855.00,4437.5826,N,12402.8867,W,1,09,0.8,20.4,M,-21.8,M,,*6E
2021-06-19 00:08:58Z, 6cda8203-a249-e411-b0cc-f8bc1246af59, $GPGGA,000857.00,4437.5826,N,12402.8868,W,1,09,0.8,20.4,M,-21.8,M,,*63
2021-06-19 00:08:59Z, 6cda8203-a249-e411-b0cc-f8bc1246af59, $GPGGA,000858.00,4437.5825,N,12402.8869,W,1,09,0.8,20.3,M,-21.8,M,,*69
2021-06-19 00:09:01Z, 6cda8203-a249-e411-b0cc-f8bc1246af59, $GPGGA,000900.00,4437.5828,N,12402.8868,W,1,09,0.8,20.3,M,-21.8,M,,*69
2021-06-19 00:09:02Z, 6cda8203-a249-e411-b0cc-f8bc1246af59, $GPGGA,000901.00,4437.5827,N,12402.8868,W,1,09,0.8,20.3,M,-21.8,M,,*67
2021-06-19 00:09:04Z, 6cda8203-a249-e411-b0cc-f8bc1246af59, $GPGGA,000903.00,4437.5829,N,12402.8868,W,1,09,0.8,20.4,M,-21.8,M,,*6C
2021-06-19 00:09:05Z, 6cda8203-a249-e411-b0cc-f8bc1246af59, $GPGGA,000904.00,4437.5829,N,12402.8868,W,1,09,0.8,20.4,M,-21.8,M,,*6B
2021-06-19 00:09:07Z, 6cda8203-a249-e411-b0cc-f8bc1246af59, $GPGGA,000906.00,4437.5829,N,12402.8873,W,1,09,0.8,20.6,M,-21.8,M,,*61
2021-06-19 00:09:08Z, 6cda8203-a249-e411-b0cc-f8bc1246af59, $GPGGA,000907.00,4437.5829,N,12402.8874,W,1,09,0.8,20.5,M,-21.8,M,,*64
2021-06-19 00:09:10Z, 6cda8203-a249-e411-b0cc-f8bc1246af59, $GPGGA,000909.00,4437.5830,N,12402.8876,W,1,09,0.8,20.5,M,-21.8,M,,*60
2021-06-19 00:09:11Z, 6cda8203-a249-e411-b0cc-f8bc1246af59, $GPGGA,000910.00,4437.5837,N,12402.8880,W,1,09,0.8,20.6,M,-21.8,M,,*65
2021-06-19 00:09:13Z, 6cda8203-a249-e411-b0cc-f8bc1246af59, $GPGGA,000912.00,4437.5838,N,12402.8880,W,1,09,0.8,20.7,M,-21.8,M,,*69
2021-06-19 00:09:14Z, 6cda8203-a249-e411-b0cc-f8bc1246af59, $GPGGA,000913.00,4437.5838,N,12402.8879,W,1,09,0.8,20.7,M,-21.8,M,,*6E
2021-06-19 00:09:16Z, 6cda8203-a249-e411-b0cc-f8bc1246af59, $GPGGA,000915.00,4437.5840,N,12402.8878,W,1,09,0.8,20.8,M,-21.8,M,,*69
2021-06-19 00:09:17Z, 6cda8203-a249-e411-b0cc-f8bc1246af59, $GPGGA,000916.00,4437.5840,N,12402.8878,W,1,09,0.8,20.9,M,-21.8,M,,*6B
2021-06-19 00:09:19Z, 6cda8203-a249-e411-b0cc-f8bc1246af59, $GPGGA,000918.00,4437.5842,N,12402.8876,W,1,09,0.8,21.2,M,-21.8,M,,*63
2021-06-19 00:09:20Z, 6cda8203-a249-e411-b0cc-f8bc1246af59, $GPGGA,000919.00,4437.5841,N,12402.8877,W,1,09,0.8,21.2,M,-21.8,M,,*60
2021-06-19 00:09:22Z, 6cda8203-a249-e411-b0cc-f8bc1246af59, $GPGGA,000921.00,4437.5845,N,12402.8880,W,1,09,0.8,21.6,M,-21.8,M,,*63
2021-06-19 00:09:23Z, 6cda8203-a249-e411-b0cc-f8bc1246af59, $GPGGA,000922.00,4437.5846,N,12402.8880,W,1,09,0.8,21.6,M,-21.8,M,,*63
2021-06-19 00:09:25Z, 6cda8203-a249-e411-b0cc-f8bc1246af59, $GPGGA,000924.00,4437.5848,N,12402.8880,W,1,09,0.8,21.6,M,-21.8,M,,*6B
2021-06-19 00:09:26Z, 6cda8203-a249-e411-b0cc-f8bc1246af59, $GPGGA,000925.00,4437.5850,N,12402.8878,W,1,09,0.8,21.5,M,-21.8,M,,*67
2021-06-19 00:09:28Z, 6cda8203-a249-e411-b0cc-f8bc1246af59, $GPGGA,000927.00,4437.5849,N,12402.8874,W,1,09,0.8,21.5,M,-21.8,M,,*61
2021-06-19 00:09:29Z, 6cda8203-a249-e411-b0cc-f8bc1246af59, $GPGGA,000928.00,4437.5849,N,12402.8873,W,1,09,0.8,21.5,M,-21.8,M,,*69
2021-06-19 00:09:31Z, 6cda8203-a249-e411-b0cc-f8bc1246af59, $GPGGA,000930.00,4437.5851,N,12402.8870,W,1,09,0.8,21.5,M,-21.8,M,,*6A
2021-06-19 00:09:32Z, 6cda8203-a249-e411-b0cc-f8bc1246af59, $GPGGA,000931.00,4437.5851,N,12402.8869,W,1,09,0.8,21.4,M,-21.8,M,,*62
2021-06-19 00:09:34Z, 6cda8203-a249-e411-b0cc-f8bc1246af59, $GPGGA,000933.00,4437.5852,N,12402.8868,W,1,09,0.8,21.6,M,-21.8,M,,*60
2021-06-19 00:09:35Z, 6cda8203-a249-e411-b0cc-f8bc1246af59, $GPGGA,000934.00,4437.5854,N,12402.8869,W,1,09,0.8,21.6,M,-21.8,M,,*60
2021-06-19 00:09:37Z, 6cda8203-a249-e411-b0cc-f8bc1246af59, $GPGGA,000936.00,4437.5858,N,12402.8865,W,1,09,0.8,21.8,M,-21.8,M,,*6C
2021-06-19 00:09:38Z, 6cda8203-a249-e411-b0cc-f8bc1246af59, $GPGGA,000937.00,4437.5858,N,12402.8866,W,1,09,0.8,21.9,M,-21.8,M,,*6F
2021-06-19 00:09:40Z, 6cda8203-a249-e411-b0cc-f8bc1246af59, $GPGGA,000939.00,4437.5860,N,12402.8871,W,1,09,0.8,22.1,M,-21.8,M,,*67
2021-06-19 00:09:41Z, 6cda8203-a249-e411-b0cc-f8bc1246af59, $GPGGA,000940.00,4437.5859,N,12402.8871,W,1,09,0.8,22.1,M,-21.8,M,,*63
2021-06-19 00:09:42Z, 6cda8203-a249-e411-b0cc-f8bc1246af59, $GPGGA,000941.00,4437.5859,N,12402.8872,W,1,09,0.8,22.1,M,-21.8,M,,*61
2021-06-19 00:09:43Z, 6cda8203-a249-e411-b0cc-f8bc1246af59, $GPGGA,000942.00,4437.5857,N,12402.8873,W,1,09,0.8,22.0,M,-21.8,M,,*6C
2021-06-19 00:09:44Z, 6cda8203-a249-e411-b0cc-f8bc1246af59, $GPGGA,000943.00,4437.5856,N,12402.8872,W,1,09,0.8,21.8,M,-21.8,M,,*66
2021-06-19 00:09:45Z, 6cda8203-a249-e411-b0cc-f8bc1246af59, $GPGGA,000944.00,4437.5855,N,12402.8874,W,1,09,0.8,21.7,M,-21.8,M,,*6B
2021-06-19 00:09:47Z, 6cda8203-a249-e411-b0cc-f8bc1246af59, $GPGGA,000945.00,4437.5856,N,12402.8874,W,1,09,0.8,21.7,M,-21.8,M,,*69
2021-06-19 00:09:48Z, 6cda8203-a249-e411-b0cc-f8bc1246af59, $GPGGA,000947.00,4437.5857,N,12402.8876,W,1,09,0.8,21.6,M,-21.8,M,,*69
2021-06-19 00:09:49Z, 6cda8203-a249-e411-b0cc-f8bc1246af59, $GPGGA,000948.00,4437.5856,N,12402.8876,W,1,09,0.8,21.5,M,-21.8,M,,*64
2021-06-19 00:09:51Z, 6cda8203-a249-e411-b0cc-f8bc1246af59, $GPGGA,000950.00,4437.5857,N,12402.8875,W,1,09,0.8,21.4,M,-21.8,M,,*6E
2021-06-19 00:09:52Z, 6cda8203-a249-e411-b0cc-f8bc1246af59, $GPGGA,000951.00,4437.5857,N,12402.8875,W,1,09,0.8,21.3,M,-21.8,M,,*68
2021-06-19 00:09:54Z, 6cda8203-a249-e411-b0cc-f8bc1246af59, $GPGGA,000953.00,4437.5858,N,12402.8875,W,1,09,0.8,21.2,M,-21.8,M,,*64
2021-06-19 00:09:55Z, 6cda8203-a249-e411-b0cc-f8bc1246af59, $GPGGA,000954.00,4437.5858,N,12402.8875,W,1,09,0.8,21.2,M,-21.8,M,,*63
2021-06-19 00:09:57Z, 6cda8203-a249-e411-b0cc-f8bc1246af59, $GPGGA,000956.00,4437.5857,N,12402.8876,W,1,09,0.8,21.1,M,-21.8,M,,*6E
2021-06-19 00:09:58Z, 6cda8203-a249-e411-b0cc-f8bc1246af59, $GPGGA,000957.00,4437.5855,N,12402.8875,W,1,09,0.8,21.1,M,-21.8,M,,*6E
2021-06-19 00:10:00Z, 6cda8203-a249-e411-b0cc-f8bc1246af59, $GPGGA,000959.00,4437.5856,N,12402.8873,W,1,09,0.8,21.1,M,-21.8,M,,*65
2021-06-19 00:10:01Z, 6cda8203-a249-e411-b0cc-f8bc1246af59, $GPGGA,001000.00,4437.5855,N,12402.8873,W,1,09,0.8,21.1,M,-21.8,M,,*62
2021-06-19 00:10:03Z, 6cda8203-a249-e411-b0cc-f8bc1246af59, $GPGGA,001002.00,4437.5852,N,12402.8873,W,1,09,0.8,21.0,M,-21.8,M,,*66
2021-06-19 00:10:04Z, 6cda8203-a249-e411-b0cc-f8bc1246af59, $GPGGA,001003.00,4437.5853,N,12402.8872,W,1,09,0.8,20.9,M,-21.8,M,,*6F
2021-06-19 00:10:06Z, 6cda8203-a249-e411-b0cc-f8bc1246af59, $GPGGA,001005.00,4437.5852,N,12402.8873,W,1,09,0.8,20.8,M,-21.8,M,,*68
2021-06-19 00:10:07Z, 6cda8203-a249-e411-b0cc-f8bc1246af59, $GPGGA,001006.00,4437.5851,N,12402.8873,W,1,09,0.8,20.7,M,-21.8,M,,*67
2021-06-19 00:10:09Z, 6cda8203-a249-e411-b0cc-f8bc1246af59, $GPGGA,001008.00,4437.5849,N,12402.8874,W,1,09,0.8,20.6,M,-21.8,M,,*66
2021-06-19 00:10:10Z, 6cda8203-a249-e411-b0cc-f8bc1246af59, $GPGGA,001009.00,4437.5847,N,12402.8875,W,1,09,0.8,20.6,M,-21.8,M,,*68
2021-06-19 00:10:12Z, 6cda8203-a249-e411-b0cc-f8bc1246af59, $GPGGA,001011.00,4437.5847,N,12402.8876,W,1,09,0.8,20.4,M,-21.8,M,,*60
2021-06-19 00:10:13Z, 6cda8203-a249-e411-b0cc-f8bc1246af59, $GPGGA,001012.00,4437.5847,N,12402.8872,W,1,09,0.8,20.3,M,-21.8,M,,*60
2021-06-19 00:10:15Z, 6cda8203-a249-e411-b0cc-f8bc1246af59, $GPGGA,001014.00,4437.5847,N,12402.8873,W,1,09,0.8,20.4,M,-21.8,M,,*60
2021-06-19 00:10:16Z, 6cda8203-a249-e411-b0cc-f8bc1246af59, $GPGGA,001015.00,4437.5848,N,12402.8872,W,1,09,0.8,20.4,M,-21.8,M,,*6F
2021-06-19 00:10:18Z, 6cda8203-a249-e411-b0cc-f8bc1246af59, $GPGGA,001017.00,4437.5850,N,12402.8871,W,1,09,0.8,20.4,M,-21.8,M,,*67
2021-06-19 00:10:19Z, 6cda8203-a249-e411-b0cc-f8bc1246af59, $GPGGA,001018.00,4437.5849,N,12402.8871,W,1,09,0.8,20.4,M,-21.8,M,,*60
2021-06-19 00:10:21Z, 6cda8203-a249-e411-b0cc-f8bc1246af59, $GPGGA,001020.00,4437.5854,N,12402.8869,W,1,09,0.8,20.4,M,-21.8,M,,*6E
2021-06-19 00:10:22Z, 6cda8203-a249-e411-b0cc-f8bc1246af59, $GPGGA,001021.00,4437.5854,N,12402.8867,W,1,09,0.8,20.4,M,-21.8,M,,*61
2021-06-19 00:10:24Z, 6cda8203-a249-e411-b0cc-f8bc1246af59, $GPGGA,001023.00,4437.5853,N,12402.8867,W,1,09,0.8,20.5,M,-21.8,M,,*65
2021-06-19 00:10:25Z, 6cda8203-a249-e411-b0cc-f8bc1246af59, $GPGGA,001024.00,4437.5853,N,12402.8868,W,1,09,0.8,20.5,M,-21.8,M,,*6D
2021-06-19 00:10:27Z, 6cda8203-a249-e411-b0cc-f8bc1246af59, $GPGGA,001026.00,4437.5854,N,12402.8866,W,1,09,0.8,20.4,M,-21.8,M,,*67
2021-06-19 00:10:28Z, 6cda8203-a249-e411-b0cc-f8bc1246af59, $GPGGA,001027.00,4437.5853,N,12402.8866,W,1,09,0.8,20.4,M,-21.8,M,,*61
2021-06-19 00:10:30Z, 6cda8203-a249-e411-b0cc-f8bc1246af59, $GPGGA,001029.00,4437.5853,N,12402.8862,W,1,09,0.8,20.3,M,-21.8,M,,*6C
2021-06-19 00:10:31Z, 6cda8203-a249-e411-b0cc-f8bc1246af59, $GPGGA,001030.00,4437.5852,N,12402.8862,W,1,09,0.8,20.3,M,-21.8,M,,*65
2021-06-19 00:10:33Z, 6cda8203-a249-e411-b0cc-f8bc1246af59, $GPGGA,001032.00,4437.5850,N,12402.8861,W,1,09,0.8,20.2,M,-21.8,M,,*67
2021-06-19 00:10:34Z, 6cda8203-a249-e411-b0cc-f8bc1246af59, $GPGGA,001033.00,4437.5851,N,12402.8859,W,1,09,0.8,20.2,M,-21.8,M,,*6C
2021-06-19 00:10:36Z, 6cda8203-a249-e411-b0cc-f8bc1246af59, $GPGGA,001035.00,4437.5849,N,12402.8858,W,1,09,0.8,20.1,M,-21.8,M,,*61
2021-06-19 00:10:37Z, 6cda8203-a249-e411-b0cc-f8bc1246af59, $GPGGA,001036.00,4437.5848,N,12402.8858,W,1,09,0.8,20.1,M,-21.8,M,,*63
2021-06-19 00:10:39Z, 6cda8203-a249-e411-b0cc-f8bc1246af59, $GPGGA,001038.00,4437.5847,N,12402.8858,W,1,09,0.8,20.0,M,-21.8,M,,*63
2021-06-19 00:10:40Z, 6cda8203-a249-e411-b0cc-f8bc1246af59, $GPGGA,001039.00,4437.5844,N,12402.8861,W,1,09,0.8,19.8,M,-21.8,M,,*69
2021-06-19 00:10:42Z, 6cda8203-a249-e411-b0cc-f8bc1246af59, $GPGGA,001041.00,4437.5844,N,12402.8858,W,1,09,0.8,19.7,M,-21.8,M,,*63
2021-06-19 00:10:43Z, 6cda8203-a249-e411-b0cc-f8bc1246af59, $GPGGA,001042.00,4437.5845,N,12402.8858,W,1,09,0.8,19.6,M,-21.8,M,,*60
2021-06-19 00:10:45Z, 6cda8203-a249-e411-b0cc-f8bc1246af59, $GPGGA,001044.00,4437.5845,N,12402.8860,W,1,09,0.8,19.5,M,-21.8,M,,*6E
2021-06-19 00:10:46Z, 6cda8203-a249-e411-b0cc-f8bc1246af59, $GPGGA,001045.00,4437.5844,N,12402.8862,W,1,09,0.8,19.4,M,-21.8,M,,*6D
2021-06-19 00:10:48Z, 6cda8203-a249-e411-b0cc-f8bc1246af59, $GPGGA,001047.00,4437.5844,N,12402.8868,W,1,09,0.8,19.3,M,-21.8,M,,*62
2021-06-19 00:10:49Z, 6cda8203-a249-e411-b0cc-f8bc1246af59, $GPGGA,001048.00,4437.5844,N,12402.8869,W,1,09,0.8,19.3,M,-21.8,M,,*6C
2021-06-19 00:10:51Z, 6cda8203-a249-e411-b0cc-f8bc1246af59, $GPGGA,001050.00,4437.5843,N,12402.8873,W,1,09,0.8,19.2,M,-21.8,M,,*68
2021-06-19 00:10:52Z, 6cda8203-a249-e411-b0cc-f8bc1246af59, $GPGGA,001051.00,4437.5843,N,12402.8874,W,1,09,0.8,19.1,M,-21.8,M,,*6D
2021-06-19 00:10:54Z, 6cda8203-a249-e411-b0cc-f8bc1246af59, $GPGGA,001053.00,4437.5842,N,12402.8872,W,1,09,0.8,19.0,M,-21.8,M,,*69
2021-06-19 00:10:55Z, 6cda8203-a249-e411-b0cc-f8bc1246af59, $GPGGA,001054.00,4437.5843,N,12402.8871,W,1,09,0.8,19.0,M,-21.8,M,,*6C
2021-06-19 00:10:57Z, 6cda8203-a249-e411-b0cc-f8bc1246af59, $GPGGA,001056.00,4437.5842,N,12402.8871,W,1,09,0.8,19.0,M,-21.8,M,,*6F
