06/28/2019,18:02:17.015,$GPGGA,180215,3747.2006,N,12223.0589,W,2,08,01.0,18.4,M,-28.0,M,05.0,0302*62
06/28/2019,18:02:17.564,$GPGGA,180216,3747.2006,N,12223.0589,W,2,08,01.0,18.4,M,-28.0,M,05.0,0302*61
06/28/2019,18:02:18.575,$GPGGA,180217,3747.2006,N,12223.0589,W,2,08,01.0,18.4,M,-28.0,M,05.0,0302*60
06/28/2019,18:02:19.657,$GPGGA,180218,3747.2006,N,12223.0589,W,2,08,01.0,18.4,M,-28.0,M,06.0,0302*6C
06/28/2019,18:02:20.961,$GPGGA,180219,3747.2006,N,12223.0589,W,2,08,01.0,18.4,M,-28.0,M,05.0,0302*6E
06/28/2019,18:02:21.504,$GPGGA,180220,3747.2006,N,12223.0589,W,2,08,01.0,18.4,M,-28.0,M,05.0,0302*64
06/28/2019,18:02:22.572,$GPGGA,180221,3747.2007,N,12223.0589,W,2,08,01.0,18.4,M,-28.0,M,06.0,0302*67
06/28/2019,18:02:23.657,$GPGGA,180222,3747.2007,N,12223.0589,W,2,08,01.0,18.4,M,-28.0,M,06.0,0302*64
06/28/2019,18:02:25.319,$GPGGA,180223,3747.2007,N,12223.0589,W,2,08,01.0,18.4,M,-28.0,M,05.0,0302*66
06/28/2019,18:02:25.566,$GPGGA,180224,3747.2006,N,12223.0589,W,2,08,01.0,18.4,M,-28.0,M,05.0,0302*60
06/28/2019,18:02:26.681,$GPGGA,180225,3747.2007,N,12223.0589,W,2,08,01.0,18.4,M,-28.0,M,04.0,0302*61
06/28/2019,18:02:27.954,$GPGGA,180226,3747.2007,N,12223.0589,W,2,08,01.0,18.3,M,-28.0,M,05.0,0302*64
06/28/2019,18:02:28.565,$GPGGA,180227,3747.2007,N,12223.0589,W,2,08,01.0,18.3,M,-28.0,M,06.0,0302*66
06/28/2019,18:02:29.584,$GPGGA,180228,3747.2007,N,12223.0589,W,2,08,01.0,18.3,M,-28.0,M,06.0,0302*69
06/28/2019,18:02:30.575,$GPGGA,180229,3747.2006,N,12223.0589,W,2,08,01.0,18.3,M,-28.0,M,05.0,0302*6A
06/28/2019,18:02:31.658,$GPGGA,180230,3747.2006,N,12223.0589,W,2,08,01.0,18.3,M,-28.0,M,05.0,0302*62
06/28/2019,18:02:32.905,$GPGGA,180231,3747.2007,N,12223.0589,W,2,08,01.0,18.3,M,-28.0,M,05.0,0302*62
06/28/2019,18:02:33.446,$GPGGA,180232,3747.2007,N,12223.0589,W,2,08,01.0,18.3,M,-28.0,M,05.0,0302*61
06/28/2019,18:02:34.712,$GPGGA,180233,3747.2007,N,12223.0589,W,2,08,01.0,18.3,M,-28.0,M,06.0,0302*63
06/28/2019,18:02:35.705,$GPGGA,180234,3747.2007,N,12223.0589,W,2,08,01.0,18.3,M,-28.0,M,05.0,0302*67
06/28/2019,18:02:36.566,$GPGGA,180235,3747.2006,N,12223.0589,W,2,08,01.0,18.3,M,-28.0,M,06.0,0302*64
06/28/2019,18:02:37.592,$GPGGA,180236,3747.2006,N,12223.0589,W,2,08,01.0,18.3,M,-28.0,M,05.0,0302*64
06/28/2019,18:02:38.576,$GPGGA,180237,3747.2007,N,12223.0589,W,2,08,01.0,18.3,M,-28.0,M,06.0,0302*67
06/28/2019,18:02:39.954,$GPGGA,180238,3747.2007,N,12223.0589,W,2,08,01.0,18.3,M,-28.0,M,05.0,0302*6B
06/28/2019,18:02:40.567,$GPGGA,180239,3747.2007,N,12223.0590,W,2,08,01.0,18.3,M,-28.0,M,05.0,0302*62
06/28/2019,18:02:41.585,$GPGGA,180240,3747.2007,N,12223.0590,W,2,08,01.0,18.3,M,-28.0,M,05.0,0302*6C
06/28/2019,18:02:42.573,$GPGGA,180241,3747.2006,N,12223.0590,W,2,08,01.0,18.3,M,-28.0,M,05.0,0302*6C
06/28/2019,18:02:43.661,$GPGGA,180242,3747.2007,N,12223.0589,W,2,08,01.0,18.3,M,-28.0,M,06.0,0302*65
06/28/2019,18:02:45.334,$GPGGA,180243,3747.2007,N,12223.0589,W,2,08,01.0,18.3,M,-28.0,M,06.0,0302*64
06/28/2019,18:02:45.600,$GPGGA,180244,3747.2007,N,12223.0589,W,2,08,01.0,18.3,M,-28.0,M,05.0,0302*60
06/28/2019,18:02:46.575,$GPGGA,180245,3747.2007,N,12223.0589,W,2,08,01.0,18.3,M,-28.0,M,05.0,0302*61
06/28/2019,18:02:47.955,$GPGGA,180246,3747.2007,N,12223.0589,W,2,08,01.0,18.3,M,-28.0,M,05.0,0302*62
06/28/2019,18:02:48.568,$GPGGA,180247,3747.2007,N,12223.0589,W,2,08,01.0,18.2,M,-28.0,M,05.0,0302*62
06/28/2019,18:02:49.585,$GPGGA,180248,3747.2007,N,12223.0589,W,2,08,01.0,18.2,M,-28.0,M,06.0,0302*6E
06/28/2019,18:02:50.624,$GPGGA,180249,3747.2007,N,12223.0589,W,2,08,01.0,18.2,M,-28.0,M,06.0,0302*6F
06/28/2019,18:02:51.628,$GPGGA,180250,3747.2007,N,12223.0589,W,2,08,01.0,18.2,M,-28.0,M,05.0,0302*64
06/28/2019,18:02:53.298,$GPGGA,180251,3747.2007,N,12223.0589,W,2,08,01.0,18.3,M,-28.0,M,05.0,0302*64
06/28/2019,18:02:53.564,$GPGGA,180252,3747.2007,N,12223.0589,W,2,08,01.0,18.3,M,-28.0,M,05.0,0302*67
06/28/2019,18:02:54.671,$GPGGA,180253,3747.2007,N,12223.0589,W,2,08,01.0,18.3,M,-28.0,M,06.0,0302*65
06/28/2019,18:02:55.658,$GPGGA,180254,3747.2007,N,12223.0589,W,2,08,01.0,18.2,M,-28.0,M,06.0,0302*63
06/28/2019,18:02:56.530,$GPGGA,180255,3747.2007,N,12223.0589,W,2,08,01.0,18.2,M,-28.0,M,05.0,0302*61
06/28/2019,18:02:57.544,$GPGGA,180256,3747.2007,N,12223.0589,W,2,08,01.0,18.3,M,-28.0,M,05.0,0302*63
06/28/2019,18:02:58.537,$GPGGA,180257,3747.2007,N,12223.0589,W,2,08,01.0,18.3,M,-28.0,M,06.0,0302*61
06/28/2019,18:02:59.659,$GPGGA,180258,3747.2007,N,12223.0589,W,2,08,01.0,18.3,M,-28.0,M,05.0,0302*6D
06/28/2019,18:03:00.658,$GPGGA,180259,3747.2007,N,12223.0589,W,2,08,01.0,18.3,M,-28.0,M,06.0,0302*6F
06/28/2019,18:03:01.545,$GPGGA,180300,3747.2007,N,12223.0589,W,2,08,01.0,18.3,M,-28.0,M,05.0,0302*61
06/28/2019,18:03:02.529,$GPGGA,180301,3747.2007,N,12223.0589,W,2,08,01.0,18.3,M,-28.0,M,05.0,0302*60
06/28/2019,18:03:03.663,$GPGGA,180302,3747.2007,N,12223.0589,W,2,08,01.0,18.3,M,-28.0,M,06.0,0302*60
06/28/2019,18:03:04.657,$GPGGA,180303,3747.2007,N,12223.0589,W,2,08,01.0,18.3,M,-28.0,M,06.0,0302*61
06/28/2019,18:03:05.544,$GPGGA,180304,3747.2007,N,12223.0589,W,2,08,01.0,18.3,M,-28.0,M,05.0,0302*65
06/28/2019,18:03:06.625,$GPGGA,180305,3747.2007,N,12223.0589,W,2,08,01.0,18.3,M,-28.0,M,06.0,0302*67
06/28/2019,18:03:07.629,$GPGGA,180306,3747.2007,N,12223.0589,W,2,08,01.0,18.3,M,-28.0,M,06.0,0302*64
06/28/2019,18:03:08.910,$GPGGA,180307,3747.2007,N,12223.0589,W,2,08,01.0,18.3,M,-28.0,M,05.0,0302*66
06/28/2019,18:03:09.448,$GPGGA,180308,3747.2007,N,12223.0589,W,2,08,01.0,18.2,M,-28.0,M,05.0,0302*68
06/28/2019,18:03:10.629,$GPGGA,180309,3747.2007,N,12223.0589,W,2,08,01.0,18.2,M,-28.0,M,06.0,0302*6A
06/28/2019,18:03:11.618,$GPGGA,180310,3747.2007,N,12223.0589,W,2,08,01.0,18.2,M,-28.0,M,05.0,0302*61
06/28/2019,18:03:12.530,$GPGGA,180311,3747.2007,N,12223.0589,W,2,08,01.0,18.2,M,-28.0,M,06.0,0302*63
06/28/2019,18:03:13.586,$GPGGA,180312,3747.2007,N,12223.0589,W,2,08,01.0,18.2,M,-28.0,M,06.0,0302*60
06/28/2019,18:03:15.300,$GPGGA,180313,3747.2007,N,12223.0589,W,2,08,01.0,18.3,M,-28.0,M,05.0,0302*63
06/28/2019,18:03:15.639,$GPGGA,180314,3747.2007,N,12223.0589,W,2,08,01.0,18.3,M,-28.0,M,06.0,0302*67
06/28/2019,18:03:16.658,$GPGGA,180315,3747.2007,N,12223.0589,W,2,08,01.0,18.3,M,-28.0,M,06.0,0302*66
06/28/2019,18:03:17.545,$GPGGA,180316,3747.2007,N,12223.0589,W,2,08,01.0,18.2,M,-28.0,M,05.0,0302*67
06/28/2019,18:03:18.628,$GPGGA,180317,3747.2007,N,12223.0589,W,2,08,01.0,18.2,M,-28.0,M,06.0,0302*65
06/28/2019,18:03:19.628,$GPGGA,180318,3747.2007,N,12223.0589,W,2,08,01.0,18.2,M,-28.0,M,06.0,0302*6A
06/28/2019,18:03:21.299,$GPGGA,180319,3747.2007,N,12223.0589,W,2,08,01.0,18.2,M,-28.0,M,05.0,0302*68
06/28/2019,18:03:21.566,$GPGGA,180320,3747.2007,N,12223.0589,W,2,08,01.0,18.2,M,-28.0,M,05.0,0302*62
06/28/2019,18:03:22.675,$GPGGA,180321,3747.2007,N,12223.0589,W,2,08,01.0,18.2,M,-28.0,M,05.0,0302*63
06/28/2019,18:03:23.659,$GPGGA,180322,3747.2007,N,12223.0589,W,2,08,01.0,18.2,M,-28.0,M,05.0,0302*60
06/28/2019,18:03:25.300,$GPGGA,180323,3747.2007,N,12223.0589,W,2,08,01.0,18.2,M,-28.0,M,05.0,0302*61
06/28/2019,18:03:25.566,$GPGGA,180324,3747.2007,N,12223.0589,W,2,08,01.0,18.2,M,-28.0,M,04.0,0302*67
06/28/2019,18:03:26.672,$GPGGA,180325,3747.2007,N,12223.0589,W,2,08,01.0,18.2,M,-28.0,M,05.0,0302*67
06/28/2019,18:03:28.056,$GPGGA,180326,3747.2007,N,12223.0589,W,2,08,01.0,18.2,M,-28.0,M,06.0,0302*67
06/28/2019,18:03:28.809,$GPGGA,180327,3747.2007,N,12223.0589,W,2,08,01.0,18.2,M,-28.0,M,05.0,0302*65
06/28/2019,18:03:30.598,$GPGGA,180329,3747.2007,N,12223.0589,W,2,08,01.0,18.1,M,-28.0,M,06.0,0302*6B
06/28/2019,18:03:31.569,$GPGGA,180330,3747.2007,N,12223.0590,W,2,08,01.0,18.1,M,-28.0,M,06.0,0302*6B
06/28/2019,18:03:32.808,$GPGGA,180331,3747.2007,N,12223.0590,W,2,08,01.0,18.1,M,-28.0,M,05.0,0302*69
06/28/2019,18:03:33.566,$GPGGA,180332,3747.2007,N,12223.0590,W,2,08,01.0,18.1,M,-28.0,M,06.0,0302*69
06/28/2019,18:03:34.548,$GPGGA,180333,3747.2007,N,12223.0590,W,2,08,01.0,18.1,M,-28.0,M,06.0,0302*68
06/28/2019,18:03:35.526,$GPGGA,180334,3747.2007,N,12223.0590,W,2,08,01.0,18.1,M,-28.0,M,05.0,0302*6C
06/28/2019,18:03:36.709,$GPGGA,180335,3747.2007,N,12223.0590,W,2,08,01.0,18.1,M,-28.0,M,05.0,0302*6D
06/28/2019,18:03:37.858,$GPGGA,180336,3747.2007,N,12223.0590,W,2,08,01.0,18.1,M,-28.0,M,06.0,0302*6D
06/28/2019,18:03:38.598,$GPGGA,180337,3747.2007,N,12223.0590,W,2,08,01.0,18.1,M,-28.0,M,06.0,0302*6C
06/28/2019,18:03:39.566,$GPGGA,180338,3747.2007,N,12223.0590,W,2,08,01.0,18.1,M,-28.0,M,05.0,0302*60
06/28/2019,18:03:41.136,$GPGGA,180339,3747.2007,N,12223.0590,W,2,08,01.0,18.1,M,-28.0,M,06.0,0302*62
06/28/2019,18:03:41.476,$GPGGA,180340,3747.2007,N,12223.0590,W,2,08,01.0,18.1,M,-28.0,M,06.0,0302*6C
06/28/2019,18:03:42.695,$GPGGA,180341,3747.2007,N,12223.0590,W,2,08,01.0,18.1,M,-28.0,M,05.0,0302*6E
06/28/2019,18:03:43.964,$GPGGA,180342,3747.2007,N,12223.0590,W,2,08,01.0,18.2,M,-28.0,M,05.0,0302*6E
06/28/2019,18:03:44.591,$GPGGA,180343,3747.2007,N,12223.0590,W,2,08,01.0,18.2,M,-28.0,M,05.0,0302*6F
06/28/2019,18:03:45.520,$GPGGA,180344,3747.2007,N,12223.0590,W,2,08,01.0,18.2,M,-28.0,M,05.0,0302*68
06/28/2019,18:03:46.935,$GPGGA,180345,3747.2007,N,12223.0590,W,2,08,01.0,18.2,M,-28.0,M,05.0,0302*69
06/28/2019,18:03:47.427,$GPGGA,180346,3747.2007,N,12223.0590,W,2,08,01.0,18.2,M,-28.0,M,06.0,0302*69
06/28/2019,18:03:48.667,$GPGGA,180347,3747.2007,N,12223.0590,W,2,08,01.0,18.2,M,-28.0,M,05.0,0302*6B
06/28/2019,18:03:49.675,$GPGGA,180348,3747.2007,N,12223.0590,W,2,08,01.0,18.2,M,-28.0,M,05.0,0302*64
06/28/2019,18:03:50.984,$GPGGA,180349,3747.2007,N,12223.0590,W,2,08,01.0,18.2,M,-28.0,M,06.0,0302*66
06/28/2019,18:03:51.495,$GPGGA,180350,3747.2007,N,12223.0590,W,2,08,01.0,18.2,M,-28.0,M,06.0,0302*6E
06/28/2019,18:03:52.671,$GPGGA,180351,3747.2007,N,12223.0590,W,2,08,01.0,18.2,M,-28.0,M,05.0,0302*6C
06/28/2019,18:03:53.562,$GPGGA,180352,3747.2007,N,12223.0590,W,2,08,01.0,18.2,M,-28.0,M,05.0,0302*6F
06/28/2019,18:03:54.559,$GPGGA,180353,3747.2007,N,12223.0589,W,2,08,01.0,18.2,M,-28.0,M,06.0,0302*65
06/28/2019,18:03:55.815,$GPGGA,180354,3747.2007,N,12223.0589,W,2,08,01.0,18.2,M,-28.0,M,05.0,0302*61
06/28/2019,18:03:57.669,$GPGGA,180356,3747.2007,N,12223.0589,W,2,08,01.0,18.2,M,-28.0,M,06.0,0302*60
06/28/2019,18:03:58.961,$GPGGA,180357,3747.2007,N,12223.0590,W,2,08,01.0,18.2,M,-28.0,M,06.0,0302*69
06/28/2019,18:03:59.511,$GPGGA,180358,3747.2007,N,12223.0590,W,2,08,01.0,18.2,M,-28.0,M,05.0,0302*65
06/28/2019,18:04:00.573,$GPGGA,180359,3747.2007,N,12223.0590,W,2,08,01.0,18.2,M,-28.0,M,05.0,0302*64
06/28/2019,18:04:01.660,$GPGGA,180400,3747.2007,N,12223.0590,W,2,08,01.0,18.2,M,-28.0,M,06.0,0302*6C
