06/10/2019,22:11:24.741,$GPGGA,221123,4437.5830,N,12402.9431,W,2,07,01.4,20.7,M,-22.1,M,09.0,0302*6F
06/10/2019,22:11:25.460,$GPGGA,221124,4437.5830,N,12402.9431,W,2,07,01.4,20.7,M,-22.1,M,10.0,0302*60
06/10/2019,22:11:26.774,$GPGGA,221125,4437.5830,N,12402.9430,W,2,07,01.4,20.7,M,-22.1,M,10.0,0302*60
06/10/2019,22:11:27.597,$GPGGA,221126,4437.5830,N,12402.9430,W,2,07,01.4,20.6,M,-22.1,M,11.0,0302*63
06/10/2019,22:11:28.690,$GPGGA,221127,4437.5830,N,12402.9430,W,2,07,01.4,20.6,M,-22.1,M,12.0,0302*61
06/10/2019,22:11:29.281,$GPGGA,221128,4437.5830,N,12402.9430,W,2,07,01.4,20.6,M,-22.1,M,10.0,0302*6C
06/10/2019,22:11:30.755,$GPGGA,221129,4437.5830,N,12402.9430,W,2,07,01.4,20.7,M,-22.1,M,11.0,0302*6D
06/10/2019,22:11:32.613,$GPGGA,221131,4437.5830,N,12402.9430,W,2,07,01.4,20.7,M,-22.1,M,10.0,0302*65
06/10/2019,22:11:33.479,$GPGGA,221132,4437.5830,N,12402.9430,W,2,07,01.4,20.6,M,-22.1,M,11.0,0302*66
06/10/2019,22:11:35.091,$GPGGA,221133,4437.5830,N,12402.9430,W,2,07,01.4,20.6,M,-22.1,M,12.0,0302*64
06/10/2019,22:11:35.624,$GPGGA,221134,4437.5830,N,12402.9430,W,2,07,01.4,20.6,M,-22.1,M,10.0,0302*61
06/10/2019,22:11:37.739,$GPGGA,221136,4437.5830,N,12402.9430,W,2,07,01.4,20.6,M,-22.1,M,12.0,0302*61
06/10/2019,22:11:39.736,$GPGGA,221138,4437.5830,N,12402.9430,W,2,07,01.4,20.6,M,-22.1,M,10.0,0302*6D
06/10/2019,22:11:41.639,$GPGGA,221140,4437.5830,N,12402.9430,W,2,07,01.4,20.6,M,-22.1,M,10.0,0302*62
06/10/2019,22:11:43.666,$GPGGA,221142,4437.5830,N,12402.9430,W,2,07,01.4,20.6,M,-22.1,M,12.0,0302*62
06/10/2019,22:11:44.435,$GPGGA,221143,4437.5830,N,12402.9430,W,2,07,01.4,20.7,M,-22.1,M,12.0,0302*62
06/10/2019,22:11:45.428,$GPGGA,221144,4437.5830,N,12402.9430,W,2,07,01.4,20.6,M,-22.1,M,13.0,0302*65
06/10/2019,22:11:46.731,$GPGGA,221145,4437.5830,N,12402.9430,W,2,07,01.4,20.7,M,-22.1,M,14.0,0302*62
06/10/2019,22:11:47.468,$GPGGA,221146,4437.5830,N,12402.9430,W,2,07,01.4,20.7,M,-22.1,M,10.0,0302*65
06/10/2019,22:11:48.599,$GPGGA,221147,4437.5830,N,12402.9431,W,2,07,01.4,20.7,M,-22.1,M,11.0,0302*64
06/10/2019,22:11:49.379,$GPGGA,221148,4437.5830,N,12402.9431,W,2,07,01.4,20.7,M,-22.1,M,12.0,0302*68
06/10/2019,22:11:50.730,$GPGGA,221149,4437.5831,N,12402.9431,W,2,07,01.4,20.7,M,-22.1,M,09.0,0302*62
06/10/2019,22:11:51.467,$GPGGA,221150,4437.5831,N,12402.9431,W,2,07,01.4,20.7,M,-22.1,M,10.0,0302*62
06/10/2019,22:11:52.736,$GPGGA,221151,4437.5831,N,12402.9431,W,2,07,01.4,20.7,M,-22.1,M,11.0,0302*62
06/10/2019,22:11:54.529,$GPGGA,221153,4437.5831,N,12402.9430,W,2,07,01.4,20.7,M,-22.1,M,10.0,0302*60
06/10/2019,22:11:55.639,$GPGGA,221154,4437.5831,N,12402.9430,W,2,07,01.4,20.8,M,-22.1,M,09.0,0302*60
06/10/2019,22:11:56.456,$GPGGA,221155,4437.5830,N,12402.9430,W,2,07,01.4,20.7,M,-22.1,M,10.0,0302*67
06/10/2019,22:11:57.336,$GPGGA,221156,4437.5830,N,12402.9430,W,2,07,01.4,20.7,M,-22.1,M,08.0,0302*6D
06/10/2019,22:11:58.830,$GPGGA,221157,4437.5830,N,12402.9430,W,2,07,01.4,20.7,M,-22.1,M,09.0,0302*6D
06/10/2019,22:11:59.582,$GPGGA,221158,4437.5830,N,12402.9430,W,2,07,01.4,20.7,M,-22.1,M,10.0,0302*6A
06/10/2019,22:12:00.308,$GPGGA,221159,4437.5830,N,12402.9430,W,2,07,01.4,20.7,M,-22.1,M,10.0,0302*6B
06/10/2019,22:12:01.436,$GPGGA,221200,4437.5830,N,12402.9430,W,2,07,01.4,20.7,M,-22.1,M,11.0,0302*65
06/10/2019,22:12:02.529,$GPGGA,221201,4437.5830,N,12402.9430,W,2,07,01.4,20.7,M,-22.1,M,12.0,0302*67
06/10/2019,22:12:03.382,$GPGGA,221202,4437.5830,N,12402.9430,W,2,07,01.4,20.7,M,-22.1,M,09.0,0302*6E
06/10/2019,22:12:04.621,$GPGGA,221203,4437.5830,N,12402.9430,W,2,07,01.4,20.7,M,-22.1,M,10.0,0302*67
06/10/2019,22:12:05.288,$GPGGA,221204,4437.5830,N,12402.9430,W,2,07,01.4,20.7,M,-22.1,M,11.0,0302*61
06/10/2019,22:12:06.829,$GPGGA,221205,4437.5830,N,12402.9430,W,2,07,01.4,20.6,M,-22.1,M,12.0,0302*62
06/10/2019,22:12:07.440,$GPGGA,221206,4437.5830,N,12402.9430,W,2,07,01.4,20.6,M,-22.1,M,13.0,0302*60
06/10/2019,22:12:08.622,$GPGGA,221207,4437.5830,N,12402.9430,W,2,07,01.4,20.6,M,-22.1,M,14.0,0302*66
06/10/2019,22:12:09.387,$GPGGA,221208,4437.5830,N,12402.9430,W,2,07,01.4,20.6,M,-22.1,M,10.0,0302*6D
06/10/2019,22:12:10.692,$GPGGA,221209,4437.5830,N,12402.9430,W,2,07,01.4,20.6,M,-22.1,M,11.0,0302*6D
06/10/2019,22:12:11.588,$GPGGA,221210,4437.5830,N,12402.9430,W,2,07,01.4,20.6,M,-22.1,M,12.0,0302*66
06/10/2019,22:12:12.407,$GPGGA,221211,4437.5830,N,12402.9430,W,2,07,01.4,20.6,M,-22.1,M,10.0,0302*65
06/10/2019,22:12:13.388,$GPGGA,221212,4437.5830,N,12402.9430,W,2,07,01.4,20.6,M,-22.1,M,11.0,0302*67
06/10/2019,22:12:14.695,$GPGGA,221213,4437.5830,N,12402.9430,W,2,07,01.4,20.6,M,-22.1,M,12.0,0302*65
06/10/2019,22:12:15.391,$GPGGA,221214,4437.5830,N,12402.9430,W,2,07,01.4,20.6,M,-22.1,M,10.0,0302*60
06/10/2019,22:12:16.623,$GPGGA,221215,4437.5830,N,12402.9430,W,2,07,01.4,20.6,M,-22.1,M,11.0,0302*60
06/10/2019,22:12:17.288,$GPGGA,221216,4437.5830,N,12402.9430,W,2,07,01.4,20.6,M,-22.1,M,12.0,0302*60
06/10/2019,22:12:18.830,$GPGGA,221217,4437.5830,N,12402.9430,W,2,07,01.4,20.6,M,-22.1,M,13.0,0302*60
06/10/2019,22:12:19.432,$GPGGA,221218,4437.5830,N,12402.9430,W,2,07,01.4,20.6,M,-22.1,M,11.0,0302*6D
06/10/2019,22:12:20.666,$GPGGA,221219,4437.5830,N,12402.9430,W,2,07,01.4,20.6,M,-22.1,M,12.0,0302*6F
06/10/2019,22:12:21.436,$GPGGA,221220,4437.5830,N,12402.9430,W,2,07,01.4,20.6,M,-22.1,M,13.0,0302*64
06/10/2019,22:12:23.529,$GPGGA,221222,4437.5830,N,12402.9430,W,2,07,01.4,20.6,M,-22.1,M,11.0,0302*64
06/10/2019,22:12:24.432,$GPGGA,221223,4437.5830,N,12402.9430,W,2,07,01.4,20.6,M,-22.1,M,12.0,0302*66
06/10/2019,22:12:25.357,$GPGGA,221224,4437.5830,N,12402.9430,W,2,07,01.4,20.6,M,-22.1,M,13.0,0302*60
06/10/2019,22:12:26.603,$GPGGA,221225,4437.5830,N,12402.9430,W,2,07,01.4,20.6,M,-22.1,M,10.0,0302*62
06/10/2019,22:12:27.490,$GPGGA,221226,4437.5830,N,12402.9430,W,2,07,01.4,20.6,M,-22.1,M,11.0,0302*60
06/10/2019,22:12:28.596,$GPGGA,221227,4437.5830,N,12402.9430,W,2,07,01.4,20.6,M,-22.1,M,09.0,0302*68
06/10/2019,22:12:29.307,$GPGGA,221228,4437.5830,N,12402.9430,W,2,07,01.4,20.6,M,-22.1,M,10.0,0302*6F
06/10/2019,22:12:30.737,$GPGGA,221229,4437.5830,N,12402.9430,W,2,07,01.4,20.6,M,-22.1,M,08.0,0302*67
06/10/2019,22:12:31.542,$GPGGA,221230,4437.5830,N,12402.9430,W,2,07,01.4,20.5,M,-22.1,M,09.0,0302*6D
06/10/2019,22:12:32.609,$GPGGA,221231,4437.5830,N,12402.9430,W,2,07,01.4,20.5,M,-22.1,M,10.0,0302*64
06/10/2019,22:12:33.357,$GPGGA,221232,4437.5830,N,12402.9430,W,2,07,01.4,20.5,M,-22.1,M,10.0,0302*67
06/10/2019,22:12:34.602,$GPGGA,221233,4437.5830,N,12402.9430,W,2,07,01.4,20.5,M,-22.1,M,11.0,0302*67
06/10/2019,22:12:35.490,$GPGGA,221234,4437.5830,N,12402.9430,W,2,07,01.4,20.5,M,-22.1,M,12.0,0302*63
06/10/2019,22:12:36.597,$GPGGA,221235,4437.5830,N,12402.9430,W,2,07,01.4,20.5,M,-22.1,M,13.0,0302*63
06/10/2019,22:12:38.621,$GPGGA,221237,4437.5830,N,12402.9430,W,2,07,01.4,20.5,M,-22.1,M,11.0,0302*63
06/10/2019,22:12:39.388,$GPGGA,221238,4437.5830,N,12402.9430,W,2,07,01.4,20.5,M,-22.1,M,12.0,0302*6F
06/10/2019,22:12:40.697,$GPGGA,221239,4437.5830,N,12402.9430,W,2,07,01.4,20.5,M,-22.1,M,13.0,0302*6F
06/10/2019,22:12:41.284,$GPGGA,221240,4437.5830,N,12402.9430,W,2,07,01.4,20.5,M,-22.1,M,11.0,0302*63
06/10/2019,22:12:42.775,$GPGGA,221241,4437.5830,N,12402.9430,W,2,07,01.4,20.5,M,-22.1,M,12.0,0302*61
06/10/2019,22:12:43.453,$GPGGA,221242,4437.5830,N,12402.9430,W,2,07,01.4,20.5,M,-22.1,M,13.0,0302*63
06/10/2019,22:12:44.684,$GPGGA,221243,4437.5830,N,12402.9430,W,2,07,01.4,20.5,M,-22.1,M,10.0,0302*61
06/10/2019,22:12:45.383,$GPGGA,221244,4437.5830,N,12402.9430,W,2,07,01.4,20.5,M,-22.1,M,11.0,0302*67
06/10/2019,22:12:46.409,$GPGGA,221245,4437.5830,N,12402.9430,W,2,07,01.4,20.5,M,-22.1,M,09.0,0302*6F
06/10/2019,22:12:47.597,$GPGGA,221246,4437.5830,N,12402.9430,W,2,07,01.4,20.5,M,-22.1,M,10.0,0302*64
06/10/2019,22:12:48.697,$GPGGA,221247,4437.5830,N,12402.9430,W,2,07,01.4,20.5,M,-22.1,M,11.0,0302*64
06/10/2019,22:12:49.284,$GPGGA,221248,4437.5830,N,12402.9430,W,2,07,01.4,20.5,M,-22.1,M,11.0,0302*6B
06/10/2019,22:12:50.758,$GPGGA,221249,4437.5830,N,12402.9430,W,2,07,01.4,20.5,M,-22.1,M,12.0,0302*69
06/10/2019,22:12:51.400,$GPGGA,221250,4437.5830,N,12402.9430,W,2,07,01.4,20.5,M,-22.1,M,13.0,0302*60
06/10/2019,22:12:52.531,$GPGGA,221251,4437.5830,N,12402.9430,W,2,07,01.4,20.5,M,-22.1,M,09.0,0302*6A
06/10/2019,22:12:53.383,$GPGGA,221252,4437.5830,N,12402.9429,W,2,07,01.4,20.5,M,-22.1,M,10.0,0302*69
06/10/2019,22:12:54.637,$GPGGA,221253,4437.5830,N,12402.9429,W,2,07,01.4,20.5,M,-22.1,M,11.0,0302*69
06/10/2019,22:12:55.389,$GPGGA,221254,4437.5830,N,12402.9429,W,2,07,01.4,20.5,M,-22.1,M,09.0,0302*67
06/10/2019,22:12:56.697,$GPGGA,221255,4437.5830,N,12402.9429,W,2,07,01.4,20.5,M,-22.1,M,10.0,0302*6E
06/10/2019,22:12:57.283,$GPGGA,221256,4437.5830,N,12402.9429,W,2,07,01.4,20.5,M,-22.1,M,11.0,0302*6C
06/10/2019,22:12:58.758,$GPGGA,221257,4437.5830,N,12402.9429,W,2,07,01.4,20.4,M,-22.1,M,09.0,0302*65
06/10/2019,22:12:59.400,$GPGGA,221258,4437.5830,N,12402.9429,W,2,07,01.4,20.4,M,-22.1,M,10.0,0302*62
06/10/2019,22:13:00.532,$GPGGA,221259,4437.5830,N,12402.9429,W,2,07,01.4,20.4,M,-22.1,M,11.0,0302*62
06/10/2019,22:13:02.654,$GPGGA,221301,4437.5830,N,12402.9429,W,2,07,01.4,20.4,M,-22.1,M,10.0,0302*6F
06/10/2019,22:13:03.461,$GPGGA,221302,4437.5830,N,12402.9429,W,2,07,01.4,20.4,M,-22.1,M,11.0,0302*6D
06/10/2019,22:13:04.652,$GPGGA,221303,4437.5830,N,12402.9429,W,2,07,01.4,20.4,M,-22.1,M,12.0,0302*6F
06/10/2019,22:13:06.753,$GPGGA,221305,4437.5831,N,12402.9429,W,2,07,01.4,20.4,M,-22.1,M,11.0,0302*6B
06/10/2019,22:13:07.436,$GPGGA,221306,4437.5831,N,12402.9429,W,2,07,01.4,20.4,M,-22.1,M,09.0,0302*61
06/10/2019,22:13:08.861,$GPGGA,221307,4437.5830,N,12402.9429,W,2,07,01.4,20.4,M,-22.1,M,10.0,0302*69
06/10/2019,22:13:09.652,$GPGGA,221308,4437.5830,N,12402.9429,W,2,07,01.4,20.4,M,-22.1,M,11.0,0302*67
06/10/2019,22:13:10.534,$GPGGA,221309,4437.5830,N,12402.9429,W,2,07,01.4,20.4,M,-22.1,M,09.0,0302*6F
06/10/2019,22:13:11.387,$GPGGA,221310,4437.5830,N,12402.9429,W,2,07,01.4,20.4,M,-22.1,M,10.0,0302*6F
06/10/2019,22:13:12.645,$GPGGA,221311,4437.5830,N,12402.9429,W,2,07,01.4,20.4,M,-22.1,M,11.0,0302*6F
06/10/2019,22:13:13.392,$GPGGA,221312,4437.5830,N,12402.9429,W,2,07,01.4,20.4,M,-22.1,M,11.0,0302*6C
06/10/2019,22:13:14.700,$GPGGA,221313,4437.5831,N,12402.9429,W,2,07,01.4,20.4,M,-22.1,M,12.0,0302*6F
06/10/2019,22:13:15.396,$GPGGA,221314,4437.5831,N,12402.9429,W,2,07,01.4,20.4,M,-22.1,M,13.0,0302*69
06/10/2019,22:13:16.413,$GPGGA,221315,4437.5831,N,12402.9428,W,2,07,01.4,20.4,M,-22.1,M,09.0,0302*62
06/10/2019,22:13:17.393,$GPGGA,221316,4437.5831,N,12402.9428,W,2,07,01.4,20.4,M,-22.1,M,10.0,0302*69
06/10/2019,22:13:18.485,$GPGGA,221317,4437.5831,N,12402.9428,W,2,07,01.4,20.4,M,-22.1,M,11.0,0302*69
06/10/2019,22:13:19.387,$GPGGA,221318,4437.5831,N,12402.9428,W,2,07,01.4,20.4,M,-22.1,M,09.0,0302*6F
06/10/2019,22:13:20.615,$GPGGA,221319,4437.5830,N,12402.9428,W,2,07,01.4,20.4,M,-22.1,M,10.0,0302*67
06/10/2019,22:13:21.392,$GPGGA,221320,4437.5830,N,12402.9428,W,2,07,01.4,20.4,M,-22.1,M,11.0,0302*6C
06/10/2019,22:13:22.700,$GPGGA,221321,4437.5831,N,12402.9428,W,2,07,01.4,20.4,M,-22.1,M,12.0,0302*6F
06/10/2019,22:13:23.396,$GPGGA,221322,4437.5831,N,12402.9428,W,2,07,01.4,20.4,M,-22.1,M,10.0,0302*6E
06/10/2019,22:13:24.412,$GPGGA,221323,4437.5831,N,12402.9428,W,2,07,01.4,20.4,M,-22.1,M,11.0,0302*6E
06/10/2019,22:13:25.392,$GPGGA,221324,4437.5831,N,12402.9428,W,2,07,01.4,20.4,M,-22.1,M,12.0,0302*6A
06/10/2019,22:13:26.700,$GPGGA,221325,4437.5831,N,12402.9428,W,2,07,01.4,20.4,M,-22.1,M,10.0,0302*69
06/10/2019,22:13:27.397,$GPGGA,221326,4437.5831,N,12402.9428,W,2,07,01.4,20.4,M,-22.1,M,11.0,0302*6B
06/10/2019,22:13:28.413,$GPGGA,221327,4437.5831,N,12402.9428,W,2,07,01.4,20.4,M,-22.1,M,09.0,0302*63
06/10/2019,22:13:29.394,$GPGGA,221328,4437.5831,N,12402.9428,W,2,07,01.4,20.4,M,-22.1,M,10.0,0302*64
06/10/2019,22:13:30.703,$GPGGA,221329,4437.5831,N,12402.9428,W,2,07,01.4,20.4,M,-22.1,M,08.0,0302*6C
06/10/2019,22:13:32.602,$GPGGA,221331,4437.5831,N,12402.9428,W,2,07,01.4,20.4,M,-22.1,M,10.0,0302*6C
06/10/2019,22:13:33.622,$GPGGA,221332,4437.5831,N,12402.9428,W,2,07,01.4,20.4,M,-22.1,M,10.0,0302*6F
06/10/2019,22:13:34.393,$GPGGA,221333,4437.5831,N,12402.9428,W,2,07,01.4,20.4,M,-22.1,M,11.0,0302*6F
06/10/2019,22:13:35.688,$GPGGA,221334,4437.5831,N,12402.9428,W,2,07,01.4,20.4,M,-22.1,M,12.0,0302*6B
06/10/2019,22:13:36.589,$GPGGA,221335,4437.5831,N,12402.9428,W,2,07,01.4,20.4,M,-22.1,M,09.0,0302*60
06/10/2019,22:13:37.413,$GPGGA,221336,4437.5831,N,12402.9428,W,2,07,01.4,20.4,M,-22.1,M,10.0,0302*6B
06/10/2019,22:13:38.393,$GPGGA,221337,4437.5831,N,12402.9428,W,2,07,01.4,20.4,M,-22.1,M,11.0,0302*6B
06/10/2019,22:13:39.487,$GPGGA,221338,4437.5831,N,12402.9428,W,2,07,01.4,20.4,M,-22.1,M,09.0,0302*6D
06/10/2019,22:13:40.388,$GPGGA,221339,4437.5831,N,12402.9429,W,2,07,01.4,20.5,M,-22.1,M,10.0,0302*64
06/10/2019,22:13:41.413,$GPGGA,221340,4437.5831,N,12402.9429,W,2,07,01.4,20.5,M,-22.1,M,11.0,0302*6B
06/10/2019,22:13:42.616,$GPGGA,221341,4437.5831,N,12402.9428,W,2,07,01.4,20.4,M,-22.1,M,09.0,0302*63
06/10/2019,22:13:43.836,$GPGGA,221342,4437.5831,N,12402.9428,W,2,07,01.4,20.4,M,-22.1,M,10.0,0302*68
06/10/2019,22:13:45.642,$GPGGA,221344,4437.5831,N,12402.9428,W,2,07,01.4,20.4,M,-22.1,M,12.0,0302*6C
06/10/2019,22:13:47.463,$GPGGA,221346,4437.5831,N,12402.9428,W,2,07,01.4,20.4,M,-22.1,M,14.0,0302*68
06/10/2019,22:13:48.442,$GPGGA,221347,4437.5831,N,12402.9428,W,2,07,01.4,20.5,M,-22.1,M,10.0,0302*6C
06/10/2019,22:13:49.435,$GPGGA,221348,4437.5831,N,12402.9428,W,2,07,01.4,20.5,M,-22.1,M,11.0,0302*62
06/10/2019,22:13:50.649,$GPGGA,221349,4437.5831,N,12402.9428,W,2,07,01.4,20.5,M,-22.1,M,12.0,0302*60
06/10/2019,22:13:51.463,$GPGGA,221350,4437.5831,N,12402.9428,W,2,07,01.4,20.4,M,-22.1,M,10.0,0302*6B
06/10/2019,22:13:52.342,$GPGGA,221351,4437.5831,N,12402.9428,W,2,07,01.4,20.5,M,-22.1,M,11.0,0302*6A
06/10/2019,22:13:53.536,$GPGGA,221352,4437.5831,N,12402.9428,W,2,07,01.4,20.4,M,-22.1,M,12.0,0302*6B
06/10/2019,22:13:54.438,$GPGGA,221353,4437.5831,N,12402.9428,W,2,07,01.4,20.4,M,-22.1,M,09.0,0302*60
06/10/2019,22:13:55.314,$GPGGA,221354,4437.5831,N,12402.9428,W,2,07,01.4,20.4,M,-22.1,M,10.0,0302*6F
06/10/2019,22:13:56.657,$GPGGA,221355,4437.5831,N,12402.9428,W,2,07,01.4,20.4,M,-22.1,M,08.0,0302*67
06/10/2019,22:13:57.536,$GPGGA,221356,4437.5831,N,12402.9428,W,2,07,01.4,20.4,M,-22.1,M,09.0,0302*65
06/10/2019,22:13:58.438,$GPGGA,221357,4437.5831,N,12402.9428,W,2,07,01.4,20.4,M,-22.1,M,10.0,0302*6C
06/10/2019,22:13:59.673,$GPGGA,221358,4437.5831,N,12402.9428,W,2,07,01.4,20.4,M,-22.1,M,11.0,0302*62
06/10/2019,22:14:00.394,$GPGGA,221359,4437.5831,N,12402.9428,W,2,07,01.4,20.4,M,-22.1,M,08.0,0302*6B
06/10/2019,22:14:01.487,$GPGGA,221400,4437.5831,N,12402.9428,W,2,07,01.4,20.4,M,-22.1,M,09.0,0302*61
06/10/2019,22:14:02.615,$GPGGA,221401,4437.5831,N,12402.9428,W,2,07,01.4,20.4,M,-22.1,M,10.0,0302*68
06/10/2019,22:14:03.363,$GPGGA,221402,4437.5831,N,12402.9428,W,2,07,01.4,20.4,M,-22.1,M,11.0,0302*6A
06/10/2019,22:14:04.606,$GPGGA,221403,4437.5831,N,12402.9428,W,2,07,01.4,20.4,M,-22.1,M,12.0,0302*68
06/10/2019,22:14:05.387,$GPGGA,221404,4437.5831,N,12402.9428,W,2,07,01.4,20.4,M,-22.1,M,13.0,0302*6E
06/10/2019,22:14:06.667,$GPGGA,221405,4437.5831,N,12402.9428,W,2,07,01.4,20.4,M,-22.1,M,10.0,0302*6C
06/10/2019,22:14:07.364,$GPGGA,221406,4437.5832,N,12402.9428,W,2,07,01.4,20.4,M,-22.1,M,11.0,0302*6D
06/10/2019,22:14:08.602,$GPGGA,221407,4437.5832,N,12402.9428,W,2,07,01.4,20.4,M,-22.1,M,08.0,0302*64
06/10/2019,22:14:09.487,$GPGGA,221408,4437.5832,N,12402.9428,W,2,07,01.4,20.4,M,-22.1,M,09.0,0302*6A
06/10/2019,22:14:10.615,$GPGGA,221409,4437.5831,N,12402.9428,W,2,07,01.4,20.4,M,-22.1,M,10.0,0302*60
06/10/2019,22:14:12.629,$GPGGA,221411,4437.5831,N,12402.9428,W,2,07,01.4,20.3,M,-22.1,M,10.0,0302*6E
06/10/2019,22:14:13.594,$GPGGA,221412,4437.5831,N,12402.9428,W,2,07,01.4,20.3,M,-22.1,M,11.0,0302*6C
06/10/2019,22:14:14.702,$GPGGA,221413,4437.5831,N,12402.9429,W,2,07,01.4,20.3,M,-22.1,M,12.0,0302*6F
06/10/2019,22:14:15.589,$GPGGA,221414,4437.5831,N,12402.9429,W,2,07,01.4,20.3,M,-22.1,M,12.0,0302*68
06/10/2019,22:14:16.618,$GPGGA,221415,4437.5831,N,12402.9429,W,2,07,01.4,20.3,M,-22.1,M,13.0,0302*68
06/10/2019,22:14:17.395,$GPGGA,221416,4437.5831,N,12402.9429,W,2,07,01.4,20.3,M,-22.1,M,10.0,0302*68
06/10/2019,22:14:18.719,$GPGGA,221417,4437.5831,N,12402.9429,W,2,07,01.4,20.2,M,-22.1,M,11.0,0302*69
06/10/2019,22:14:19.390,$GPGGA,221418,4437.5831,N,12402.9429,W,2,07,01.4,20.2,M,-22.1,M,08.0,0302*6E
06/10/2019,22:14:20.617,$GPGGA,221419,4437.5831,N,12402.9429,W,2,07,01.4,20.2,M,-22.1,M,09.0,0302*6E
06/10/2019,22:14:21.395,$GPGGA,221420,4437.5831,N,12402.9429,W,2,07,01.4,20.2,M,-22.1,M,10.0,0302*6C
06/10/2019,22:14:22.701,$GPGGA,221421,4437.5831,N,12402.9429,W,2,07,01.4,20.2,M,-22.1,M,10.0,0302*6D
06/10/2019,22:14:23.438,$GPGGA,221422,4437.5831,N,12402.9429,W,2,07,01.4,20.2,M,-22.1,M,11.0,0302*6F
06/10/2019,22:14:24.674,$GPGGA,221423,4437.5831,N,12402.9429,W,2,07,01.4,20.2,M,-22.1,M,12.0,0302*6D
06/10/2019,22:14:25.444,$GPGGA,221424,4437.5831,N,12402.9429,W,2,07,01.4,20.2,M,-22.1,M,10.0,0302*68
06/10/2019,22:14:26.537,$GPGGA,221425,4437.5831,N,12402.9429,W,2,07,01.4,20.2,M,-22.1,M,11.0,0302*68
06/10/2019,22:14:27.389,$GPGGA,221426,4437.5831,N,12402.9429,W,2,07,01.4,20.1,M,-22.1,M,09.0,0302*61
06/10/2019,22:14:28.617,$GPGGA,221427,4437.5831,N,12402.9429,W,2,07,01.4,20.1,M,-22.1,M,10.0,0302*68
06/10/2019,22:14:29.395,$GPGGA,221428,4437.5831,N,12402.9429,W,2,07,01.4,20.1,M,-22.1,M,11.0,0302*66
06/10/2019,22:14:30.710,$GPGGA,221429,4437.5831,N,12402.9429,W,2,07,01.4,20.1,M,-22.1,M,11.0,0302*67
06/10/2019,22:14:31.390,$GPGGA,221430,4437.5831,N,12402.9429,W,2,07,01.4,20.1,M,-22.1,M,12.0,0302*6C
06/10/2019,22:14:32.631,$GPGGA,221431,4437.5831,N,12402.9429,W,2,07,01.4,20.1,M,-22.1,M,13.0,0302*6C
06/10/2019,22:14:33.604,$GPGGA,221432,4437.5831,N,12402.9429,W,2,07,01.4,20.1,M,-22.1,M,14.0,0302*68
06/10/2019,22:14:35.688,$GPGGA,221434,4437.5831,N,12402.9429,W,2,07,01.4,20.1,M,-22.1,M,11.0,0302*6B
06/10/2019,22:14:36.598,$GPGGA,221435,4437.5831,N,12402.9429,W,2,07,01.4,20.0,M,-22.1,M,12.0,0302*68
06/10/2019,22:14:37.315,$GPGGA,221436,4437.5831,N,12402.9429,W,2,07,01.4,20.0,M,-22.1,M,10.0,0302*69
06/10/2019,22:14:38.744,$GPGGA,221437,4437.5831,N,12402.9429,W,2,07,01.4,20.0,M,-22.1,M,11.0,0302*69
06/10/2019,22:14:39.748,$GPGGA,221438,4437.5831,N,12402.9429,W,2,07,01.4,20.0,M,-22.1,M,12.0,0302*65
06/10/2019,22:14:40.339,$GPGGA,221439,4437.5831,N,12402.9429,W,2,07,01.4,20.0,M,-22.1,M,13.0,0302*65
06/10/2019,22:14:41.675,$GPGGA,221440,4437.5831,N,12402.9429,W,2,07,01.4,20.0,M,-22.1,M,14.0,0302*6C
06/10/2019,22:14:42.444,$GPGGA,221441,4437.5831,N,12402.9429,W,2,07,01.4,20.0,M,-22.1,M,15.0,0302*6C
06/10/2019,22:14:43.699,$GPGGA,221442,4437.5831,N,12402.9429,W,2,07,01.4,20.0,M,-22.1,M,10.0,0302*6A
06/10/2019,22:14:44.390,$GPGGA,221443,4437.5831,N,12402.9429,W,2,07,01.4,20.0,M,-22.1,M,11.0,0302*6A
06/10/2019,22:14:45.416,$GPGGA,221444,4437.5831,N,12402.9429,W,2,07,01.4,20.0,M,-22.1,M,12.0,0302*6E
06/10/2019,22:14:46.624,$GPGGA,221445,4437.5831,N,12402.9429,W,2,07,01.4,20.0,M,-22.1,M,09.0,0302*65
06/10/2019,22:14:47.489,$GPGGA,221446,4437.5831,N,12402.9429,W,2,07,01.4,20.0,M,-22.1,M,10.0,0302*6E
06/10/2019,22:14:48.599,$GPGGA,221447,4437.5831,N,12402.9429,W,2,07,01.4,20.0,M,-22.1,M,11.0,0302*6E
06/10/2019,22:14:50.635,$GPGGA,221449,4437.5831,N,12402.9429,W,2,07,01.4,20.0,M,-22.1,M,10.0,0302*61
06/10/2019,22:14:51.396,$GPGGA,221450,4437.5831,N,12402.9429,W,2,07,01.4,20.0,M,-22.1,M,08.0,0302*60
06/10/2019,22:14:52.703,$GPGGA,221451,4437.5831,N,12402.9429,W,2,07,01.4,20.0,M,-22.1,M,09.0,0302*60
06/10/2019,22:14:53.389,$GPGGA,221452,4437.5831,N,12402.9429,W,2,07,01.4,20.0,M,-22.1,M,08.0,0302*62
06/10/2019,22:14:54.635,$GPGGA,221453,4437.5830,N,12402.9429,W,2,07,01.4,20.0,M,-22.1,M,09.0,0302*63
06/10/2019,22:14:55.396,$GPGGA,221454,4437.5830,N,12402.9429,W,2,07,01.4,20.0,M,-22.1,M,10.0,0302*6C
06/10/2019,22:14:57.700,$GPGGA,221456,4437.5831,N,12402.9429,W,2,07,01.4,20.0,M,-22.1,M,11.0,0302*6E
06/10/2019,22:14:58.604,$GPGGA,221457,4437.5831,N,12402.9429,W,2,07,01.4,20.0,M,-22.1,M,12.0,0302*6C
06/10/2019,22:14:59.626,$GPGGA,221458,4437.5831,N,12402.9429,W,2,07,01.4,20.0,M,-22.1,M,10.0,0302*61
06/10/2019,22:15:00.601,$GPGGA,221459,4437.5831,N,12402.9429,W,2,07,01.4,20.0,M,-22.1,M,11.0,0302*61
06/10/2019,22:15:01.389,$GPGGA,221500,4437.5831,N,12402.9429,W,2,07,01.4,20.0,M,-22.1,M,12.0,0302*6F
06/10/2019,22:15:02.753,$GPGGA,221501,4437.5830,N,12402.9429,W,2,07,01.4,20.0,M,-22.1,M,09.0,0302*65
06/10/2019,22:15:03.666,$GPGGA,221502,4437.5830,N,12402.9429,W,2,07,01.4,20.0,M,-22.1,M,10.0,0302*6E
06/10/2019,22:15:04.445,$GPGGA,221503,4437.5830,N,12402.9429,W,2,07,01.4,20.0,M,-22.1,M,11.0,0302*6E
06/10/2019,22:15:05.538,$GPGGA,221504,4437.5830,N,12402.9429,W,2,07,01.4,20.0,M,-22.1,M,10.0,0302*68
06/10/2019,22:15:06.439,$GPGGA,221505,4437.5830,N,12402.9429,W,2,07,01.4,19.9,M,-22.1,M,11.0,0302*6B
06/10/2019,22:15:07.417,$GPGGA,221506,4437.5831,N,12402.9429,W,2,07,01.4,19.9,M,-22.1,M,12.0,0302*6A
06/10/2019,22:15:08.599,$GPGGA,221507,4437.5831,N,12402.9429,W,2,07,01.4,19.9,M,-22.1,M,13.0,0302*6A
06/10/2019,22:15:09.489,$GPGGA,221508,4437.5831,N,12402.9428,W,2,07,01.4,19.9,M,-22.1,M,11.0,0302*66
06/10/2019,22:15:10.604,$GPGGA,221509,4437.5831,N,12402.9428,W,2,07,01.4,19.9,M,-22.1,M,12.0,0302*64
06/10/2019,22:15:11.416,$GPGGA,221510,4437.5831,N,12402.9428,W,2,07,01.4,19.9,M,-22.1,M,13.0,0302*6D
06/10/2019,22:15:12.625,$GPGGA,221511,4437.5831,N,12402.9428,W,2,07,01.4,19.9,M,-22.1,M,10.0,0302*6F
06/10/2019,22:15:13.389,$GPGGA,221512,4437.5831,N,12402.9428,W,2,07,01.4,19.9,M,-22.1,M,11.0,0302*6D
06/10/2019,22:15:14.749,$GPGGA,221513,4437.5831,N,12402.9428,W,2,07,01.4,19.9,M,-22.1,M,12.0,0302*6F
06/10/2019,22:15:16.678,$GPGGA,221515,4437.5831,N,12402.9428,W,2,07,01.4,19.9,M,-22.1,M,10.0,0302*6B
06/10/2019,22:15:17.446,$GPGGA,221516,4437.5831,N,12402.9428,W,2,07,01.4,19.9,M,-22.1,M,11.0,0302*69
06/10/2019,22:15:18.839,$GPGGA,221517,4437.5831,N,12402.9428,W,2,07,01.4,19.9,M,-22.1,M,09.0,0302*61
06/10/2019,22:15:19.442,$GPGGA,221518,4437.5831,N,12402.9428,W,2,07,01.4,19.9,M,-22.1,M,10.0,0302*66
06/10/2019,22:15:20.467,$GPGGA,221519,4437.5831,N,12402.9427,W,2,07,01.4,19.9,M,-22.1,M,11.0,0302*69
06/10/2019,22:15:21.346,$GPGGA,221520,4437.5831,N,12402.9427,W,2,07,01.4,19.9,M,-22.1,M,09.0,0302*6A
06/10/2019,22:15:22.860,$GPGGA,221521,4437.5831,N,12402.9427,W,2,07,01.4,19.9,M,-22.1,M,10.0,0302*63
06/10/2019,22:15:23.441,$GPGGA,221522,4437.5831,N,12402.9427,W,2,07,01.4,19.9,M,-22.1,M,11.0,0302*61
06/10/2019,22:15:24.678,$GPGGA,221523,4437.5831,N,12402.9427,W,2,07,01.4,19.9,M,-22.1,M,09.0,0302*69
06/10/2019,22:15:25.347,$GPGGA,221524,4437.5831,N,12402.9427,W,2,07,01.4,19.9,M,-22.1,M,10.0,0302*66
06/10/2019,22:15:26.849,$GPGGA,221525,4437.5831,N,12402.9427,W,2,07,01.4,19.9,M,-22.1,M,11.0,0302*66
06/10/2019,22:15:27.453,$GPGGA,221526,4437.5830,N,12402.9427,W,2,07,01.4,19.9,M,-22.1,M,09.0,0302*6D
06/10/2019,22:15:28.676,$GPGGA,221527,4437.5830,N,12402.9427,W,2,07,01.4,19.9,M,-22.1,M,10.0,0302*64
06/10/2019,22:15:29.347,$GPGGA,221528,4437.5830,N,12402.9427,W,2,07,01.4,19.9,M,-22.1,M,11.0,0302*6A
06/10/2019,22:15:30.850,$GPGGA,221529,4437.5830,N,12402.9427,W,2,07,01.4,19.9,M,-22.1,M,09.0,0302*62
06/10/2019,22:15:31.442,$GPGGA,221530,4437.5830,N,12402.9426,W,2,07,01.4,19.9,M,-22.1,M,10.0,0302*63
06/10/2019,22:15:32.891,$GPGGA,221531,4437.5830,N,12402.9426,W,2,07,01.4,19.8,M,-22.1,M,11.0,0302*62
06/10/2019,22:15:33.651,$GPGGA,221532,4437.5830,N,12402.9426,W,2,07,01.4,19.9,M,-22.1,M,09.0,0302*69
06/10/2019,22:15:34.540,$GPGGA,221533,4437.5830,N,12402.9426,W,2,07,01.4,19.8,M,-22.1,M,10.0,0302*61
06/10/2019,22:15:35.341,$GPGGA,221534,4437.5830,N,12402.9426,W,2,07,01.4,19.9,M,-22.1,M,11.0,0302*66
06/10/2019,22:15:36.676,$GPGGA,221535,4437.5830,N,12402.9426,W,2,07,01.4,19.9,M,-22.1,M,09.0,0302*6E
06/10/2019,22:15:37.347,$GPGGA,221536,4437.5830,N,12402.9426,W,2,07,01.4,19.9,M,-22.1,M,10.0,0302*65
06/10/2019,22:15:38.839,$GPGGA,221537,4437.5830,N,12402.9426,W,2,07,01.4,19.9,M,-22.1,M,11.0,0302*65
06/10/2019,22:15:39.650,$GPGGA,221538,4437.5830,N,12402.9426,W,2,07,01.4,19.9,M,-22.1,M,09.0,0302*63
06/10/2019,22:15:40.366,$GPGGA,221539,4437.5830,N,12402.9426,W,2,07,01.4,19.9,M,-22.1,M,10.0,0302*6A
06/10/2019,22:15:41.397,$GPGGA,221540,4437.5830,N,12402.9426,W,2,07,01.4,19.9,M,-22.1,M,11.0,0302*65
06/10/2019,22:15:42.723,$GPGGA,221541,4437.5830,N,12402.9426,W,2,07,01.4,19.9,M,-22.1,M,09.0,0302*6D
06/10/2019,22:15:43.441,$GPGGA,221542,4437.5830,N,12402.9426,W,2,07,01.4,19.9,M,-22.1,M,10.0,0302*66
06/10/2019,22:15:44.467,$GPGGA,221543,4437.5830,N,12402.9426,W,2,07,01.4,19.9,M,-22.1,M,11.0,0302*66
06/10/2019,22:15:45.347,$GPGGA,221544,4437.5830,N,12402.9426,W,2,07,01.4,19.9,M,-22.1,M,09.0,0302*68
06/10/2019,22:15:46.850,$GPGGA,221545,4437.5830,N,12402.9426,W,2,07,01.4,19.9,M,-22.1,M,10.0,0302*61
06/10/2019,22:15:47.442,$GPGGA,221546,4437.5830,N,12402.9426,W,2,07,01.4,19.9,M,-22.1,M,11.0,0302*63
06/10/2019,22:15:48.367,$GPGGA,221547,4437.5830,N,12402.9426,W,2,07,01.4,19.9,M,-22.1,M,09.0,0302*6B
06/10/2019,22:15:49.410,$GPGGA,221548,4437.5830,N,12402.9426,W,2,07,01.4,19.9,M,-22.1,M,10.0,0302*6C
06/10/2019,22:15:50.490,$GPGGA,221549,4437.5830,N,12402.9426,W,2,07,01.4,19.9,M,-22.1,M,11.0,0302*6C
06/10/2019,22:15:51.392,$GPGGA,221550,4437.5830,N,12402.9426,W,2,07,01.4,19.9,M,-22.1,M,09.0,0302*6D
06/10/2019,22:15:52.418,$GPGGA,221551,4437.5830,N,12402.9426,W,2,07,01.4,19.9,M,-22.1,M,10.0,0302*64
06/10/2019,22:15:53.397,$GPGGA,221552,4437.5830,N,12402.9426,W,2,07,01.4,19.9,M,-22.1,M,11.0,0302*66
06/10/2019,22:15:55.201,$GPGGA,221553,4437.5830,N,12402.9426,W,2,07,01.4,19.9,M,-22.1,M,09.0,0302*6E
06/10/2019,22:15:55.711,$GPGGA,221554,4437.5830,N,12402.9426,W,2,07,01.4,19.9,M,-22.1,M,10.0,0302*61
06/10/2019,22:15:57.418,$GPGGA,221556,4437.5831,N,12402.9426,W,2,07,01.4,19.9,M,-22.1,M,09.0,0302*6A
06/10/2019,22:15:58.398,$GPGGA,221557,4437.5831,N,12402.9426,W,2,07,01.4,19.9,M,-22.1,M,10.0,0302*63
06/10/2019,22:15:59.491,$GPGGA,221558,4437.5831,N,12402.9426,W,2,07,01.4,19.9,M,-22.1,M,11.0,0302*6D
06/10/2019,22:16:00.596,$GPGGA,221559,4437.5830,N,12402.9426,W,2,07,01.4,19.9,M,-22.1,M,12.0,0302*6E
06/10/2019,22:16:01.318,$GPGGA,221600,4437.5830,N,12402.9426,W,2,07,01.4,19.9,M,-22.1,M,10.0,0302*63
06/10/2019,22:16:02.751,$GPGGA,221601,4437.5830,N,12402.9426,W,2,07,01.4,19.9,M,-22.1,M,11.0,0302*63
06/10/2019,22:16:03.502,$GPGGA,221602,4437.5831,N,12402.9426,W,2,07,01.4,19.9,M,-22.1,M,12.0,0302*62
06/10/2019,22:16:04.442,$GPGGA,221603,4437.5831,N,12402.9426,W,2,07,01.4,19.9,M,-22.1,M,10.0,0302*61
06/10/2019,22:16:05.367,$GPGGA,221604,4437.5831,N,12402.9427,W,2,07,01.4,19.9,M,-22.1,M,11.0,0302*66
06/10/2019,22:16:06.635,$GPGGA,221605,4437.5831,N,12402.9426,W,2,07,01.4,19.9,M,-22.1,M,12.0,0302*65
06/10/2019,22:16:08.491,$GPGGA,221607,4437.5830,N,12402.9426,W,2,07,01.4,19.9,M,-22.1,M,11.0,0302*65
06/10/2019,22:16:09.596,$GPGGA,221608,4437.5830,N,12402.9427,W,2,07,01.4,19.9,M,-22.1,M,12.0,0302*68
06/10/2019,22:16:10.419,$GPGGA,221609,4437.5830,N,12402.9427,W,2,07,01.4,19.8,M,-22.1,M,09.0,0302*62
06/10/2019,22:16:11.599,$GPGGA,221610,4437.5830,N,12402.9427,W,2,07,01.4,19.8,M,-22.1,M,10.0,0302*62
06/10/2019,22:16:12.721,$GPGGA,221611,4437.5830,N,12402.9427,W,2,07,01.4,19.8,M,-22.1,M,11.0,0302*62
06/10/2019,22:16:13.394,$GPGGA,221612,4437.5830,N,12402.9427,W,2,07,01.4,19.8,M,-22.1,M,10.0,0302*60
06/10/2019,22:16:14.634,$GPGGA,221613,4437.5830,N,12402.9427,W,2,07,01.4,19.8,M,-22.1,M,11.0,0302*60
06/10/2019,22:16:15.608,$GPGGA,221614,4437.5830,N,12402.9427,W,2,07,01.4,19.8,M,-22.1,M,12.0,0302*64
06/10/2019,22:16:16.491,$GPGGA,221615,4437.5830,N,12402.9427,W,2,07,01.4,19.8,M,-22.1,M,09.0,0302*6F
06/10/2019,22:16:17.393,$GPGGA,221616,4437.5830,N,12402.9427,W,2,07,01.4,19.8,M,-22.1,M,10.0,0302*64
06/10/2019,22:16:18.632,$GPGGA,221617,4437.5830,N,12402.9427,W,2,07,01.4,19.8,M,-22.1,M,09.0,0302*6D
06/10/2019,22:16:19.598,$GPGGA,221618,4437.5830,N,12402.9427,W,2,07,01.4,19.8,M,-22.1,M,10.0,0302*6A
06/10/2019,22:16:20.694,$GPGGA,221619,4437.5830,N,12402.9427,W,2,07,01.4,19.8,M,-22.1,M,11.0,0302*6A
06/10/2019,22:16:21.393,$GPGGA,221620,4437.5830,N,12402.9427,W,2,07,01.4,19.8,M,-22.1,M,12.0,0302*63
06/10/2019,22:16:22.634,$GPGGA,221621,4437.5830,N,12402.9427,W,2,07,01.4,19.8,M,-22.1,M,12.0,0302*62
06/10/2019,22:16:23.408,$GPGGA,221622,4437.5830,N,12402.9427,W,2,07,01.4,19.8,M,-22.1,M,13.0,0302*60
06/10/2019,22:16:24.492,$GPGGA,221623,4437.5830,N,12402.9427,W,2,07,01.4,19.8,M,-22.1,M,14.0,0302*66
06/10/2019,22:16:25.393,$GPGGA,221624,4437.5830,N,12402.9427,W,2,07,01.4,19.9,M,-22.1,M,10.0,0302*64
06/10/2019,22:16:26.632,$GPGGA,221625,4437.5830,N,12402.9427,W,2,07,01.4,19.9,M,-22.1,M,11.0,0302*64
06/10/2019,22:16:27.621,$GPGGA,221626,4437.5830,N,12402.9427,W,2,07,01.4,19.9,M,-22.1,M,12.0,0302*64
06/10/2019,22:16:28.706,$GPGGA,221627,4437.5830,N,12402.9427,W,2,07,01.4,19.9,M,-22.1,M,10.0,0302*67
06/10/2019,22:16:29.294,$GPGGA,221628,4437.5830,N,12402.9427,W,2,07,01.4,19.9,M,-22.1,M,11.0,0302*69
06/10/2019,22:16:30.768,$GPGGA,221629,4437.5830,N,12402.9427,W,2,07,01.4,19.9,M,-22.1,M,12.0,0302*6B
06/10/2019,22:16:32.633,$GPGGA,221631,4437.5830,N,12402.9427,W,2,07,01.4,19.9,M,-22.1,M,10.0,0302*60
06/10/2019,22:16:33.492,$GPGGA,221632,4437.5830,N,12402.9427,W,2,07,01.4,19.9,M,-22.1,M,11.0,0302*62
06/10/2019,22:16:34.702,$GPGGA,221633,4437.5830,N,12402.9426,W,2,07,01.4,19.9,M,-22.1,M,12.0,0302*61
06/10/2019,22:16:35.629,$GPGGA,221634,4437.5830,N,12402.9426,W,2,07,01.4,19.9,M,-22.1,M,13.0,0302*67
06/10/2019,22:16:36.407,$GPGGA,221635,4437.5830,N,12402.9426,W,2,07,01.4,19.9,M,-22.1,M,14.0,0302*61
06/10/2019,22:16:37.493,$GPGGA,221636,4437.5830,N,12402.9426,W,2,07,01.4,19.9,M,-22.1,M,13.0,0302*65
06/10/2019,22:16:38.393,$GPGGA,221637,4437.5830,N,12402.9426,W,2,07,01.4,19.9,M,-22.1,M,14.0,0302*63
06/10/2019,22:16:39.419,$GPGGA,221638,4437.5830,N,12402.9427,W,2,07,01.4,19.9,M,-22.1,M,15.0,0302*6C
06/10/2019,22:16:40.613,$GPGGA,221639,4437.5830,N,12402.9427,W,2,07,01.4,19.9,M,-22.1,M,16.0,0302*6E
06/10/2019,22:16:41.392,$GPGGA,221640,4437.5830,N,12402.9427,W,2,07,01.4,19.9,M,-22.1,M,13.0,0302*65
06/10/2019,22:16:42.752,$GPGGA,221641,4437.5830,N,12402.9427,W,2,07,01.4,19.9,M,-22.1,M,14.0,0302*63
06/10/2019,22:16:43.483,$GPGGA,221642,4437.5830,N,12402.9427,W,2,07,01.4,19.9,M,-22.1,M,09.0,0302*6C
06/10/2019,22:16:44.601,$GPGGA,221643,4437.5830,N,12402.9427,W,2,07,01.4,19.9,M,-22.1,M,10.0,0302*65
06/10/2019,22:16:45.492,$GPGGA,221644,4437.5830,N,12402.9427,W,2,07,01.4,19.9,M,-22.1,M,08.0,0302*6B
06/10/2019,22:16:46.649,$GPGGA,221645,4437.5830,N,12402.9427,W,2,07,01.4,19.9,M,-22.1,M,09.0,0302*6B
06/10/2019,22:16:48.681,$GPGGA,221647,4437.5830,N,12402.9427,W,2,07,01.4,19.9,M,-22.1,M,10.0,0302*61
06/10/2019,22:16:49.350,$GPGGA,221648,4437.5830,N,12402.9427,W,2,07,01.4,19.9,M,-22.1,M,11.0,0302*6F
06/10/2019,22:16:50.842,$GPGGA,221649,4437.5830,N,12402.9427,W,2,07,01.4,19.9,M,-22.1,M,12.0,0302*6D
06/10/2019,22:16:51.594,$GPGGA,221650,4437.5830,N,12402.9427,W,2,07,01.4,19.9,M,-22.1,M,09.0,0302*6F
06/10/2019,22:16:52.634,$GPGGA,221651,4437.5829,N,12402.9427,W,2,07,01.4,19.9,M,-22.1,M,10.0,0302*6E
06/10/2019,22:16:53.400,$GPGGA,221652,4437.5829,N,12402.9426,W,2,07,01.4,19.9,M,-22.1,M,11.0,0302*6D
06/10/2019,22:16:54.720,$GPGGA,221653,4437.5829,N,12402.9426,W,2,07,01.4,19.9,M,-22.1,M,09.0,0302*65
06/10/2019,22:16:55.295,$GPGGA,221654,4437.5829,N,12402.9426,W,2,07,01.4,19.9,M,-22.1,M,10.0,0302*6A
06/10/2019,22:16:56.470,$GPGGA,221655,4437.5829,N,12402.9426,W,2,07,01.4,19.9,M,-22.1,M,11.0,0302*6A
06/10/2019,22:16:57.451,$GPGGA,221656,4437.5829,N,12402.9426,W,2,07,01.4,19.9,M,-22.1,M,12.0,0302*6A
06/10/2019,22:16:59.493,$GPGGA,221658,4437.5829,N,12402.9426,W,2,07,01.4,19.9,M,-22.1,M,14.0,0302*62
06/10/2019,22:17:00.604,$GPGGA,221659,4437.5829,N,12402.9426,W,2,07,01.4,19.9,M,-22.1,M,10.0,0302*67
06/10/2019,22:17:01.320,$GPGGA,221700,4437.5829,N,12402.9426,W,2,07,01.4,19.9,M,-22.1,M,11.0,0302*6B
06/10/2019,22:17:02.451,$GPGGA,221701,4437.5829,N,12402.9426,W,2,07,01.4,19.9,M,-22.1,M,08.0,0302*62
06/10/2019,22:17:03.555,$GPGGA,221702,4437.5829,N,12402.9426,W,2,07,01.4,19.9,M,-22.1,M,09.0,0302*60
06/10/2019,22:17:04.445,$GPGGA,221703,4437.5829,N,12402.9426,W,2,07,01.4,19.9,M,-22.1,M,10.0,0302*69
06/10/2019,22:17:05.471,$GPGGA,221704,4437.5829,N,12402.9426,W,2,07,01.4,19.9,M,-22.1,M,11.0,0302*6F
06/10/2019,22:17:06.451,$GPGGA,221705,4437.5829,N,12402.9426,W,2,07,01.4,19.9,M,-22.1,M,08.0,0302*66
06/10/2019,22:17:07.493,$GPGGA,221706,4437.5829,N,12402.9426,W,2,07,01.4,19.9,M,-22.1,M,09.0,0302*64
06/10/2019,22:17:08.607,$GPGGA,221707,4437.5829,N,12402.9426,W,2,07,01.4,19.9,M,-22.1,M,10.0,0302*6D
06/10/2019,22:17:09.320,$GPGGA,221708,4437.5829,N,12402.9426,W,2,07,01.4,19.9,M,-22.1,M,11.0,0302*63
06/10/2019,22:17:10.750,$GPGGA,221709,4437.5829,N,12402.9426,W,2,07,01.4,19.9,M,-22.1,M,12.0,0302*61
06/10/2019,22:17:11.753,$GPGGA,221710,4437.5829,N,12402.9426,W,2,07,01.4,19.9,M,-22.1,M,09.0,0302*63
06/10/2019,22:17:12.444,$GPGGA,221711,4437.5829,N,12402.9426,W,2,07,01.4,19.9,M,-22.1,M,10.0,0302*6A
06/10/2019,22:17:13.420,$GPGGA,221712,4437.5829,N,12402.9426,W,2,07,01.4,19.9,M,-22.1,M,08.0,0302*60
06/10/2019,22:17:14.613,$GPGGA,221713,4437.5829,N,12402.9426,W,2,07,01.4,19.8,M,-22.1,M,09.0,0302*61
06/10/2019,22:17:15.704,$GPGGA,221714,4437.5829,N,12402.9426,W,2,07,01.4,19.8,M,-22.1,M,10.0,0302*6E
06/10/2019,22:17:16.395,$GPGGA,221715,4437.5829,N,12402.9426,W,2,07,01.4,19.8,M,-22.1,M,10.0,0302*6F
06/10/2019,22:17:18.635,$GPGGA,221717,4437.5828,N,12402.9426,W,2,07,01.4,19.8,M,-22.1,M,12.0,0302*6E
06/10/2019,22:17:20.400,$GPGGA,221719,4437.5828,N,12402.9425,W,2,07,01.4,19.8,M,-22.1,M,11.0,0302*60
06/10/2019,22:17:21.493,$GPGGA,221720,4437.5828,N,12402.9426,W,2,07,01.4,19.8,M,-22.1,M,09.0,0302*60
06/10/2019,22:17:22.608,$GPGGA,221721,4437.5828,N,12402.9426,W,2,07,01.4,19.8,M,-22.1,M,10.0,0302*69
06/10/2019,22:17:23.420,$GPGGA,221722,4437.5828,N,12402.9426,W,2,07,01.4,19.8,M,-22.1,M,11.0,0302*6B
06/10/2019,22:17:24.606,$GPGGA,221723,4437.5828,N,12402.9426,W,2,07,01.4,19.8,M,-22.1,M,12.0,0302*69
06/10/2019,22:17:25.494,$GPGGA,221724,4437.5829,N,12402.9426,W,2,07,01.4,19.8,M,-22.1,M,12.0,0302*6F
06/10/2019,22:17:26.396,$GPGGA,221725,4437.5828,N,12402.9426,W,2,07,01.4,19.8,M,-22.1,M,13.0,0302*6E
06/10/2019,22:17:27.649,$GPGGA,221726,4437.5828,N,12402.9425,W,2,07,01.4,19.7,M,-22.1,M,14.0,0302*66
06/10/2019,22:17:28.401,$GPGGA,221727,4437.5828,N,12402.9425,W,2,07,01.4,19.7,M,-22.1,M,10.0,0302*63
06/10/2019,22:17:29.394,$GPGGA,221728,4437.5828,N,12402.9425,W,2,07,01.4,19.7,M,-22.1,M,11.0,0302*6D
06/10/2019,22:17:30.747,$GPGGA,221729,4437.5828,N,12402.9425,W,2,07,01.4,19.7,M,-22.1,M,12.0,0302*6F
06/10/2019,22:17:31.681,$GPGGA,221730,4437.5828,N,12402.9425,W,2,07,01.4,19.7,M,-22.1,M,10.0,0302*65
06/10/2019,22:17:33.661,$GPGGA,221732,4437.5828,N,12402.9425,W,2,07,01.4,19.7,M,-22.1,M,08.0,0302*6E
06/10/2019,22:17:34.843,$GPGGA,221733,4437.5828,N,12402.9425,W,2,07,01.4,19.7,M,-22.1,M,09.0,0302*6E
06/10/2019,22:17:36.747,$GPGGA,221735,4437.5828,N,12402.9425,W,2,07,01.4,19.7,M,-22.1,M,09.0,0302*68
06/10/2019,22:17:37.771,$GPGGA,221736,4437.5828,N,12402.9425,W,2,07,01.4,19.7,M,-22.1,M,09.0,0302*6B
06/10/2019,22:17:38.467,$GPGGA,221737,4437.5828,N,12402.9425,W,2,07,01.4,19.7,M,-22.1,M,10.0,0302*62
06/10/2019,22:17:39.943,$GPGGA,221738,4437.5828,N,12402.9425,W,2,07,01.4,19.7,M,-22.1,M,08.0,0302*64
06/10/2019,22:17:40.753,$GPGGA,221739,4437.5828,N,12402.9425,W,2,07,01.4,19.7,M,-22.1,M,09.0,0302*64
06/10/2019,22:17:41.473,$GPGGA,221740,4437.5828,N,12402.9425,W,2,07,01.4,19.7,M,-22.1,M,10.0,0302*62
06/10/2019,22:17:42.453,$GPGGA,221741,4437.5828,N,12402.9425,W,2,07,01.4,19.7,M,-22.1,M,10.0,0302*63
06/10/2019,22:17:44.708,$GPGGA,221743,4437.5828,N,12402.9425,W,2,07,01.4,19.7,M,-22.1,M,12.0,0302*63
06/10/2019,22:17:45.296,$GPGGA,221744,4437.5828,N,12402.9425,W,2,07,01.4,19.7,M,-22.1,M,09.0,0302*6E
06/10/2019,22:17:46.473,$GPGGA,221745,4437.5828,N,12402.9425,W,2,07,01.4,19.7,M,-22.1,M,10.0,0302*67
06/10/2019,22:17:47.361,$GPGGA,221746,4437.5828,N,12402.9425,W,2,07,01.4,19.7,M,-22.1,M,08.0,0302*6D
06/10/2019,22:17:48.753,$GPGGA,221747,4437.5828,N,12402.9425,W,2,07,01.4,19.7,M,-22.1,M,09.0,0302*6D
06/10/2019,22:17:49.447,$GPGGA,221748,4437.5828,N,12402.9425,W,2,07,01.4,19.7,M,-22.1,M,10.0,0302*6A
06/10/2019,22:17:50.473,$GPGGA,221749,4437.5828,N,12402.9426,W,2,07,01.4,19.7,M,-22.1,M,11.0,0302*69
06/10/2019,22:17:51.351,$GPGGA,221750,4437.5828,N,12402.9426,W,2,07,01.4,19.7,M,-22.1,M,08.0,0302*69
06/10/2019,22:17:52.844,$GPGGA,221751,4437.5828,N,12402.9426,W,2,07,01.4,19.7,M,-22.1,M,09.0,0302*69
06/10/2019,22:17:53.655,$GPGGA,221752,4437.5828,N,12402.9426,W,2,07,01.4,19.7,M,-22.1,M,10.0,0302*62
06/10/2019,22:17:55.681,$GPGGA,221754,4437.5828,N,12402.9426,W,2,07,01.4,19.7,M,-22.1,M,08.0,0302*6D
06/10/2019,22:17:56.562,$GPGGA,221755,4437.5828,N,12402.9426,W,2,07,01.4,19.7,M,-22.1,M,09.0,0302*6D
06/10/2019,22:17:57.654,$GPGGA,221756,4437.5828,N,12402.9426,W,2,07,01.4,19.7,M,-22.1,M,09.0,0302*6E
06/10/2019,22:17:58.558,$GPGGA,221757,4437.5828,N,12402.9426,W,2,07,01.4,19.7,M,-22.1,M,10.0,0302*67
06/10/2019,22:17:59.575,$GPGGA,221758,4437.5828,N,12402.9426,W,2,07,01.4,19.7,M,-22.1,M,11.0,0302*69
06/10/2019,22:18:00.562,$GPGGA,221759,4437.5828,N,12402.9426,W,2,07,01.4,19.7,M,-22.1,M,09.0,0302*61
06/10/2019,22:18:01.445,$GPGGA,221800,4437.5828,N,12402.9426,W,2,07,01.4,19.7,M,-22.1,M,10.0,0302*6A
06/10/2019,22:18:02.558,$GPGGA,221801,4437.5828,N,12402.9426,W,2,07,01.4,19.7,M,-22.1,M,11.0,0302*6A
06/10/2019,22:18:03.633,$GPGGA,221802,4437.5828,N,12402.9426,W,2,07,01.4,19.7,M,-22.1,M,11.0,0302*69
06/10/2019,22:18:04.402,$GPGGA,221803,4437.5828,N,12402.9427,W,2,07,01.4,19.7,M,-22.1,M,12.0,0302*6A
06/10/2019,22:18:05.406,$GPGGA,221804,4437.5828,N,12402.9427,W,2,07,01.4,19.7,M,-22.1,M,13.0,0302*6C
06/10/2019,22:18:06.558,$GPGGA,221805,4437.5828,N,12402.9427,W,2,07,01.4,19.7,M,-22.1,M,09.0,0302*66
06/10/2019,22:18:07.582,$GPGGA,221806,4437.5828,N,12402.9427,W,2,07,01.4,19.7,M,-22.1,M,10.0,0302*6D
06/10/2019,22:18:08.563,$GPGGA,221807,4437.5828,N,12402.9427,W,2,07,01.4,19.7,M,-22.1,M,11.0,0302*6D
06/10/2019,22:18:09.649,$GPGGA,221808,4437.5828,N,12402.9427,W,2,07,01.4,19.7,M,-22.1,M,09.0,0302*6B
06/10/2019,22:18:10.558,$GPGGA,221809,4437.5828,N,12402.9427,W,2,07,01.4,19.7,M,-22.1,M,10.0,0302*62
06/10/2019,22:18:11.584,$GPGGA,221810,4437.5828,N,12402.9427,W,2,07,01.4,19.6,M,-22.1,M,11.0,0302*6A
06/10/2019,22:18:12.351,$GPGGA,221811,4437.5827,N,12402.9427,W,2,07,01.4,19.6,M,-22.1,M,09.0,0302*6D
06/10/2019,22:18:13.444,$GPGGA,221812,4437.5827,N,12402.9427,W,2,07,01.4,19.6,M,-22.1,M,10.0,0302*66
06/10/2019,22:18:14.558,$GPGGA,221813,4437.5827,N,12402.9427,W,2,07,01.4,19.6,M,-22.1,M,11.0,0302*66
06/10/2019,22:18:15.576,$GPGGA,221814,4437.5827,N,12402.9427,W,2,07,01.4,19.6,M,-22.1,M,09.0,0302*68
06/10/2019,22:18:16.563,$GPGGA,221815,4437.5827,N,12402.9427,W,2,07,01.4,19.6,M,-22.1,M,10.0,0302*61
06/10/2019,22:18:17.655,$GPGGA,221816,4437.5827,N,12402.9427,W,2,07,01.4,19.6,M,-22.1,M,11.0,0302*63
06/10/2019,22:18:18.559,$GPGGA,221817,4437.5827,N,12402.9427,W,2,07,01.4,19.6,M,-22.1,M,09.0,0302*6B
06/10/2019,22:18:19.581,$GPGGA,221818,4437.5827,N,12402.9427,W,2,07,01.4,19.5,M,-22.1,M,10.0,0302*6F
06/10/2019,22:18:20.352,$GPGGA,221819,4437.5827,N,12402.9427,W,2,07,01.4,19.5,M,-22.1,M,11.0,0302*6F
06/10/2019,22:18:21.649,$GPGGA,221820,4437.5827,N,12402.9427,W,2,07,01.4,19.4,M,-22.1,M,12.0,0302*67
06/10/2019,22:18:22.422,$GPGGA,221821,4437.5827,N,12402.9427,W,2,07,01.4,19.4,M,-22.1,M,10.0,0302*64
06/10/2019,22:18:23.372,$GPGGA,221822,4437.5827,N,12402.9427,W,2,07,01.4,19.3,M,-22.1,M,11.0,0302*61
06/10/2019,22:18:24.563,$GPGGA,221823,4437.5827,N,12402.9427,W,2,07,01.4,19.3,M,-22.1,M,12.0,0302*63
06/10/2019,22:18:25.649,$GPGGA,221824,4437.5827,N,12402.9427,W,2,07,01.4,19.3,M,-22.1,M,10.0,0302*66
06/10/2019,22:18:26.346,$GPGGA,221825,4437.5827,N,12402.9427,W,2,07,01.4,19.4,M,-22.1,M,11.0,0302*61
06/10/2019,22:18:27.590,$GPGGA,221826,4437.5827,N,12402.9427,W,2,07,01.4,19.4,M,-22.1,M,12.0,0302*61
06/10/2019,22:18:28.352,$GPGGA,221827,4437.5827,N,12402.9427,W,2,07,01.4,19.4,M,-22.1,M,10.0,0302*62
06/10/2019,22:18:29.649,$GPGGA,221828,4437.5827,N,12402.9427,W,2,07,01.4,19.4,M,-22.1,M,11.0,0302*6C
06/10/2019,22:18:30.559,$GPGGA,221829,4437.5827,N,12402.9427,W,2,07,01.4,19.4,M,-22.1,M,12.0,0302*6E
06/10/2019,22:18:31.576,$GPGGA,221830,4437.5827,N,12402.9427,W,2,07,01.4,19.5,M,-22.1,M,09.0,0302*6D
06/10/2019,22:18:32.567,$GPGGA,221831,4437.5827,N,12402.9427,W,2,07,01.4,19.5,M,-22.1,M,10.0,0302*64
06/10/2019,22:18:34.054,$GPGGA,221832,4437.5827,N,12402.9427,W,2,07,01.4,19.5,M,-22.1,M,09.0,0302*6F
06/10/2019,22:18:34.747,$GPGGA,221833,4437.5827,N,12402.9427,W,2,07,01.4,19.5,M,-22.1,M,10.0,0302*66
06/10/2019,22:18:35.589,$GPGGA,221834,4437.5827,N,12402.9427,W,2,07,01.4,19.5,M,-22.1,M,08.0,0302*68
06/10/2019,22:18:36.703,$GPGGA,221835,4437.5827,N,12402.9427,W,2,07,01.4,19.5,M,-22.1,M,09.0,0302*68
06/10/2019,22:18:37.506,$GPGGA,221836,4437.5827,N,12402.9427,W,2,07,01.4,19.5,M,-22.1,M,09.0,0302*6B
06/10/2019,22:18:38.559,$GPGGA,221837,4437.5827,N,12402.9427,W,2,07,01.4,19.5,M,-22.1,M,10.0,0302*62
06/10/2019,22:18:39.577,$GPGGA,221838,4437.5827,N,12402.9427,W,2,07,01.4,19.5,M,-22.1,M,11.0,0302*6C
06/10/2019,22:18:40.564,$GPGGA,221839,4437.5827,N,12402.9427,W,2,07,01.4,19.6,M,-22.1,M,09.0,0302*67
06/10/2019,22:18:41.650,$GPGGA,221840,4437.5827,N,12402.9427,W,2,07,01.4,19.6,M,-22.1,M,10.0,0302*61
06/10/2019,22:18:42.562,$GPGGA,221841,4437.5827,N,12402.9427,W,2,07,01.4,19.6,M,-22.1,M,11.0,0302*61
06/10/2019,22:18:43.424,$GPGGA,221842,4437.5827,N,12402.9427,W,2,07,01.4,19.6,M,-22.1,M,11.0,0302*62
06/10/2019,22:18:44.403,$GPGGA,221843,4437.5827,N,12402.9427,W,2,07,01.4,19.6,M,-22.1,M,12.0,0302*60
06/10/2019,22:18:45.497,$GPGGA,221844,4437.5827,N,12402.9427,W,2,07,01.4,19.6,M,-22.1,M,13.0,0302*66
06/10/2019,22:18:46.609,$GPGGA,221845,4437.5827,N,12402.9427,W,2,07,01.4,19.6,M,-22.1,M,09.0,0302*6C
06/10/2019,22:18:47.642,$GPGGA,221846,4437.5827,N,12402.9427,W,2,07,01.4,19.6,M,-22.1,M,10.0,0302*67
06/10/2019,22:18:48.403,$GPGGA,221847,4437.5827,N,12402.9427,W,2,07,01.4,19.6,M,-22.1,M,11.0,0302*67
06/10/2019,22:18:49.396,$GPGGA,221848,4437.5827,N,12402.9427,W,2,07,01.4,19.6,M,-22.1,M,09.0,0302*61
06/10/2019,22:18:50.559,$GPGGA,221849,4437.5827,N,12402.9427,W,2,07,01.4,19.6,M,-22.1,M,10.0,0302*68
06/10/2019,22:18:51.578,$GPGGA,221850,4437.5827,N,12402.9427,W,2,07,01.4,19.6,M,-22.1,M,11.0,0302*61
06/10/2019,22:18:52.567,$GPGGA,221851,4437.5827,N,12402.9427,W,2,07,01.4,19.6,M,-22.1,M,09.0,0302*69
06/10/2019,22:18:53.456,$GPGGA,221852,4437.5827,N,12402.9427,W,2,07,01.4,19.6,M,-22.1,M,10.0,0302*62
06/10/2019,22:18:54.560,$GPGGA,221853,4437.5827,N,12402.9427,W,2,07,01.4,19.6,M,-22.1,M,11.0,0302*62
06/10/2019,22:18:55.580,$GPGGA,221854,4437.5827,N,12402.9427,W,2,07,01.4,19.6,M,-22.1,M,09.0,0302*6C
06/10/2019,22:18:56.353,$GPGGA,221855,4437.5827,N,12402.9427,W,2,07,01.4,19.6,M,-22.1,M,10.0,0302*65
06/10/2019,22:18:57.446,$GPGGA,221856,4437.5827,N,12402.9427,W,2,07,01.4,19.6,M,-22.1,M,11.0,0302*67
06/10/2019,22:18:58.564,$GPGGA,221857,4437.5827,N,12402.9427,W,2,07,01.4,19.6,M,-22.1,M,09.0,0302*6F
06/10/2019,22:18:59.373,$GPGGA,221858,4437.5827,N,12402.9427,W,2,07,01.4,19.6,M,-22.1,M,10.0,0302*68
06/10/2019,22:19:00.564,$GPGGA,221859,4437.5827,N,12402.9427,W,2,07,01.4,19.6,M,-22.1,M,11.0,0302*68
06/10/2019,22:19:01.446,$GPGGA,221900,4437.5827,N,12402.9427,W,2,07,01.4,19.6,M,-22.1,M,12.0,0302*66
06/10/2019,22:19:02.565,$GPGGA,221901,4437.5827,N,12402.9427,W,2,07,01.4,19.7,M,-22.1,M,10.0,0302*64
06/10/2019,22:19:03.425,$GPGGA,221902,4437.5827,N,12402.9427,W,2,07,01.4,19.7,M,-22.1,M,11.0,0302*66
06/10/2019,22:19:04.406,$GPGGA,221903,4437.5827,N,12402.9427,W,2,07,01.4,19.7,M,-22.1,M,12.0,0302*64
06/10/2019,22:19:05.400,$GPGGA,221904,4437.5827,N,12402.9427,W,2,07,01.4,19.7,M,-22.1,M,10.0,0302*61
06/10/2019,22:19:06.563,$GPGGA,221905,4437.5827,N,12402.9427,W,2,07,01.4,19.7,M,-22.1,M,11.0,0302*61
06/10/2019,22:19:07.587,$GPGGA,221906,4437.5827,N,12402.9427,W,2,07,01.4,19.7,M,-22.1,M,08.0,0302*6A
06/10/2019,22:19:08.567,$GPGGA,221907,4437.5827,N,12402.9427,W,2,07,01.4,19.7,M,-22.1,M,09.0,0302*6A
06/10/2019,22:19:09.653,$GPGGA,221908,4437.5827,N,12402.9427,W,2,07,01.4,19.7,M,-22.1,M,08.0,0302*64
06/10/2019,22:19:10.563,$GPGGA,221909,4437.5827,N,12402.9427,W,2,07,01.4,19.7,M,-22.1,M,09.0,0302*64
06/10/2019,22:19:11.580,$GPGGA,221910,4437.5827,N,12402.9427,W,2,07,01.4,19.7,M,-22.1,M,10.0,0302*64
06/10/2019,22:19:12.570,$GPGGA,221911,4437.5827,N,12402.9427,W,2,07,01.4,19.7,M,-22.1,M,10.0,0302*65
06/10/2019,22:19:13.500,$GPGGA,221912,4437.5827,N,12402.9427,W,2,07,01.4,19.7,M,-22.1,M,11.0,0302*67
06/10/2019,22:19:14.401,$GPGGA,221913,4437.5827,N,12402.9427,W,2,07,01.4,19.7,M,-22.1,M,08.0,0302*6E
06/10/2019,22:19:15.427,$GPGGA,221914,4437.5827,N,12402.9427,W,2,07,01.4,19.7,M,-22.1,M,09.0,0302*68
06/10/2019,22:19:16.407,$GPGGA,221915,4437.5827,N,12402.9427,W,2,07,01.4,19.7,M,-22.1,M,10.0,0302*61
06/10/2019,22:19:17.400,$GPGGA,221916,4437.5827,N,12402.9427,W,2,07,01.4,19.7,M,-22.1,M,11.0,0302*63
06/10/2019,22:19:18.669,$GPGGA,221917,4437.5827,N,12402.9427,W,2,07,01.4,19.7,M,-22.1,M,08.0,0302*6A
06/10/2019,22:19:20.588,$GPGGA,221919,4437.5827,N,12402.9427,W,2,07,01.4,19.7,M,-22.1,M,10.0,0302*6D
06/10/2019,22:19:22.568,$GPGGA,221921,4437.5827,N,12402.9427,W,2,07,01.4,19.8,M,-22.1,M,12.0,0302*6B
06/10/2019,22:19:23.711,$GPGGA,221922,4437.5827,N,12402.9427,W,2,07,01.4,19.8,M,-22.1,M,09.0,0302*62
06/10/2019,22:19:25.602,$GPGGA,221924,4437.5827,N,12402.9427,W,2,07,01.4,19.8,M,-22.1,M,08.0,0302*65
06/10/2019,22:19:26.427,$GPGGA,221925,4437.5827,N,12402.9427,W,2,07,01.4,19.8,M,-22.1,M,09.0,0302*65
06/10/2019,22:19:27.407,$GPGGA,221926,4437.5827,N,12402.9427,W,2,07,01.4,19.8,M,-22.1,M,10.0,0302*6E
06/10/2019,22:19:28.703,$GPGGA,221927,4437.5827,N,12402.9427,W,2,07,01.4,19.8,M,-22.1,M,10.0,0302*6F
06/10/2019,22:19:29.403,$GPGGA,221928,4437.5827,N,12402.9427,W,2,07,01.4,19.8,M,-22.1,M,11.0,0302*61
06/10/2019,22:19:30.659,$GPGGA,221929,4437.5827,N,12402.9427,W,2,07,01.4,19.9,M,-22.1,M,09.0,0302*68
06/10/2019,22:19:31.408,$GPGGA,221930,4437.5827,N,12402.9427,W,2,07,01.4,19.9,M,-22.1,M,10.0,0302*68
06/10/2019,22:19:32.713,$GPGGA,221931,4437.5827,N,12402.9427,W,2,07,01.4,19.9,M,-22.1,M,08.0,0302*60
06/10/2019,22:19:33.402,$GPGGA,221932,4437.5828,N,12402.9427,W,2,07,01.4,19.9,M,-22.1,M,09.0,0302*6D
06/10/2019,22:19:34.428,$GPGGA,221933,4437.5828,N,12402.9427,W,2,07,01.4,19.9,M,-22.1,M,10.0,0302*64
06/10/2019,22:19:35.408,$GPGGA,221934,4437.5828,N,12402.9427,W,2,07,01.4,19.9,M,-22.1,M,10.0,0302*63
06/10/2019,22:19:36.713,$GPGGA,221935,4437.5828,N,12402.9427,W,2,07,01.4,19.9,M,-22.1,M,11.0,0302*63
06/10/2019,22:19:37.303,$GPGGA,221936,4437.5828,N,12402.9427,W,2,07,01.4,19.9,M,-22.1,M,09.0,0302*69
06/10/2019,22:19:38.591,$GPGGA,221937,4437.5828,N,12402.9427,W,2,07,01.4,19.9,M,-22.1,M,10.0,0302*60
06/10/2019,22:19:39.561,$GPGGA,221938,4437.5827,N,12402.9427,W,2,07,01.4,19.9,M,-22.1,M,08.0,0302*69
06/10/2019,22:19:40.660,$GPGGA,221939,4437.5827,N,12402.9427,W,2,07,01.4,19.9,M,-22.1,M,09.0,0302*69
06/10/2019,22:19:41.557,$GPGGA,221940,4437.5827,N,12402.9427,W,2,07,01.4,19.9,M,-22.1,M,10.0,0302*6F
06/10/2019,22:19:42.592,$GPGGA,221941,4437.5827,N,12402.9427,W,2,07,01.4,19.9,M,-22.1,M,10.0,0302*6E
06/10/2019,22:19:44.611,$GPGGA,221943,4437.5827,N,12402.9427,W,2,07,01.4,19.9,M,-22.1,M,12.0,0302*6E
06/10/2019,22:19:45.501,$GPGGA,221944,4437.5828,N,12402.9427,W,2,07,01.4,19.9,M,-22.1,M,09.0,0302*6C
06/10/2019,22:19:46.616,$GPGGA,221945,4437.5828,N,12402.9427,W,2,07,01.4,19.9,M,-22.1,M,10.0,0302*65
06/10/2019,22:19:47.589,$GPGGA,221946,4437.5828,N,12402.9427,W,2,07,01.4,20.0,M,-22.1,M,08.0,0302*6C
06/10/2019,22:19:48.568,$GPGGA,221947,4437.5828,N,12402.9427,W,2,07,01.4,20.0,M,-22.1,M,09.0,0302*6C
06/10/2019,22:19:49.450,$GPGGA,221948,4437.5828,N,12402.9427,W,2,07,01.4,20.0,M,-22.1,M,10.0,0302*6B
06/10/2019,22:19:50.569,$GPGGA,221949,4437.5828,N,12402.9427,W,2,07,01.4,19.9,M,-22.1,M,11.0,0302*68
06/10/2019,22:19:51.593,$GPGGA,221950,4437.5828,N,12402.9427,W,2,07,01.4,20.0,M,-22.1,M,08.0,0302*6B
06/10/2019,22:19:52.572,$GPGGA,221951,4437.5828,N,12402.9427,W,2,07,01.4,20.0,M,-22.1,M,09.0,0302*6B
06/10/2019,22:19:53.851,$GPGGA,221952,4437.5828,N,12402.9427,W,2,07,01.4,20.0,M,-22.1,M,10.0,0302*60
06/10/2019,22:19:54.564,$GPGGA,221953,4437.5828,N,12402.9427,W,2,07,01.4,20.0,M,-22.1,M,11.0,0302*60
06/10/2019,22:19:55.378,$GPGGA,221954,4437.5828,N,12402.9427,W,2,07,01.4,20.0,M,-22.1,M,12.0,0302*64
06/10/2019,22:19:56.670,$GPGGA,221955,4437.5828,N,12402.9427,W,2,07,01.4,20.0,M,-22.1,M,13.0,0302*64
06/10/2019,22:19:57.451,$GPGGA,221956,4437.5828,N,12402.9427,W,2,07,01.4,20.0,M,-22.1,M,10.0,0302*64
06/10/2019,22:19:58.569,$GPGGA,221957,4437.5828,N,12402.9427,W,2,07,01.4,20.0,M,-22.1,M,11.0,0302*64
06/10/2019,22:19:59.582,$GPGGA,221958,4437.5828,N,12402.9427,W,2,07,01.4,20.0,M,-22.1,M,09.0,0302*62
06/10/2019,22:20:00.568,$GPGGA,221959,4437.5828,N,12402.9427,W,2,07,01.4,20.0,M,-22.1,M,10.0,0302*6B
06/10/2019,22:20:01.451,$GPGGA,222000,4437.5828,N,12402.9427,W,2,07,01.4,20.0,M,-22.1,M,08.0,0302*64
06/10/2019,22:20:02.568,$GPGGA,222001,4437.5828,N,12402.9427,W,2,07,01.4,20.0,M,-22.1,M,09.0,0302*64
06/10/2019,22:20:03.428,$GPGGA,222002,4437.5828,N,12402.9427,W,2,07,01.4,20.0,M,-22.1,M,10.0,0302*6F
06/10/2019,22:20:04.409,$GPGGA,222003,4437.5828,N,12402.9427,W,2,07,01.4,20.0,M,-22.1,M,10.0,0302*6E
06/10/2019,22:20:05.501,$GPGGA,222004,4437.5828,N,12402.9427,W,2,07,01.4,20.0,M,-22.1,M,11.0,0302*68
06/10/2019,22:20:06.633,$GPGGA,222005,4437.5828,N,12402.9427,W,2,07,01.4,20.0,M,-22.1,M,08.0,0302*61
06/10/2019,22:20:07.430,$GPGGA,222006,4437.5828,N,12402.9428,W,2,07,01.4,19.9,M,-22.1,M,09.0,0302*6F
06/10/2019,22:20:08.617,$GPGGA,222007,4437.5828,N,12402.9428,W,2,07,01.4,19.9,M,-22.1,M,08.0,0302*6F
06/10/2019,22:20:09.502,$GPGGA,222008,4437.5828,N,12402.9428,W,2,07,01.4,19.9,M,-22.1,M,09.0,0302*61
06/10/2019,22:20:10.713,$GPGGA,222009,4437.5828,N,12402.9428,W,2,07,01.4,19.9,M,-22.1,M,10.0,0302*68
06/10/2019,22:20:11.429,$GPGGA,222010,4437.5828,N,12402.9428,W,2,07,01.4,19.9,M,-22.1,M,10.0,0302*60
06/10/2019,22:20:12.624,$GPGGA,222011,4437.5828,N,12402.9428,W,2,07,01.4,19.9,M,-22.1,M,11.0,0302*60
06/10/2019,22:20:13.706,$GPGGA,222012,4437.5828,N,12402.9428,W,2,07,01.4,19.9,M,-22.1,M,08.0,0302*6B
06/10/2019,22:20:14.404,$GPGGA,222013,4437.5828,N,12402.9428,W,2,07,01.4,19.9,M,-22.1,M,09.0,0302*6B
06/10/2019,22:20:15.629,$GPGGA,222014,4437.5828,N,12402.9428,W,2,07,01.4,19.9,M,-22.1,M,08.0,0302*6D
06/10/2019,22:20:16.611,$GPGGA,222015,4437.5828,N,12402.9428,W,2,07,01.4,19.9,M,-22.1,M,09.0,0302*6D
06/10/2019,22:20:17.502,$GPGGA,222016,4437.5828,N,12402.9428,W,2,07,01.4,19.9,M,-22.1,M,10.0,0302*66
06/10/2019,22:20:18.403,$GPGGA,222017,4437.5828,N,12402.9428,W,2,07,01.4,20.0,M,-22.1,M,10.0,0302*64
06/10/2019,22:20:19.630,$GPGGA,222018,4437.5828,N,12402.9428,W,2,07,01.4,20.0,M,-22.1,M,11.0,0302*6A
06/10/2019,22:20:20.612,$GPGGA,222019,4437.5828,N,12402.9428,W,2,07,01.4,20.0,M,-22.1,M,12.0,0302*68
06/10/2019,22:20:21.503,$GPGGA,222020,4437.5828,N,12402.9428,W,2,07,01.4,20.0,M,-22.1,M,09.0,0302*68
06/10/2019,22:20:22.616,$GPGGA,222021,4437.5828,N,12402.9428,W,2,07,01.4,20.0,M,-22.1,M,10.0,0302*61
06/10/2019,22:20:23.438,$GPGGA,222022,4437.5828,N,12402.9428,W,2,07,01.4,20.0,M,-22.1,M,11.0,0302*63
06/10/2019,22:20:24.410,$GPGGA,222023,4437.5828,N,12402.9428,W,2,07,01.4,20.0,M,-22.1,M,09.0,0302*6B
06/10/2019,22:20:25.502,$GPGGA,222024,4437.5828,N,12402.9428,W,2,07,01.4,20.0,M,-22.1,M,10.0,0302*64
06/10/2019,22:20:26.714,$GPGGA,222025,4437.5829,N,12402.9428,W,2,07,01.4,20.0,M,-22.1,M,11.0,0302*65
06/10/2019,22:20:27.430,$GPGGA,222026,4437.5829,N,12402.9428,W,2,07,01.4,20.1,M,-22.1,M,09.0,0302*6E
06/10/2019,22:20:28.612,$GPGGA,222027,4437.5829,N,12402.9428,W,2,07,01.4,20.1,M,-22.1,M,10.0,0302*67
06/10/2019,22:20:29.502,$GPGGA,222028,4437.5829,N,12402.9428,W,2,07,01.4,20.1,M,-22.1,M,11.0,0302*69
06/10/2019,22:20:30.404,$GPGGA,222029,4437.5829,N,12402.9428,W,2,07,01.4,20.1,M,-22.1,M,09.0,0302*61
06/10/2019,22:20:31.430,$GPGGA,222030,4437.5829,N,12402.9428,W,2,07,01.4,20.1,M,-22.1,M,10.0,0302*61
06/10/2019,22:20:32.410,$GPGGA,222031,4437.5829,N,12402.9428,W,2,07,01.4,20.1,M,-22.1,M,08.0,0302*69
06/10/2019,22:20:33.503,$GPGGA,222032,4437.5829,N,12402.9428,W,2,07,01.4,20.1,M,-22.1,M,09.0,0302*6B
06/10/2019,22:20:34.714,$GPGGA,222033,4437.5829,N,12402.9428,W,2,07,01.4,20.1,M,-22.1,M,10.0,0302*62
06/10/2019,22:20:35.630,$GPGGA,222034,4437.5829,N,12402.9428,W,2,07,01.4,20.1,M,-22.1,M,11.0,0302*64
06/10/2019,22:20:36.624,$GPGGA,222035,4437.5829,N,12402.9428,W,2,07,01.4,20.1,M,-22.1,M,12.0,0302*66
06/10/2019,22:20:37.403,$GPGGA,222036,4437.5829,N,12402.9428,W,2,07,01.4,20.1,M,-22.1,M,13.0,0302*64
06/10/2019,22:20:38.566,$GPGGA,222037,4437.5829,N,12402.9428,W,2,07,01.4,20.2,M,-22.1,M,14.0,0302*61
06/10/2019,22:20:39.595,$GPGGA,222038,4437.5829,N,12402.9428,W,2,07,01.4,20.2,M,-22.1,M,11.0,0302*6B
06/10/2019,22:20:40.359,$GPGGA,222039,4437.5829,N,12402.9428,W,2,07,01.4,20.2,M,-22.1,M,12.0,0302*69
06/10/2019,22:20:41.661,$GPGGA,222040,4437.5829,N,12402.9428,W,2,07,01.4,20.2,M,-22.1,M,13.0,0302*66
06/10/2019,22:20:42.354,$GPGGA,222041,4437.5829,N,12402.9428,W,2,07,01.4,20.2,M,-22.1,M,10.0,0302*64
06/10/2019,22:20:43.583,$GPGGA,222042,4437.5829,N,12402.9428,W,2,07,01.4,20.2,M,-22.1,M,11.0,0302*66
06/10/2019,22:20:44.259,$GPGGA,222043,4437.5829,N,12402.9428,W,2,07,01.4,20.2,M,-22.1,M,12.0,0302*64
06/10/2019,22:20:45.503,$GPGGA,222044,4437.5829,N,12402.9428,W,2,07,01.4,20.2,M,-22.1,M,10.0,0302*61
06/10/2019,22:20:46.405,$GPGGA,222045,4437.5829,N,12402.9428,W,2,07,01.4,20.2,M,-22.1,M,11.0,0302*61
06/10/2019,22:20:47.430,$GPGGA,222046,4437.5829,N,12402.9428,W,2,07,01.4,20.2,M,-22.1,M,12.0,0302*61
06/10/2019,22:20:48.624,$GPGGA,222047,4437.5829,N,12402.9428,W,2,07,01.4,20.2,M,-22.1,M,10.0,0302*62
06/10/2019,22:20:49.403,$GPGGA,222048,4437.5829,N,12402.9428,W,2,07,01.4,20.3,M,-22.1,M,11.0,0302*6D
06/10/2019,22:20:50.566,$GPGGA,222049,4437.5829,N,12402.9428,W,2,07,01.4,20.3,M,-22.1,M,12.0,0302*6F
06/10/2019,22:20:51.583,$GPGGA,222050,4437.5829,N,12402.9428,W,2,07,01.4,20.3,M,-22.1,M,10.0,0302*65
06/10/2019,22:20:52.360,$GPGGA,222051,4437.5829,N,12402.9428,W,2,07,01.4,20.3,M,-22.1,M,11.0,0302*65
06/10/2019,22:20:53.452,$GPGGA,222052,4437.5829,N,12402.9428,W,2,07,01.4,20.3,M,-22.1,M,12.0,0302*65
06/10/2019,22:20:54.567,$GPGGA,222053,4437.5829,N,12402.9428,W,2,07,01.4,20.3,M,-22.1,M,10.0,0302*66
06/10/2019,22:20:55.583,$GPGGA,222054,4437.5829,N,12402.9428,W,2,07,01.4,20.3,M,-22.1,M,11.0,0302*60
06/10/2019,22:20:56.569,$GPGGA,222055,4437.5829,N,12402.9428,W,2,07,01.4,20.3,M,-22.1,M,12.0,0302*62
06/10/2019,22:20:57.664,$GPGGA,222056,4437.5829,N,12402.9428,W,2,07,01.4,20.3,M,-22.1,M,10.0,0302*63
06/10/2019,22:20:58.567,$GPGGA,222057,4437.5829,N,12402.9428,W,2,07,01.4,20.3,M,-22.1,M,11.0,0302*63
06/10/2019,22:20:59.391,$GPGGA,222058,4437.5829,N,12402.9428,W,2,07,01.4,20.3,M,-22.1,M,12.0,0302*6F
06/10/2019,22:21:00.570,$GPGGA,222059,4437.5829,N,12402.9428,W,2,07,01.4,20.4,M,-22.1,M,10.0,0302*6B
06/10/2019,22:21:01.453,$GPGGA,222100,4437.5829,N,12402.9428,W,2,07,01.4,20.4,M,-22.1,M,11.0,0302*67
06/10/2019,22:21:02.567,$GPGGA,222101,4437.5829,N,12402.9428,W,2,07,01.4,20.4,M,-22.1,M,12.0,0302*65
06/10/2019,22:21:03.431,$GPGGA,222102,4437.5829,N,12402.9428,W,2,07,01.4,20.4,M,-22.1,M,10.0,0302*64
06/10/2019,22:21:04.411,$GPGGA,222103,4437.5829,N,12402.9428,W,2,07,01.4,20.4,M,-22.1,M,11.0,0302*64
06/10/2019,22:21:05.504,$GPGGA,222104,4437.5829,N,12402.9428,W,2,07,01.4,20.4,M,-22.1,M,08.0,0302*6B
06/10/2019,22:21:06.615,$GPGGA,222105,4437.5829,N,12402.9428,W,2,07,01.4,20.4,M,-22.1,M,09.0,0302*6B
06/10/2019,22:21:07.430,$GPGGA,222106,4437.5829,N,12402.9428,W,2,07,01.4,20.4,M,-22.1,M,10.0,0302*60
06/10/2019,22:21:08.613,$GPGGA,222107,4437.5829,N,12402.9428,W,2,07,01.4,20.4,M,-22.1,M,11.0,0302*60
06/10/2019,22:21:09.504,$GPGGA,222108,4437.5829,N,12402.9428,W,2,07,01.4,20.5,M,-22.1,M,12.0,0302*6D
06/10/2019,22:21:10.406,$GPGGA,222109,4437.5829,N,12402.9428,W,2,07,01.4,20.5,M,-22.1,M,13.0,0302*6D
06/10/2019,22:21:11.332,$GPGGA,222110,4437.5829,N,12402.9428,W,2,07,01.4,20.5,M,-22.1,M,10.0,0302*66
06/10/2019,22:21:12.581,$GPGGA,222111,4437.5829,N,12402.9428,W,2,07,01.4,20.5,M,-22.1,M,11.0,0302*66
06/10/2019,22:21:13.404,$GPGGA,222112,4437.5829,N,12402.9428,W,2,07,01.4,20.5,M,-22.1,M,12.0,0302*66
06/10/2019,22:21:14.660,$GPGGA,222113,4437.5829,N,12402.9428,W,2,07,01.4,20.5,M,-22.1,M,10.0,0302*65
06/10/2019,22:21:16.645,$GPGGA,222115,4437.5829,N,12402.9428,W,2,07,01.4,20.5,M,-22.1,M,09.0,0302*6B
06/10/2019,22:21:18.625,$GPGGA,222117,4437.5829,N,12402.9428,W,2,07,01.4,20.5,M,-22.1,M,11.0,0302*60
06/10/2019,22:21:19.656,$GPGGA,222118,4437.5829,N,12402.9428,W,2,07,01.4,20.5,M,-22.1,M,09.0,0302*66
06/10/2019,22:21:20.564,$GPGGA,222119,4437.5829,N,12402.9428,W,2,07,01.4,20.5,M,-22.1,M,10.0,0302*6F
06/10/2019,22:21:21.584,$GPGGA,222120,4437.5829,N,12402.9428,W,2,07,01.4,20.5,M,-22.1,M,11.0,0302*64
06/10/2019,22:21:22.575,$GPGGA,222121,4437.5829,N,12402.9428,W,2,07,01.4,20.5,M,-22.1,M,12.0,0302*66
06/10/2019,22:21:23.657,$GPGGA,222122,4437.5829,N,12402.9428,W,2,07,01.4,20.5,M,-22.1,M,13.0,0302*64
06/10/2019,22:21:24.565,$GPGGA,222123,4437.5829,N,12402.9428,W,2,07,01.4,20.5,M,-22.1,M,14.0,0302*62
06/10/2019,22:21:25.281,$GPGGA,222124,4437.5829,N,12402.9428,W,2,07,01.4,20.5,M,-22.1,M,10.0,0302*61
06/10/2019,22:21:26.631,$GPGGA,222125,4437.5829,N,12402.9428,W,2,07,01.4,20.5,M,-22.1,M,11.0,0302*61
06/10/2019,22:21:27.510,$GPGGA,222126,4437.5829,N,12402.9428,W,2,07,01.4,20.5,M,-22.1,M,12.0,0302*61
06/10/2019,22:21:28.406,$GPGGA,222127,4437.5829,N,12402.9428,W,2,07,01.4,20.5,M,-22.1,M,10.0,0302*62
06/10/2019,22:21:29.332,$GPGGA,222128,4437.5829,N,12402.9428,W,2,07,01.4,20.5,M,-22.1,M,11.0,0302*6C
06/10/2019,22:21:30.576,$GPGGA,222129,4437.5829,N,12402.9428,W,2,07,01.4,20.5,M,-22.1,M,12.0,0302*6E
06/10/2019,22:21:31.464,$GPGGA,222130,4437.5829,N,12402.9428,W,2,07,01.4,20.5,M,-22.1,M,10.0,0302*64
06/10/2019,22:21:32.574,$GPGGA,222131,4437.5829,N,12402.9428,W,2,07,01.4,20.5,M,-22.1,M,11.0,0302*64
06/10/2019,22:21:33.584,$GPGGA,222132,4437.5829,N,12402.9428,W,2,07,01.4,20.5,M,-22.1,M,12.0,0302*64
06/10/2019,22:21:34.575,$GPGGA,222133,4437.5829,N,12402.9428,W,2,07,01.4,20.5,M,-22.1,M,10.0,0302*67
06/10/2019,22:21:35.465,$GPGGA,222134,4437.5829,N,12402.9428,W,2,07,01.4,20.5,M,-22.1,M,11.0,0302*61
06/10/2019,22:21:36.565,$GPGGA,222135,4437.5829,N,12402.9428,W,2,07,01.4,20.5,M,-22.1,M,12.0,0302*63
06/10/2019,22:21:38.593,$GPGGA,222137,4437.5829,N,12402.9428,W,2,07,01.4,20.6,M,-22.1,M,11.0,0302*61
06/10/2019,22:21:39.564,$GPGGA,222138,4437.5829,N,12402.9428,W,2,07,01.4,20.6,M,-22.1,M,12.0,0302*6D
06/10/2019,22:21:40.454,$GPGGA,222139,4437.5829,N,12402.9428,W,2,07,01.4,20.6,M,-22.1,M,13.0,0302*6D
06/10/2019,22:21:42.568,$GPGGA,222141,4437.5829,N,12402.9428,W,2,07,01.4,20.6,M,-22.1,M,12.0,0302*63
06/10/2019,22:21:43.633,$GPGGA,222142,4437.5829,N,12402.9428,W,2,07,01.4,20.6,M,-22.1,M,13.0,0302*61
06/10/2019,22:21:44.615,$GPGGA,222143,4437.5829,N,12402.9429,W,2,07,01.4,20.6,M,-22.1,M,11.0,0302*63
06/10/2019,22:21:45.505,$GPGGA,222144,4437.5829,N,12402.9429,W,2,07,01.4,20.6,M,-22.1,M,12.0,0302*67
06/10/2019,22:21:46.619,$GPGGA,222145,4437.5829,N,12402.9429,W,2,07,01.4,20.6,M,-22.1,M,09.0,0302*6C
06/10/2019,22:21:47.432,$GPGGA,222146,4437.5829,N,12402.9429,W,2,07,01.4,20.6,M,-22.1,M,10.0,0302*67
06/10/2019,22:21:48.413,$GPGGA,222147,4437.5829,N,12402.9429,W,2,07,01.4,20.6,M,-22.1,M,08.0,0302*6F
06/10/2019,22:21:49.405,$GPGGA,222148,4437.5829,N,12402.9429,W,2,07,01.4,20.6,M,-22.1,M,09.0,0302*61
06/10/2019,22:21:50.569,$GPGGA,222149,4437.5829,N,12402.9429,W,2,07,01.4,20.7,M,-22.1,M,10.0,0302*69
06/10/2019,22:21:51.586,$GPGGA,222150,4437.5829,N,12402.9429,W,2,07,01.4,20.6,M,-22.1,M,11.0,0302*61
06/10/2019,22:21:52.362,$GPGGA,222151,4437.5829,N,12402.9429,W,2,07,01.4,20.7,M,-22.1,M,08.0,0302*69
06/10/2019,22:21:53.455,$GPGGA,222152,4437.5829,N,12402.9429,W,2,07,01.4,20.7,M,-22.1,M,09.0,0302*6B
06/10/2019,22:21:54.667,$GPGGA,222153,4437.5829,N,12402.9429,W,2,07,01.4,20.7,M,-22.1,M,09.0,0302*6A
