06/09/2019,00:00:01.433,$GPGGA,000000,4437.5828,N,12402.9431,W,2,08,00.9,22.5,M,-22.1,M,11.0,0302*6D
06/09/2019,00:00:03.039,$GPGGA,000001,4437.5828,N,12402.9431,W,2,08,00.9,22.5,M,-22.1,M,10.0,0302*6D
06/09/2019,00:00:03.652,$GPGGA,000002,4437.5828,N,12402.9431,W,2,08,00.9,22.5,M,-22.1,M,11.0,0302*6F
06/09/2019,00:00:04.608,$GPGGA,000003,4437.5828,N,12402.9431,W,2,08,00.9,22.5,M,-22.1,M,12.0,0302*6D
06/09/2019,00:00:05.511,$GPGGA,000004,4437.5827,N,12402.9431,W,2,08,00.9,22.5,M,-22.1,M,10.0,0302*67
06/09/2019,00:00:06.588,$GPGGA,000005,4437.5827,N,12402.9431,W,2,08,00.9,22.5,M,-22.1,M,11.0,0302*67
06/09/2019,00:00:07.709,$GPGGA,000006,4437.5827,N,12402.9431,W,2,08,00.9,22.5,M,-22.1,M,09.0,0302*6D
06/09/2019,00:00:09.391,$GPGGA,000008,4437.5828,N,12402.9431,W,2,08,00.9,22.5,M,-22.1,M,08.0,0302*6D
06/09/2019,00:00:10.596,$GPGGA,000009,4437.5828,N,12402.9431,W,2,08,00.9,22.5,M,-22.1,M,09.0,0302*6D
06/09/2019,00:00:12.477,$GPGGA,000011,4437.5828,N,12402.9431,W,2,08,00.9,22.5,M,-22.1,M,09.0,0302*64
06/09/2019,00:00:13.429,$GPGGA,000012,4437.5828,N,12402.9431,W,2,08,00.9,22.5,M,-22.1,M,10.0,0302*6F
06/09/2019,00:00:14.354,$GPGGA,000013,4437.5828,N,12402.9431,W,2,08,00.9,22.5,M,-22.1,M,09.0,0302*66
06/09/2019,00:00:15.495,$GPGGA,000014,4437.5828,N,12402.9431,W,2,08,00.9,22.5,M,-22.1,M,10.0,0302*69
06/09/2019,00:00:16.527,$GPGGA,000015,4437.5828,N,12402.9431,W,2,08,00.9,22.5,M,-22.1,M,08.0,0302*61
06/09/2019,00:00:17.675,$GPGGA,000016,4437.5828,N,12402.9431,W,2,08,00.9,22.5,M,-22.1,M,09.0,0302*63
06/09/2019,00:00:18.696,$GPGGA,000017,4437.5828,N,12402.9431,W,2,08,00.9,22.5,M,-22.1,M,10.0,0302*6A
06/09/2019,00:00:19.544,$GPGGA,000018,4437.5828,N,12402.9431,W,2,08,00.9,22.5,M,-22.1,M,10.0,0302*65
06/09/2019,00:00:20.579,$GPGGA,000019,4437.5828,N,12402.9431,W,2,08,00.9,22.5,M,-22.1,M,11.0,0302*65
06/09/2019,00:00:21.595,$GPGGA,000020,4437.5828,N,12402.9431,W,2,08,00.9,22.5,M,-22.1,M,09.0,0302*66
06/09/2019,00:00:22.575,$GPGGA,000021,4437.5828,N,12402.9431,W,2,08,00.9,22.5,M,-22.1,M,10.0,0302*6F
06/09/2019,00:00:23.586,$GPGGA,000022,4437.5828,N,12402.9431,W,2,08,00.9,22.5,M,-22.1,M,08.0,0302*65
06/09/2019,00:00:24.588,$GPGGA,000023,4437.5828,N,12402.9431,W,2,08,00.9,22.5,M,-22.1,M,09.0,0302*65
06/09/2019,00:00:25.380,$GPGGA,000024,4437.5828,N,12402.9431,W,2,08,00.9,22.5,M,-22.1,M,08.0,0302*63
06/09/2019,00:00:26.567,$GPGGA,000025,4437.5828,N,12402.9431,W,2,08,00.9,22.5,M,-22.1,M,09.0,0302*63
06/09/2019,00:00:27.547,$GPGGA,000026,4437.5828,N,12402.9431,W,2,08,00.9,22.5,M,-22.1,M,10.0,0302*68
06/09/2019,00:00:28.640,$GPGGA,000027,4437.5828,N,12402.9431,W,2,08,00.9,22.5,M,-22.1,M,10.0,0302*69
06/09/2019,00:00:29.430,$GPGGA,000028,4437.5828,N,12402.9431,W,2,08,00.9,22.5,M,-22.1,M,11.0,0302*67
06/09/2019,00:00:30.567,$GPGGA,000029,4437.5828,N,12402.9431,W,2,08,00.9,22.5,M,-22.1,M,12.0,0302*65
06/09/2019,00:00:31.837,$GPGGA,000030,4437.5828,N,12402.9431,W,2,08,00.9,22.5,M,-22.1,M,09.0,0302*67
06/09/2019,00:00:32.726,$GPGGA,000031,4437.5828,N,12402.9431,W,2,08,00.9,22.5,M,-22.1,M,10.0,0302*6E
06/09/2019,00:00:33.538,$GPGGA,000032,4437.5828,N,12402.9431,W,2,08,00.9,22.5,M,-22.1,M,11.0,0302*6C
06/09/2019,00:00:34.567,$GPGGA,000033,4437.5828,N,12402.9431,W,2,08,00.9,22.6,M,-22.1,M,09.0,0302*67
06/09/2019,00:00:35.603,$GPGGA,000034,4437.5828,N,12402.9431,W,2,08,00.9,22.6,M,-22.1,M,10.0,0302*68
06/09/2019,00:00:36.639,$GPGGA,000035,4437.5828,N,12402.9432,W,2,08,00.9,22.6,M,-22.1,M,11.0,0302*6B
06/09/2019,00:00:37.232,$GPGGA,000036,4437.5828,N,12402.9432,W,2,08,00.9,22.6,M,-22.1,M,09.0,0302*61
06/09/2019,00:00:38.682,$GPGGA,000037,4437.5828,N,12402.9432,W,2,08,00.9,22.6,M,-22.1,M,10.0,0302*68
06/09/2019,00:00:39.545,$GPGGA,000038,4437.5828,N,12402.9432,W,2,08,00.9,22.6,M,-22.1,M,08.0,0302*6E
06/09/2019,00:00:40.528,$GPGGA,000039,4437.5828,N,12402.9432,W,2,08,00.9,22.6,M,-22.1,M,09.0,0302*6E
06/09/2019,00:00:41.330,$GPGGA,000040,4437.5828,N,12402.9432,W,2,08,00.9,22.6,M,-22.1,M,10.0,0302*68
06/09/2019,00:00:42.567,$GPGGA,000041,4437.5828,N,12402.9432,W,2,08,00.9,22.6,M,-22.1,M,08.0,0302*60
06/09/2019,00:00:43.792,$GPGGA,000042,4437.5828,N,12402.9432,W,2,08,00.9,22.6,M,-22.1,M,09.0,0302*62
06/09/2019,00:00:44.819,$GPGGA,000043,4437.5828,N,12402.9432,W,2,08,00.9,22.6,M,-22.1,M,10.0,0302*6B
06/09/2019,00:00:45.489,$GPGGA,000044,4437.5828,N,12402.9432,W,2,08,00.9,22.6,M,-22.1,M,09.0,0302*64
06/09/2019,00:00:46.515,$GPGGA,000045,4437.5828,N,12402.9432,W,2,08,00.9,22.6,M,-22.1,M,10.0,0302*6D
06/09/2019,00:00:47.549,$GPGGA,000046,4437.5828,N,12402.9432,W,2,08,00.9,22.6,M,-22.1,M,11.0,0302*6F
06/09/2019,00:00:48.640,$GPGGA,000047,4437.5828,N,12402.9432,W,2,08,00.9,22.6,M,-22.1,M,10.0,0302*6F
06/09/2019,00:00:49.538,$GPGGA,000048,4437.5828,N,12402.9432,W,2,08,00.9,22.6,M,-22.1,M,11.0,0302*61
06/09/2019,00:00:50.455,$GPGGA,000049,4437.5828,N,12402.9432,W,2,08,00.9,22.6,M,-22.1,M,12.0,0302*63
06/09/2019,00:00:51.545,$GPGGA,000050,4437.5828,N,12402.9432,W,2,08,00.9,22.6,M,-22.1,M,10.0,0302*69
06/09/2019,00:00:52.674,$GPGGA,000051,4437.5828,N,12402.9432,W,2,08,00.9,22.6,M,-22.1,M,11.0,0302*69
06/09/2019,00:00:53.380,$GPGGA,000052,4437.5828,N,12402.9432,W,2,08,00.9,22.7,M,-22.1,M,12.0,0302*68
06/09/2019,00:00:54.516,$GPGGA,000053,4437.5828,N,12402.9432,W,2,08,00.9,22.7,M,-22.1,M,10.0,0302*6B
06/09/2019,00:00:55.435,$GPGGA,000054,4437.5828,N,12402.9432,W,2,08,00.9,22.7,M,-22.1,M,11.0,0302*6D
06/09/2019,00:00:56.641,$GPGGA,000055,4437.5828,N,12402.9432,W,2,08,00.9,22.7,M,-22.1,M,12.0,0302*6F
06/09/2019,00:00:57.541,$GPGGA,000056,4437.5828,N,12402.9432,W,2,08,00.9,22.7,M,-22.1,M,10.0,0302*6E
06/09/2019,00:00:58.627,$GPGGA,000057,4437.5828,N,12402.9432,W,2,08,00.9,22.7,M,-22.1,M,11.0,0302*6E
06/09/2019,00:00:59.605,$GPGGA,000058,4437.5828,N,12402.9432,W,2,08,00.9,22.7,M,-22.1,M,12.0,0302*62
06/09/2019,00:01:00.543,$GPGGA,000059,4437.5828,N,12402.9432,W,2,08,00.9,22.7,M,-22.1,M,10.0,0302*61
06/09/2019,00:01:01.538,$GPGGA,000100,4437.5828,N,12402.9432,W,2,08,00.9,22.7,M,-22.1,M,11.0,0302*6D
06/09/2019,00:01:02.255,$GPGGA,000101,4437.5828,N,12402.9432,W,2,08,00.9,22.7,M,-22.1,M,12.0,0302*6F
06/09/2019,00:01:03.497,$GPGGA,000102,4437.5828,N,12402.9432,W,2,08,00.9,22.7,M,-22.1,M,10.0,0302*6E
06/09/2019,00:01:04.590,$GPGGA,000103,4437.5828,N,12402.9432,W,2,08,00.9,22.7,M,-22.1,M,11.0,0302*6E
06/09/2019,00:01:05.490,$GPGGA,000104,4437.5828,N,12402.9432,W,2,08,00.9,22.7,M,-22.1,M,12.0,0302*6A
06/09/2019,00:01:06.633,$GPGGA,000105,4437.5829,N,12402.9432,W,2,08,00.9,22.7,M,-22.1,M,10.0,0302*68
06/09/2019,00:01:07.604,$GPGGA,000106,4437.5829,N,12402.9432,W,2,08,00.9,22.7,M,-22.1,M,11.0,0302*6A
06/09/2019,00:01:08.590,$GPGGA,000107,4437.5829,N,12402.9432,W,2,08,00.9,22.7,M,-22.1,M,12.0,0302*68
06/09/2019,00:01:09.580,$GPGGA,000108,4437.5829,N,12402.9432,W,2,08,00.9,22.7,M,-22.1,M,10.0,0302*65
06/09/2019,00:01:10.517,$GPGGA,000109,4437.5829,N,12402.9433,W,2,08,00.9,22.7,M,-22.1,M,11.0,0302*64
06/09/2019,00:01:11.545,$GPGGA,000110,4437.5829,N,12402.9433,W,2,08,00.9,22.7,M,-22.1,M,12.0,0302*6F
06/09/2019,00:01:12.723,$GPGGA,000111,4437.5828,N,12402.9433,W,2,08,00.9,22.7,M,-22.1,M,10.0,0302*6D
06/09/2019,00:01:13.380,$GPGGA,000112,4437.5828,N,12402.9433,W,2,08,00.9,22.7,M,-22.1,M,11.0,0302*6F
06/09/2019,00:01:14.616,$GPGGA,000113,4437.5829,N,12402.9433,W,2,08,00.9,22.8,M,-22.1,M,12.0,0302*63
06/09/2019,00:01:15.604,$GPGGA,000114,4437.5829,N,12402.9433,W,2,08,00.9,22.8,M,-22.1,M,10.0,0302*66
06/09/2019,00:01:16.529,$GPGGA,000115,4437.5829,N,12402.9433,W,2,08,00.9,22.8,M,-22.1,M,11.0,0302*66
06/09/2019,00:01:17.616,$GPGGA,000116,4437.5829,N,12402.9433,W,2,08,00.9,22.8,M,-22.1,M,12.0,0302*66
06/09/2019,00:01:18.568,$GPGGA,000117,4437.5829,N,12402.9433,W,2,08,00.9,22.8,M,-22.1,M,10.0,0302*65
06/09/2019,00:01:19.577,$GPGGA,000118,4437.5829,N,12402.9433,W,2,08,00.9,22.8,M,-22.1,M,11.0,0302*6B
06/09/2019,00:01:20.529,$GPGGA,000119,4437.5829,N,12402.9433,W,2,08,00.9,22.8,M,-22.1,M,12.0,0302*69
06/09/2019,00:01:21.365,$GPGGA,000120,4437.5828,N,12402.9433,W,2,08,00.9,22.8,M,-22.1,M,10.0,0302*60
06/09/2019,00:01:22.568,$GPGGA,000121,4437.5828,N,12402.9433,W,2,08,00.9,22.8,M,-22.1,M,11.0,0302*60
06/09/2019,00:01:23.894,$GPGGA,000122,4437.5828,N,12402.9433,W,2,08,00.9,22.8,M,-22.1,M,12.0,0302*60
06/09/2019,00:01:24.590,$GPGGA,000123,4437.5828,N,12402.9433,W,2,08,00.9,22.8,M,-22.1,M,10.0,0302*63
06/09/2019,00:01:25.431,$GPGGA,000124,4437.5828,N,12402.9433,W,2,08,00.9,22.8,M,-22.1,M,11.0,0302*65
06/09/2019,00:01:26.661,$GPGGA,000125,4437.5828,N,12402.9433,W,2,08,00.9,22.8,M,-22.1,M,12.0,0302*67
06/09/2019,00:01:27.589,$GPGGA,000126,4437.5829,N,12402.9433,W,2,08,00.9,22.8,M,-22.1,M,10.0,0302*67
06/09/2019,00:01:28.530,$GPGGA,000127,4437.5829,N,12402.9433,W,2,08,00.9,22.8,M,-22.1,M,11.0,0302*67
06/09/2019,00:01:30.066,$GPGGA,000128,4437.5829,N,12402.9433,W,2,08,00.9,22.8,M,-22.1,M,12.0,0302*6B
06/09/2019,00:01:30.661,$GPGGA,000129,4437.5829,N,12402.9433,W,2,08,00.9,22.8,M,-22.1,M,10.0,0302*68
06/09/2019,00:01:31.437,$GPGGA,000130,4437.5828,N,12402.9433,W,2,08,00.9,22.8,M,-22.1,M,11.0,0302*60
06/09/2019,00:01:32.642,$GPGGA,000131,4437.5828,N,12402.9433,W,2,08,00.9,22.8,M,-22.1,M,12.0,0302*62
06/09/2019,00:01:33.539,$GPGGA,000132,4437.5828,N,12402.9433,W,2,08,00.9,22.8,M,-22.1,M,10.0,0302*63
06/09/2019,00:01:34.456,$GPGGA,000133,4437.5828,N,12402.9433,W,2,08,00.9,22.8,M,-22.1,M,11.0,0302*63
06/09/2019,00:01:35.386,$GPGGA,000134,4437.5828,N,12402.9433,W,2,08,00.9,22.8,M,-22.1,M,12.0,0302*67
06/09/2019,00:01:36.642,$GPGGA,000135,4437.5828,N,12402.9433,W,2,08,00.9,22.8,M,-22.1,M,10.0,0302*64
06/09/2019,00:01:37.543,$GPGGA,000136,4437.5828,N,12402.9433,W,2,08,00.9,22.8,M,-22.1,M,11.0,0302*66
06/09/2019,00:01:38.574,$GPGGA,000137,4437.5828,N,12402.9433,W,2,08,00.9,22.8,M,-22.1,M,12.0,0302*64
06/09/2019,00:01:39.545,$GPGGA,000138,4437.5828,N,12402.9433,W,2,08,00.9,22.8,M,-22.1,M,10.0,0302*69
06/09/2019,00:01:40.529,$GPGGA,000139,4437.5828,N,12402.9433,W,2,08,00.9,22.8,M,-22.1,M,11.0,0302*69
06/09/2019,00:01:41.572,$GPGGA,000140,4437.5828,N,12402.9433,W,2,08,00.9,22.8,M,-22.1,M,12.0,0302*64
06/09/2019,00:01:42.569,$GPGGA,000141,4437.5828,N,12402.9433,W,2,08,00.9,22.8,M,-22.1,M,10.0,0302*67
06/09/2019,00:01:43.452,$GPGGA,000142,4437.5828,N,12402.9433,W,2,08,00.9,22.8,M,-22.1,M,11.0,0302*65
06/09/2019,00:01:44.688,$GPGGA,000143,4437.5828,N,12402.9433,W,2,08,00.9,22.8,M,-22.1,M,12.0,0302*67
06/09/2019,00:01:45.513,$GPGGA,000144,4437.5828,N,12402.9433,W,2,08,00.9,22.8,M,-22.1,M,10.0,0302*62
06/09/2019,00:01:46.862,$GPGGA,000145,4437.5828,N,12402.9433,W,2,08,00.9,22.8,M,-22.1,M,11.0,0302*62
06/09/2019,00:01:47.551,$GPGGA,000146,4437.5828,N,12402.9433,W,2,08,00.9,22.9,M,-22.1,M,12.0,0302*63
06/09/2019,00:01:48.616,$GPGGA,000147,4437.5828,N,12402.9433,W,2,08,00.9,22.8,M,-22.1,M,10.0,0302*61
06/09/2019,00:01:49.432,$GPGGA,000148,4437.5828,N,12402.9433,W,2,08,00.9,22.8,M,-22.1,M,11.0,0302*6F
06/09/2019,00:01:51.457,$GPGGA,000150,4437.5828,N,12402.9432,W,2,08,00.9,22.8,M,-22.1,M,10.0,0302*66
06/09/2019,00:01:52.549,$GPGGA,000151,4437.5828,N,12402.9432,W,2,08,00.9,22.8,M,-22.1,M,11.0,0302*66
06/09/2019,00:01:53.931,$GPGGA,000152,4437.5828,N,12402.9432,W,2,08,00.9,22.8,M,-22.1,M,12.0,0302*66
06/09/2019,00:01:54.545,$GPGGA,000153,4437.5828,N,12402.9432,W,2,08,00.9,22.8,M,-22.1,M,10.0,0302*65
06/09/2019,00:01:55.483,$GPGGA,000154,4437.5828,N,12402.9432,W,2,08,00.9,22.8,M,-22.1,M,11.0,0302*63
06/09/2019,00:01:56.138,$GPGGA,000155,4437.5828,N,12402.9432,W,2,08,00.9,22.8,M,-22.1,M,12.0,0302*61
06/09/2019,00:01:57.480,$GPGGA,000156,4437.5828,N,12402.9432,W,2,08,00.9,22.8,M,-22.1,M,10.0,0302*60
06/09/2019,00:01:58.492,$GPGGA,000157,4437.5828,N,12402.9432,W,2,08,00.9,22.8,M,-22.1,M,11.0,0302*60
06/09/2019,00:02:00.408,$GPGGA,000159,4437.5829,N,12402.9432,W,2,08,00.9,22.8,M,-22.1,M,10.0,0302*6E
06/09/2019,00:02:01.506,$GPGGA,000200,4437.5829,N,12402.9432,W,2,08,00.9,22.8,M,-22.1,M,08.0,0302*68
06/09/2019,00:02:02.591,$GPGGA,000201,4437.5829,N,12402.9432,W,2,08,00.9,22.8,M,-22.1,M,09.0,0302*68
06/09/2019,00:02:03.832,$GPGGA,000202,4437.5828,N,12402.9432,W,2,08,00.9,22.8,M,-22.1,M,08.0,0302*6B
06/09/2019,00:02:04.570,$GPGGA,000203,4437.5828,N,12402.9432,W,2,08,00.9,22.8,M,-22.1,M,09.0,0302*6B
06/09/2019,00:02:05.598,$GPGGA,000204,4437.5828,N,12402.9432,W,2,08,00.9,22.8,M,-22.1,M,10.0,0302*64
06/09/2019,00:02:06.665,$GPGGA,000205,4437.5828,N,12402.9432,W,2,08,00.9,22.8,M,-22.1,M,11.0,0302*64
06/09/2019,00:02:07.286,$GPGGA,000206,4437.5828,N,12402.9432,W,2,08,00.9,22.8,M,-22.1,M,12.0,0302*64
06/09/2019,00:02:08.668,$GPGGA,000207,4437.5828,N,12402.9432,W,2,08,00.9,22.8,M,-22.1,M,09.0,0302*6F
06/09/2019,00:02:09.547,$GPGGA,000208,4437.5829,N,12402.9433,W,2,08,00.9,22.8,M,-22.1,M,10.0,0302*68
06/09/2019,00:02:10.644,$GPGGA,000209,4437.5829,N,12402.9433,W,2,08,00.9,22.8,M,-22.1,M,11.0,0302*68
06/09/2019,00:02:12.382,$GPGGA,000211,4437.5829,N,12402.9433,W,2,08,00.9,22.8,M,-22.1,M,10.0,0302*60
06/09/2019,00:02:13.519,$GPGGA,000212,4437.5828,N,12402.9433,W,2,08,00.9,22.8,M,-22.1,M,09.0,0302*6A
06/09/2019,00:02:14.388,$GPGGA,000213,4437.5828,N,12402.9432,W,2,08,00.9,22.8,M,-22.1,M,10.0,0302*62
06/09/2019,00:02:15.481,$GPGGA,000214,4437.5828,N,12402.9432,W,2,08,00.9,22.8,M,-22.1,M,11.0,0302*64
06/09/2019,00:02:16.580,$GPGGA,000215,4437.5828,N,12402.9432,W,2,08,00.9,22.8,M,-22.1,M,09.0,0302*6C
06/09/2019,00:02:17.534,$GPGGA,000216,4437.5828,N,12402.9432,W,2,08,00.9,22.9,M,-22.1,M,10.0,0302*66
06/09/2019,00:02:18.438,$GPGGA,000217,4437.5828,N,12402.9432,W,2,08,00.9,22.9,M,-22.1,M,11.0,0302*66
06/09/2019,00:02:19.501,$GPGGA,000218,4437.5828,N,12402.9432,W,2,08,00.9,22.9,M,-22.1,M,10.0,0302*68
06/09/2019,00:02:20.593,$GPGGA,000219,4437.5828,N,12402.9433,W,2,08,00.9,22.9,M,-22.1,M,11.0,0302*69
06/09/2019,00:02:21.520,$GPGGA,000220,4437.5828,N,12402.9433,W,2,08,00.9,22.9,M,-22.1,M,12.0,0302*60
06/09/2019,00:02:22.613,$GPGGA,000221,4437.5828,N,12402.9433,W,2,08,00.9,22.9,M,-22.1,M,10.0,0302*63
06/09/2019,00:02:23.648,$GPGGA,000222,4437.5828,N,12402.9433,W,2,08,00.9,22.8,M,-22.1,M,11.0,0302*60
06/09/2019,00:02:24.544,$GPGGA,000223,4437.5828,N,12402.9433,W,2,08,00.9,22.8,M,-22.1,M,09.0,0302*68
06/09/2019,00:02:25.572,$GPGGA,000224,4437.5828,N,12402.9433,W,2,08,00.9,22.9,M,-22.1,M,10.0,0302*66
06/09/2019,00:02:26.551,$GPGGA,000225,4437.5828,N,12402.9433,W,2,08,00.9,22.9,M,-22.1,M,08.0,0302*6E
06/09/2019,00:02:27.592,$GPGGA,000226,4437.5828,N,12402.9433,W,2,08,00.9,22.9,M,-22.1,M,09.0,0302*6C
06/09/2019,00:02:28.544,$GPGGA,000227,4437.5828,N,12402.9433,W,2,08,00.9,22.9,M,-22.1,M,07.0,0302*63
06/09/2019,00:02:29.567,$GPGGA,000228,4437.5828,N,12402.9433,W,2,08,00.9,22.9,M,-22.1,M,08.0,0302*63
06/09/2019,00:02:30.438,$GPGGA,000229,4437.5828,N,12402.9433,W,2,08,00.9,22.9,M,-22.1,M,08.0,0302*62
06/09/2019,00:02:31.532,$GPGGA,000230,4437.5828,N,12402.9433,W,2,08,00.9,22.9,M,-22.1,M,09.0,0302*6B
06/09/2019,00:02:32.544,$GPGGA,000231,4437.5828,N,12402.9433,W,2,08,00.9,22.9,M,-22.1,M,10.0,0302*62
06/09/2019,00:02:33.622,$GPGGA,000232,4437.5828,N,12402.9433,W,2,08,00.9,22.9,M,-22.1,M,10.0,0302*61
06/09/2019,00:02:34.562,$GPGGA,000233,4437.5828,N,12402.9433,W,2,08,00.9,22.9,M,-22.1,M,11.0,0302*61
06/09/2019,00:02:35.544,$GPGGA,000234,4437.5828,N,12402.9433,W,2,08,00.9,22.9,M,-22.1,M,12.0,0302*65
06/09/2019,00:02:36.650,$GPGGA,000235,4437.5828,N,12402.9433,W,2,08,00.9,22.9,M,-22.1,M,09.0,0302*6E
06/09/2019,00:02:37.571,$GPGGA,000236,4437.5828,N,12402.9433,W,2,08,00.9,22.9,M,-22.1,M,10.0,0302*65
06/09/2019,00:02:38.439,$GPGGA,000237,4437.5828,N,12402.9433,W,2,08,00.9,22.9,M,-22.1,M,11.0,0302*65
06/09/2019,00:02:39.632,$GPGGA,000238,4437.5828,N,12402.9433,W,2,08,00.9,22.9,M,-22.1,M,09.0,0302*63
06/09/2019,00:02:40.545,$GPGGA,000239,4437.5828,N,12402.9433,W,2,08,00.9,22.9,M,-22.1,M,10.0,0302*6A
06/09/2019,00:02:41.567,$GPGGA,000240,4437.5828,N,12402.9433,W,2,08,00.9,22.9,M,-22.1,M,09.0,0302*6C
06/09/2019,00:02:42.438,$GPGGA,000241,4437.5828,N,12402.9433,W,2,08,00.9,22.9,M,-22.1,M,10.0,0302*65
06/09/2019,00:02:43.640,$GPGGA,000242,4437.5828,N,12402.9433,W,2,08,00.9,22.9,M,-22.1,M,11.0,0302*67
06/09/2019,00:02:44.547,$GPGGA,000243,4437.5828,N,12402.9433,W,2,08,00.9,23.0,M,-22.1,M,09.0,0302*67
06/09/2019,00:02:45.459,$GPGGA,000244,4437.5828,N,12402.9433,W,2,08,00.9,23.0,M,-22.1,M,10.0,0302*68
06/09/2019,00:02:46.552,$GPGGA,000245,4437.5828,N,12402.9433,W,2,08,00.9,23.0,M,-22.1,M,11.0,0302*68
06/09/2019,00:02:47.644,$GPGGA,000246,4437.5828,N,12402.9433,W,2,08,00.9,23.0,M,-22.1,M,10.0,0302*6A
06/09/2019,00:02:48.547,$GPGGA,000247,4437.5828,N,12402.9433,W,2,08,00.9,23.0,M,-22.1,M,11.0,0302*6A
06/09/2019,00:02:49.567,$GPGGA,000248,4437.5828,N,12402.9433,W,2,08,00.9,23.0,M,-22.1,M,12.0,0302*66
06/09/2019,00:02:50.439,$GPGGA,000249,4437.5828,N,12402.9433,W,2,08,00.9,23.0,M,-22.1,M,10.0,0302*65
06/09/2019,00:02:51.543,$GPGGA,000250,4437.5828,N,12402.9433,W,2,08,00.9,23.0,M,-22.1,M,11.0,0302*6C
06/09/2019,00:02:52.434,$GPGGA,000251,4437.5828,N,12402.9433,W,2,08,00.9,23.0,M,-22.1,M,09.0,0302*64
06/09/2019,00:02:53.459,$GPGGA,000252,4437.5828,N,12402.9433,W,2,08,00.9,23.0,M,-22.1,M,10.0,0302*6F
06/09/2019,00:02:54.712,$GPGGA,000253,4437.5828,N,12402.9433,W,2,08,00.9,23.0,M,-22.1,M,08.0,0302*67
06/09/2019,00:02:55.641,$GPGGA,000254,4437.5828,N,12402.9433,W,2,08,00.9,23.0,M,-22.1,M,09.0,0302*61
06/09/2019,00:02:56.548,$GPGGA,000255,4437.5828,N,12402.9433,W,2,08,00.9,23.0,M,-22.1,M,10.0,0302*68
06/09/2019,00:02:57.571,$GPGGA,000256,4437.5828,N,12402.9433,W,2,08,00.9,23.0,M,-22.1,M,11.0,0302*6A
06/09/2019,00:02:58.552,$GPGGA,000257,4437.5828,N,12402.9433,W,2,08,00.9,23.0,M,-22.1,M,12.0,0302*68
06/09/2019,00:02:59.578,$GPGGA,000258,4437.5828,N,12402.9433,W,2,08,00.9,23.0,M,-22.1,M,13.0,0302*66
06/09/2019,00:03:00.809,$GPGGA,000259,4437.5828,N,12402.9433,W,2,08,00.9,23.0,M,-22.1,M,10.0,0302*64
06/09/2019,00:03:01.642,$GPGGA,000300,4437.5828,N,12402.9433,W,2,08,00.9,23.0,M,-22.1,M,11.0,0302*68
06/09/2019,00:03:02.478,$GPGGA,000301,4437.5828,N,12402.9433,W,2,08,00.9,23.1,M,-22.1,M,12.0,0302*6B
06/09/2019,00:03:03.669,$GPGGA,000302,4437.5828,N,12402.9433,W,2,08,00.9,23.1,M,-22.1,M,10.0,0302*6A
06/09/2019,00:03:04.546,$GPGGA,000303,4437.5828,N,12402.9433,W,2,08,00.9,23.1,M,-22.1,M,11.0,0302*6A
06/09/2019,00:03:05.569,$GPGGA,000304,4437.5828,N,12402.9433,W,2,08,00.9,23.1,M,-22.1,M,12.0,0302*6E
06/09/2019,00:03:06.439,$GPGGA,000305,4437.5828,N,12402.9433,W,2,08,00.9,23.1,M,-22.1,M,10.0,0302*6D
06/09/2019,00:03:07.512,$GPGGA,000306,4437.5828,N,12402.9433,W,2,08,00.9,23.1,M,-22.1,M,11.0,0302*6F
06/09/2019,00:03:08.687,$GPGGA,000307,4437.5828,N,12402.9433,W,2,08,00.9,23.1,M,-22.1,M,12.0,0302*6D
06/09/2019,00:03:09.521,$GPGGA,000308,4437.5828,N,12402.9433,W,2,08,00.9,23.1,M,-22.1,M,10.0,0302*60
06/09/2019,00:03:10.763,$GPGGA,000309,4437.5828,N,12402.9433,W,2,08,00.9,23.1,M,-22.1,M,11.0,0302*60
06/09/2019,00:03:11.642,$GPGGA,000310,4437.5828,N,12402.9433,W,2,08,00.9,23.1,M,-22.1,M,12.0,0302*6B
06/09/2019,00:03:12.435,$GPGGA,000311,4437.5828,N,12402.9433,W,2,08,00.9,23.1,M,-22.1,M,10.0,0302*68
06/09/2019,00:03:13.521,$GPGGA,000312,4437.5828,N,12402.9433,W,2,08,00.9,23.1,M,-22.1,M,11.0,0302*6A
06/09/2019,00:03:14.390,$GPGGA,000313,4437.5828,N,12402.9433,W,2,08,00.9,23.1,M,-22.1,M,12.0,0302*68
06/09/2019,00:03:15.594,$GPGGA,000314,4437.5828,N,12402.9433,W,2,08,00.9,23.1,M,-22.1,M,10.0,0302*6D
06/09/2019,00:03:16.494,$GPGGA,000315,4437.5828,N,12402.9434,W,2,08,00.9,23.1,M,-22.1,M,11.0,0302*6A
06/09/2019,00:03:17.587,$GPGGA,000316,4437.5827,N,12402.9434,W,2,08,00.9,23.1,M,-22.1,M,12.0,0302*65
06/09/2019,00:03:18.614,$GPGGA,000317,4437.5827,N,12402.9434,W,2,08,00.9,23.1,M,-22.1,M,10.0,0302*66
06/09/2019,00:03:19.594,$GPGGA,000318,4437.5827,N,12402.9434,W,2,08,00.9,23.1,M,-22.1,M,11.0,0302*68
06/09/2019,00:03:20.596,$GPGGA,000319,4437.5827,N,12402.9434,W,2,08,00.9,23.1,M,-22.1,M,12.0,0302*6A
06/09/2019,00:03:22.621,$GPGGA,000321,4437.5827,N,12402.9434,W,2,08,00.9,23.1,M,-22.1,M,11.0,0302*62
06/09/2019,00:03:23.503,$GPGGA,000322,4437.5827,N,12402.9433,W,2,08,00.9,23.1,M,-22.1,M,12.0,0302*65
06/09/2019,00:03:24.671,$GPGGA,000323,4437.5827,N,12402.9433,W,2,08,00.9,23.2,M,-22.1,M,10.0,0302*65
06/09/2019,00:03:25.494,$GPGGA,000324,4437.5827,N,12402.9433,W,2,08,00.9,23.2,M,-22.1,M,11.0,0302*63
06/09/2019,00:03:26.563,$GPGGA,000325,4437.5827,N,12402.9433,W,2,08,00.9,23.2,M,-22.1,M,12.0,0302*61
06/09/2019,00:03:27.619,$GPGGA,000326,4437.5827,N,12402.9433,W,2,08,00.9,23.2,M,-22.1,M,10.0,0302*60
06/09/2019,00:03:28.652,$GPGGA,000327,4437.5827,N,12402.9433,W,2,08,00.9,23.2,M,-22.1,M,11.0,0302*60
06/09/2019,00:03:29.627,$GPGGA,000328,4437.5827,N,12402.9433,W,2,08,00.9,23.2,M,-22.1,M,12.0,0302*6C
06/09/2019,00:03:30.461,$GPGGA,000329,4437.5827,N,12402.9433,W,2,08,00.9,23.2,M,-22.1,M,10.0,0302*6F
06/09/2019,00:03:31.440,$GPGGA,000330,4437.5827,N,12402.9433,W,2,08,00.9,23.2,M,-22.1,M,11.0,0302*66
06/09/2019,00:03:32.433,$GPGGA,000331,4437.5827,N,12402.9433,W,2,08,00.9,23.2,M,-22.1,M,12.0,0302*64
06/09/2019,00:03:33.436,$GPGGA,000332,4437.5827,N,12402.9433,W,2,08,00.9,23.2,M,-22.1,M,10.0,0302*65
06/09/2019,00:03:34.574,$GPGGA,000333,4437.5827,N,12402.9433,W,2,08,00.9,23.2,M,-22.1,M,11.0,0302*65
06/09/2019,00:03:35.456,$GPGGA,000334,4437.5827,N,12402.9433,W,2,08,00.9,23.2,M,-22.1,M,09.0,0302*6B
06/09/2019,00:03:36.496,$GPGGA,000335,4437.5827,N,12402.9433,W,2,08,00.9,23.2,M,-22.1,M,10.0,0302*62
06/09/2019,00:03:37.386,$GPGGA,000336,4437.5827,N,12402.9433,W,2,08,00.9,23.2,M,-22.1,M,08.0,0302*68
06/09/2019,00:03:38.522,$GPGGA,000337,4437.5827,N,12402.9433,W,2,08,00.9,23.2,M,-22.1,M,09.0,0302*68
06/09/2019,00:03:39.629,$GPGGA,000338,4437.5827,N,12402.9433,W,2,08,00.9,23.2,M,-22.1,M,10.0,0302*6F
06/09/2019,00:03:40.484,$GPGGA,000339,4437.5827,N,12402.9433,W,2,08,00.9,23.2,M,-22.1,M,10.0,0302*6E
06/09/2019,00:03:41.495,$GPGGA,000340,4437.5827,N,12402.9433,W,2,08,00.9,23.1,M,-22.1,M,11.0,0302*62
06/09/2019,00:03:42.411,$GPGGA,000341,4437.5827,N,12402.9433,W,2,08,00.9,23.1,M,-22.1,M,09.0,0302*6A
06/09/2019,00:03:43.502,$GPGGA,000342,4437.5827,N,12402.9433,W,2,08,00.9,23.1,M,-22.1,M,10.0,0302*61
06/09/2019,00:03:44.595,$GPGGA,000343,4437.5827,N,12402.9433,W,2,08,00.9,23.1,M,-22.1,M,08.0,0302*69
06/09/2019,00:03:45.386,$GPGGA,000344,4437.5827,N,12402.9433,W,2,08,00.9,23.1,M,-22.1,M,09.0,0302*6F
06/09/2019,00:03:46.633,$GPGGA,000345,4437.5827,N,12402.9433,W,2,08,00.9,23.1,M,-22.1,M,09.0,0302*6E
06/09/2019,00:03:47.670,$GPGGA,000346,4437.5827,N,12402.9433,W,2,08,00.9,23.1,M,-22.1,M,10.0,0302*65
06/09/2019,00:03:49.018,$GPGGA,000347,4437.5827,N,12402.9433,W,2,08,00.9,23.1,M,-22.1,M,11.0,0302*65
06/09/2019,00:03:49.480,$GPGGA,000348,4437.5827,N,12402.9433,W,2,08,00.9,23.1,M,-22.1,M,09.0,0302*63
06/09/2019,00:03:50.462,$GPGGA,000349,4437.5827,N,12402.9433,W,2,08,00.9,23.1,M,-22.1,M,10.0,0302*6A
06/09/2019,00:03:51.549,$GPGGA,000350,4437.5827,N,12402.9433,W,2,08,00.9,23.1,M,-22.1,M,08.0,0302*6B
06/09/2019,00:03:52.692,$GPGGA,000351,4437.5827,N,12402.9433,W,2,08,00.9,23.1,M,-22.1,M,09.0,0302*6B
06/09/2019,00:03:53.336,$GPGGA,000352,4437.5827,N,12402.9433,W,2,08,00.9,23.1,M,-22.1,M,10.0,0302*60
06/09/2019,00:03:54.681,$GPGGA,000353,4437.5826,N,12402.9433,W,2,08,00.9,23.1,M,-22.1,M,08.0,0302*69
06/09/2019,00:03:55.444,$GPGGA,000354,4437.5826,N,12402.9433,W,2,08,00.9,23.1,M,-22.1,M,09.0,0302*6F
06/09/2019,00:03:56.877,$GPGGA,000355,4437.5826,N,12402.9433,W,2,08,00.9,23.1,M,-22.1,M,10.0,0302*66
06/09/2019,00:03:57.441,$GPGGA,000356,4437.5826,N,12402.9433,W,2,08,00.9,23.1,M,-22.1,M,09.0,0302*6D
06/09/2019,00:03:58.578,$GPGGA,000357,4437.5826,N,12402.9433,W,2,08,00.9,23.1,M,-22.1,M,10.0,0302*64
06/09/2019,00:03:59.446,$GPGGA,000358,4437.5826,N,12402.9433,W,2,08,00.9,23.1,M,-22.1,M,11.0,0302*6A
06/09/2019,00:04:00.539,$GPGGA,000359,4437.5826,N,12402.9433,W,2,08,00.9,23.1,M,-22.1,M,09.0,0302*62
06/09/2019,00:04:01.517,$GPGGA,000400,4437.5826,N,12402.9433,W,2,08,00.9,23.1,M,-22.1,M,10.0,0302*61
06/09/2019,00:04:02.704,$GPGGA,000401,4437.5826,N,12402.9433,W,2,08,00.9,23.1,M,-22.1,M,08.0,0302*69
06/09/2019,00:04:03.558,$GPGGA,000402,4437.5826,N,12402.9434,W,2,08,00.9,23.1,M,-22.1,M,09.0,0302*6C
06/09/2019,00:04:04.539,$GPGGA,000403,4437.5826,N,12402.9434,W,2,08,00.9,23.2,M,-22.1,M,10.0,0302*66
06/09/2019,00:04:05.549,$GPGGA,000404,4437.5827,N,12402.9434,W,2,08,00.9,23.1,M,-22.1,M,11.0,0302*62
06/09/2019,00:04:06.467,$GPGGA,000405,4437.5827,N,12402.9434,W,2,08,00.9,23.1,M,-22.1,M,12.0,0302*60
06/09/2019,00:04:07.446,$GPGGA,000406,4437.5826,N,12402.9434,W,2,08,00.9,23.1,M,-22.1,M,13.0,0302*63
06/09/2019,00:04:08.654,$GPGGA,000407,4437.5826,N,12402.9434,W,2,08,00.9,23.1,M,-22.1,M,10.0,0302*61
06/09/2019,00:04:09.441,$GPGGA,000408,4437.5826,N,12402.9433,W,2,08,00.9,23.1,M,-22.1,M,11.0,0302*68
06/09/2019,00:04:10.579,$GPGGA,000409,4437.5826,N,12402.9433,W,2,08,00.9,23.1,M,-22.1,M,12.0,0302*6A
06/09/2019,00:04:11.462,$GPGGA,000410,4437.5826,N,12402.9433,W,2,08,00.9,23.1,M,-22.1,M,10.0,0302*60
06/09/2019,00:04:12.540,$GPGGA,000411,4437.5826,N,12402.9433,W,2,08,00.9,23.1,M,-22.1,M,11.0,0302*60
06/09/2019,00:04:13.508,$GPGGA,000412,4437.5826,N,12402.9433,W,2,08,00.9,23.2,M,-22.1,M,12.0,0302*63
06/09/2019,00:04:14.416,$GPGGA,000413,4437.5827,N,12402.9433,W,2,08,00.9,23.1,M,-22.1,M,10.0,0302*62
06/09/2019,00:04:15.510,$GPGGA,000414,4437.5827,N,12402.9433,W,2,08,00.9,23.1,M,-22.1,M,11.0,0302*64
06/09/2019,00:04:16.655,$GPGGA,000415,4437.5827,N,12402.9433,W,2,08,00.9,23.1,M,-22.1,M,12.0,0302*66
06/09/2019,00:04:17.442,$GPGGA,000416,4437.5827,N,12402.9433,W,2,08,00.9,23.1,M,-22.1,M,10.0,0302*67
06/09/2019,00:04:18.528,$GPGGA,000417,4437.5827,N,12402.9433,W,2,08,00.9,23.1,M,-22.1,M,11.0,0302*67
06/09/2019,00:04:19.771,$GPGGA,000418,4437.5827,N,12402.9433,W,2,08,00.9,23.1,M,-22.1,M,09.0,0302*61
06/09/2019,00:04:20.601,$GPGGA,000419,4437.5826,N,12402.9433,W,2,08,00.9,23.1,M,-22.1,M,10.0,0302*69
06/09/2019,00:04:21.391,$GPGGA,000420,4437.5826,N,12402.9433,W,2,08,00.9,23.1,M,-22.1,M,08.0,0302*6A
06/09/2019,00:04:22.770,$GPGGA,000421,4437.5826,N,12402.9433,W,2,08,00.9,23.1,M,-22.1,M,09.0,0302*6A
06/09/2019,00:04:23.508,$GPGGA,000422,4437.5826,N,12402.9433,W,2,08,00.9,23.1,M,-22.1,M,10.0,0302*61
06/09/2019,00:04:24.601,$GPGGA,000423,4437.5826,N,12402.9433,W,2,08,00.9,23.2,M,-22.1,M,09.0,0302*6B
06/09/2019,00:04:25.391,$GPGGA,000424,4437.5826,N,12402.9433,W,2,08,00.9,23.2,M,-22.1,M,10.0,0302*64
06/09/2019,00:04:26.527,$GPGGA,000425,4437.5826,N,12402.9433,W,2,08,00.9,23.2,M,-22.1,M,11.0,0302*64
06/09/2019,00:04:27.405,$GPGGA,000426,4437.5826,N,12402.9433,W,2,08,00.9,23.2,M,-22.1,M,10.0,0302*66
06/09/2019,00:04:28.490,$GPGGA,000427,4437.5826,N,12402.9433,W,2,08,00.9,23.2,M,-22.1,M,11.0,0302*66
06/09/2019,00:04:29.502,$GPGGA,000428,4437.5826,N,12402.9433,W,2,08,00.9,23.2,M,-22.1,M,09.0,0302*60
06/09/2019,00:04:30.228,$GPGGA,000429,4437.5826,N,12402.9433,W,2,08,00.9,23.2,M,-22.1,M,10.0,0302*69
06/09/2019,00:04:31.603,$GPGGA,000430,4437.5826,N,12402.9433,W,2,08,00.9,23.2,M,-22.1,M,11.0,0302*60
06/09/2019,00:04:32.548,$GPGGA,000431,4437.5826,N,12402.9433,W,2,08,00.9,23.2,M,-22.1,M,09.0,0302*68
06/09/2019,00:04:33.401,$GPGGA,000432,4437.5826,N,12402.9433,W,2,08,00.9,23.2,M,-22.1,M,10.0,0302*63
06/09/2019,00:04:34.528,$GPGGA,000433,4437.5826,N,12402.9433,W,2,08,00.9,23.2,M,-22.1,M,09.0,0302*6A
06/09/2019,00:04:35.602,$GPGGA,000434,4437.5826,N,12402.9433,W,2,08,00.9,23.2,M,-22.1,M,10.0,0302*65
06/09/2019,00:04:36.602,$GPGGA,000435,4437.5826,N,12402.9434,W,2,08,00.9,23.2,M,-22.1,M,11.0,0302*62
06/09/2019,00:04:37.392,$GPGGA,000436,4437.5826,N,12402.9434,W,2,08,00.9,23.2,M,-22.1,M,09.0,0302*68
06/09/2019,00:04:38.608,$GPGGA,000437,4437.5826,N,12402.9434,W,2,08,00.9,23.2,M,-22.1,M,10.0,0302*61
06/09/2019,00:04:39.647,$GPGGA,000438,4437.5826,N,12402.9434,W,2,08,00.9,23.2,M,-22.1,M,09.0,0302*66
06/09/2019,00:04:40.601,$GPGGA,000439,4437.5826,N,12402.9434,W,2,08,00.9,23.2,M,-22.1,M,10.0,0302*6F
06/09/2019,00:04:41.592,$GPGGA,000440,4437.5826,N,12402.9434,W,2,08,00.9,23.2,M,-22.1,M,08.0,0302*68
06/09/2019,00:04:43.469,$GPGGA,000442,4437.5826,N,12402.9434,W,2,08,00.9,23.2,M,-22.1,M,10.0,0302*63
06/09/2019,00:04:44.347,$GPGGA,000443,4437.5826,N,12402.9434,W,2,08,00.9,23.2,M,-22.1,M,10.0,0302*62
06/09/2019,00:04:45.540,$GPGGA,000444,4437.5826,N,12402.9434,W,2,08,00.9,23.2,M,-22.1,M,11.0,0302*64
06/09/2019,00:04:46.554,$GPGGA,000445,4437.5826,N,12402.9434,W,2,08,00.9,23.2,M,-22.1,M,09.0,0302*6C
06/09/2019,00:04:47.580,$GPGGA,000446,4437.5826,N,12402.9435,W,2,08,00.9,23.2,M,-22.1,M,10.0,0302*66
06/09/2019,00:04:48.449,$GPGGA,000447,4437.5826,N,12402.9435,W,2,08,00.9,23.2,M,-22.1,M,08.0,0302*6E
06/09/2019,00:04:49.649,$GPGGA,000448,4437.5826,N,12402.9435,W,2,08,00.9,23.1,M,-22.1,M,09.0,0302*63
06/09/2019,00:04:50.701,$GPGGA,000449,4437.5826,N,12402.9435,W,2,08,00.9,23.1,M,-22.1,M,10.0,0302*6A
06/09/2019,00:04:51.550,$GPGGA,000450,4437.5826,N,12402.9435,W,2,08,00.9,23.1,M,-22.1,M,10.0,0302*62
06/09/2019,00:04:52.446,$GPGGA,000451,4437.5826,N,12402.9435,W,2,08,00.9,23.1,M,-22.1,M,11.0,0302*62
06/09/2019,00:04:53.490,$GPGGA,000452,4437.5826,N,12402.9435,W,2,08,00.9,23.1,M,-22.1,M,12.0,0302*62
06/09/2019,00:04:54.530,$GPGGA,000453,4437.5826,N,12402.9435,W,2,08,00.9,23.1,M,-22.1,M,09.0,0302*69
06/09/2019,00:04:55.418,$GPGGA,000454,4437.5826,N,12402.9435,W,2,08,00.9,23.1,M,-22.1,M,10.0,0302*66
06/09/2019,00:04:56.723,$GPGGA,000455,4437.5826,N,12402.9435,W,2,08,00.9,23.1,M,-22.1,M,11.0,0302*66
06/09/2019,00:04:57.709,$GPGGA,000456,4437.5826,N,12402.9435,W,2,08,00.9,23.1,M,-22.1,M,10.0,0302*64
06/09/2019,00:04:58.600,$GPGGA,000457,4437.5826,N,12402.9434,W,2,08,00.9,23.1,M,-22.1,M,11.0,0302*65
06/09/2019,00:05:00.418,$GPGGA,000459,4437.5826,N,12402.9434,W,2,08,00.9,23.1,M,-22.1,M,10.0,0302*6A
06/09/2019,00:05:01.708,$GPGGA,000500,4437.5826,N,12402.9434,W,2,08,00.9,23.1,M,-22.1,M,11.0,0302*66
06/09/2019,00:05:03.491,$GPGGA,000502,4437.5826,N,12402.9434,W,2,08,00.9,23.1,M,-22.1,M,10.0,0302*65
06/09/2019,00:05:04.476,$GPGGA,000503,4437.5826,N,12402.9434,W,2,08,00.9,23.1,M,-22.1,M,11.0,0302*65
06/09/2019,00:05:05.620,$GPGGA,000504,4437.5826,N,12402.9434,W,2,08,00.9,23.1,M,-22.1,M,09.0,0302*6B
06/09/2019,00:05:07.399,$GPGGA,000506,4437.5826,N,12402.9434,W,2,08,00.9,23.1,M,-22.1,M,08.0,0302*68
06/09/2019,00:05:08.603,$GPGGA,000507,4437.5826,N,12402.9434,W,2,08,00.9,23.1,M,-22.1,M,09.0,0302*68
06/09/2019,00:05:09.593,$GPGGA,000508,4437.5826,N,12402.9434,W,2,08,00.9,23.1,M,-22.1,M,08.0,0302*66
06/09/2019,00:05:10.530,$GPGGA,000509,4437.5826,N,12402.9434,W,2,08,00.9,23.1,M,-22.1,M,09.0,0302*66
06/09/2019,00:05:11.799,$GPGGA,000510,4437.5826,N,12402.9434,W,2,08,00.9,23.1,M,-22.1,M,10.0,0302*66
06/09/2019,00:05:12.603,$GPGGA,000511,4437.5826,N,12402.9434,W,2,08,00.9,23.2,M,-22.1,M,11.0,0302*65
06/09/2019,00:05:13.393,$GPGGA,000512,4437.5826,N,12402.9435,W,2,08,00.9,23.3,M,-22.1,M,12.0,0302*65
06/09/2019,00:05:14.446,$GPGGA,000513,4437.5826,N,12402.9435,W,2,08,00.9,23.4,M,-22.1,M,13.0,0302*62
06/09/2019,00:05:15.554,$GPGGA,000514,4437.5826,N,12402.9435,W,2,08,00.9,23.4,M,-22.1,M,10.0,0302*66
06/09/2019,00:05:16.551,$GPGGA,000515,4437.5826,N,12402.9434,W,2,08,00.9,23.4,M,-22.1,M,11.0,0302*67
06/09/2019,00:05:17.502,$GPGGA,000516,4437.5826,N,12402.9434,W,2,08,00.9,23.4,M,-22.1,M,09.0,0302*6D
06/09/2019,00:05:18.613,$GPGGA,000517,4437.5826,N,12402.9434,W,2,08,00.9,23.4,M,-22.1,M,10.0,0302*64
06/09/2019,00:05:19.399,$GPGGA,000518,4437.5826,N,12402.9434,W,2,08,00.9,23.3,M,-22.1,M,08.0,0302*65
06/09/2019,00:05:20.604,$GPGGA,000519,4437.5826,N,12402.9434,W,2,08,00.9,23.3,M,-22.1,M,09.0,0302*65
06/09/2019,00:05:21.594,$GPGGA,000520,4437.5826,N,12402.9435,W,2,08,00.9,23.3,M,-22.1,M,10.0,0302*66
06/09/2019,00:05:22.530,$GPGGA,000521,4437.5826,N,12402.9435,W,2,08,00.9,23.3,M,-22.1,M,09.0,0302*6F
06/09/2019,00:05:23.819,$GPGGA,000522,4437.5826,N,12402.9435,W,2,08,00.9,23.2,M,-22.1,M,10.0,0302*65
06/09/2019,00:05:24.692,$GPGGA,000523,4437.5826,N,12402.9435,W,2,08,00.9,23.2,M,-22.1,M,11.0,0302*65
06/09/2019,00:05:25.503,$GPGGA,000524,4437.5826,N,12402.9434,W,2,08,00.9,23.2,M,-22.1,M,10.0,0302*62
06/09/2019,00:05:27.523,$GPGGA,000526,4437.5826,N,12402.9434,W,2,08,00.9,23.1,M,-22.1,M,12.0,0302*61
06/09/2019,00:05:28.585,$GPGGA,000527,4437.5826,N,12402.9434,W,2,08,00.9,23.1,M,-22.1,M,10.0,0302*62
06/09/2019,00:05:29.603,$GPGGA,000528,4437.5826,N,12402.9434,W,2,08,00.9,23.1,M,-22.1,M,11.0,0302*6C
06/09/2019,00:05:30.600,$GPGGA,000529,4437.5826,N,12402.9434,W,2,08,00.9,23.1,M,-22.1,M,12.0,0302*6E
06/09/2019,00:05:31.470,$GPGGA,000530,4437.5826,N,12402.9434,W,2,08,00.9,23.1,M,-22.1,M,10.0,0302*64
06/09/2019,00:05:32.450,$GPGGA,000531,4437.5826,N,12402.9434,W,2,08,00.9,23.1,M,-22.1,M,11.0,0302*64
06/09/2019,00:05:33.650,$GPGGA,000532,4437.5826,N,12402.9434,W,2,08,00.9,23.1,M,-22.1,M,12.0,0302*64
06/09/2019,00:05:34.444,$GPGGA,000533,4437.5826,N,12402.9434,W,2,08,00.9,23.0,M,-22.1,M,10.0,0302*66
06/09/2019,00:05:36.387,$GPGGA,000535,4437.5826,N,12402.9434,W,2,08,00.9,23.0,M,-22.1,M,12.0,0302*62
06/09/2019,00:05:37.713,$GPGGA,000536,4437.5826,N,12402.9434,W,2,08,00.9,23.0,M,-22.1,M,10.0,0302*63
06/09/2019,00:05:39.492,$GPGGA,000538,4437.5826,N,12402.9434,W,2,08,00.9,23.0,M,-22.1,M,12.0,0302*6F
06/09/2019,00:05:40.556,$GPGGA,000539,4437.5826,N,12402.9434,W,2,08,00.9,23.0,M,-22.1,M,10.0,0302*6C
06/09/2019,00:05:42.419,$GPGGA,000541,4437.5826,N,12402.9434,W,2,08,00.9,23.0,M,-22.1,M,12.0,0302*61
06/09/2019,00:05:43.599,$GPGGA,000542,4437.5826,N,12402.9434,W,2,08,00.9,23.0,M,-22.1,M,10.0,0302*60
06/09/2019,00:05:44.603,$GPGGA,000543,4437.5826,N,12402.9433,W,2,08,00.9,23.0,M,-22.1,M,11.0,0302*67
06/09/2019,00:05:45.504,$GPGGA,000544,4437.5826,N,12402.9433,W,2,08,00.9,23.0,M,-22.1,M,12.0,0302*63
06/09/2019,00:05:46.420,$GPGGA,000545,4437.5826,N,12402.9433,W,2,08,00.9,23.0,M,-22.1,M,10.0,0302*60
06/09/2019,00:05:47.511,$GPGGA,000546,4437.5826,N,12402.9433,W,2,08,00.9,23.0,M,-22.1,M,11.0,0302*62
06/09/2019,00:05:48.604,$GPGGA,000547,4437.5826,N,12402.9433,W,2,08,00.9,23.0,M,-22.1,M,12.0,0302*60
06/09/2019,00:05:50.510,$GPGGA,000549,4437.5826,N,12402.9433,W,2,08,00.9,23.0,M,-22.1,M,11.0,0302*6D
06/09/2019,00:05:51.485,$GPGGA,000550,4437.5826,N,12402.9433,W,2,08,00.9,23.0,M,-22.1,M,09.0,0302*6C
06/09/2019,00:05:52.562,$GPGGA,000551,4437.5826,N,12402.9433,W,2,08,00.9,23.0,M,-22.1,M,10.0,0302*65
06/09/2019,00:05:53.544,$GPGGA,000552,4437.5826,N,12402.9433,W,2,08,00.9,23.0,M,-22.1,M,08.0,0302*6F
06/09/2019,00:05:54.561,$GPGGA,000553,4437.5826,N,12402.9433,W,2,08,00.9,23.0,M,-22.1,M,09.0,0302*6F
06/09/2019,00:05:55.471,$GPGGA,000554,4437.5826,N,12402.9433,W,2,08,00.9,23.0,M,-22.1,M,10.0,0302*60
06/09/2019,00:05:56.561,$GPGGA,000555,4437.5826,N,12402.9433,W,2,08,00.9,23.0,M,-22.1,M,08.0,0302*68
06/09/2019,00:05:57.553,$GPGGA,000556,4437.5826,N,12402.9433,W,2,08,00.9,23.0,M,-22.1,M,09.0,0302*6A
06/09/2019,00:05:58.445,$GPGGA,000557,4437.5826,N,12402.9433,W,2,08,00.9,23.0,M,-22.1,M,10.0,0302*63
06/09/2019,00:05:59.437,$GPGGA,000558,4437.5826,N,12402.9433,W,2,08,00.9,23.0,M,-22.1,M,10.0,0302*6C
06/09/2019,00:06:00.535,$GPGGA,000559,4437.5826,N,12402.9433,W,2,08,00.9,23.0,M,-22.1,M,11.0,0302*6C
06/09/2019,00:06:01.694,$GPGGA,000600,4437.5826,N,12402.9433,W,2,08,00.9,23.0,M,-22.1,M,12.0,0302*60
06/09/2019,00:06:03.504,$GPGGA,000602,4437.5826,N,12402.9433,W,2,08,00.9,22.9,M,-22.1,M,11.0,0302*69
06/09/2019,00:06:04.420,$GPGGA,000603,4437.5826,N,12402.9433,W,2,08,00.9,22.9,M,-22.1,M,09.0,0302*61
06/09/2019,00:06:05.511,$GPGGA,000604,4437.5826,N,12402.9433,W,2,08,00.9,22.9,M,-22.1,M,10.0,0302*6E
06/09/2019,00:06:06.605,$GPGGA,000605,4437.5826,N,12402.9433,W,2,08,00.9,22.9,M,-22.1,M,08.0,0302*66
06/09/2019,00:06:07.555,$GPGGA,000606,4437.5826,N,12402.9433,W,2,08,00.9,22.9,M,-22.1,M,09.0,0302*64
06/09/2019,00:06:08.471,$GPGGA,000607,4437.5826,N,12402.9432,W,2,08,00.9,22.9,M,-22.1,M,10.0,0302*6C
06/09/2019,00:06:09.558,$GPGGA,000608,4437.5826,N,12402.9432,W,2,08,00.9,22.9,M,-22.1,M,10.0,0302*63
06/09/2019,00:06:11.546,$GPGGA,000610,4437.5825,N,12402.9432,W,2,08,00.9,22.9,M,-22.1,M,12.0,0302*6B
06/09/2019,00:06:12.445,$GPGGA,000611,4437.5826,N,12402.9432,W,2,08,00.9,22.9,M,-22.1,M,09.0,0302*63
06/09/2019,00:06:13.969,$GPGGA,000612,4437.5826,N,12402.9432,W,2,08,00.9,22.9,M,-22.1,M,10.0,0302*68
06/09/2019,00:06:15.453,$GPGGA,000614,4437.5826,N,12402.9433,W,2,08,00.9,22.9,M,-22.1,M,10.0,0302*6F
06/09/2019,00:06:16.546,$GPGGA,000615,4437.5826,N,12402.9433,W,2,08,00.9,22.9,M,-22.1,M,08.0,0302*67
06/09/2019,00:06:17.618,$GPGGA,000616,4437.5826,N,12402.9433,W,2,08,00.9,22.9,M,-22.1,M,09.0,0302*65
06/09/2019,00:06:18.472,$GPGGA,000617,4437.5826,N,12402.9433,W,2,08,00.9,22.9,M,-22.1,M,10.0,0302*6C
06/09/2019,00:06:19.557,$GPGGA,000618,4437.5826,N,12402.9432,W,2,08,00.9,22.9,M,-22.1,M,09.0,0302*6A
06/09/2019,00:06:20.603,$GPGGA,000619,4437.5826,N,12402.9432,W,2,08,00.9,22.9,M,-22.1,M,10.0,0302*63
06/09/2019,00:06:21.552,$GPGGA,000620,4437.5825,N,12402.9432,W,2,08,00.9,22.9,M,-22.1,M,11.0,0302*6B
06/09/2019,00:06:22.473,$GPGGA,000621,4437.5825,N,12402.9432,W,2,08,00.9,22.9,M,-22.1,M,10.0,0302*6B
06/09/2019,00:06:23.414,$GPGGA,000622,4437.5825,N,12402.9432,W,2,08,00.9,22.9,M,-22.1,M,11.0,0302*69
06/09/2019,00:06:24.546,$GPGGA,000623,4437.5825,N,12402.9432,W,2,08,00.9,22.9,M,-22.1,M,12.0,0302*6B
06/09/2019,00:06:25.446,$GPGGA,000624,4437.5826,N,12402.9432,W,2,08,00.9,22.9,M,-22.1,M,10.0,0302*6D
06/09/2019,00:06:26.494,$GPGGA,000625,4437.5826,N,12402.9433,W,2,08,00.9,22.9,M,-22.1,M,11.0,0302*6C
06/09/2019,00:06:27.401,$GPGGA,000626,4437.5826,N,12402.9433,W,2,08,00.9,22.9,M,-22.1,M,12.0,0302*6C
06/09/2019,00:06:28.611,$GPGGA,000627,4437.5826,N,12402.9433,W,2,08,00.9,22.9,M,-22.1,M,10.0,0302*6F
06/09/2019,00:06:29.599,$GPGGA,000628,4437.5826,N,12402.9432,W,2,08,00.9,23.0,M,-22.1,M,11.0,0302*68
06/09/2019,00:06:30.724,$GPGGA,000629,4437.5826,N,12402.9432,W,2,08,00.9,22.9,M,-22.1,M,09.0,0302*68
06/09/2019,00:06:31.801,$GPGGA,000630,4437.5826,N,12402.9432,W,2,08,00.9,23.0,M,-22.1,M,10.0,0302*60
06/09/2019,00:06:32.606,$GPGGA,000631,4437.5826,N,12402.9432,W,2,08,00.9,23.0,M,-22.1,M,11.0,0302*60
06/09/2019,00:06:33.399,$GPGGA,000632,4437.5826,N,12402.9432,W,2,08,00.9,23.0,M,-22.1,M,12.0,0302*60
06/09/2019,00:06:34.320,$GPGGA,000633,4437.5826,N,12402.9432,W,2,08,00.9,23.0,M,-22.1,M,13.0,0302*60
06/09/2019,00:06:35.454,$GPGGA,000634,4437.5826,N,12402.9432,W,2,08,00.9,23.0,M,-22.1,M,11.0,0302*65
06/09/2019,00:06:36.445,$GPGGA,000635,4437.5826,N,12402.9432,W,2,08,00.9,23.0,M,-22.1,M,12.0,0302*67
06/09/2019,00:06:37.447,$GPGGA,000636,4437.5826,N,12402.9432,W,2,08,00.9,23.0,M,-22.1,M,11.0,0302*67
06/09/2019,00:06:38.590,$GPGGA,000637,4437.5826,N,12402.9432,W,2,08,00.9,23.0,M,-22.1,M,12.0,0302*65
06/09/2019,00:06:40.352,$GPGGA,000639,4437.5825,N,12402.9432,W,2,08,00.9,23.0,M,-22.1,M,13.0,0302*69
06/09/2019,00:06:41.659,$GPGGA,000640,4437.5825,N,12402.9432,W,2,08,00.9,23.0,M,-22.1,M,14.0,0302*60
06/09/2019,00:06:42.446,$GPGGA,000641,4437.5825,N,12402.9432,W,2,08,00.9,23.0,M,-22.1,M,15.0,0302*60
06/09/2019,00:06:43.485,$GPGGA,000642,4437.5826,N,12402.9432,W,2,08,00.9,23.0,M,-22.1,M,09.0,0302*6D
06/09/2019,00:06:44.454,$GPGGA,000643,4437.5826,N,12402.9432,W,2,08,00.9,23.0,M,-22.1,M,10.0,0302*64
06/09/2019,00:06:45.445,$GPGGA,000644,4437.5826,N,12402.9433,W,2,08,00.9,23.0,M,-22.1,M,11.0,0302*63
06/09/2019,00:06:46.557,$GPGGA,000645,4437.5826,N,12402.9433,W,2,08,00.9,23.0,M,-22.1,M,09.0,0302*6B
06/09/2019,00:06:47.474,$GPGGA,000646,4437.5826,N,12402.9433,W,2,08,00.9,23.0,M,-22.1,M,10.0,0302*60
06/09/2019,00:06:48.376,$GPGGA,000647,4437.5826,N,12402.9433,W,2,08,00.9,23.0,M,-22.1,M,11.0,0302*60
06/09/2019,00:06:49.547,$GPGGA,000648,4437.5826,N,12402.9433,W,2,08,00.9,23.0,M,-22.1,M,09.0,0302*66
06/09/2019,00:06:50.620,$GPGGA,000649,4437.5826,N,12402.9433,W,2,08,00.9,23.0,M,-22.1,M,10.0,0302*6F
06/09/2019,00:06:51.474,$GPGGA,000650,4437.5825,N,12402.9433,W,2,08,00.9,23.0,M,-22.1,M,11.0,0302*65
06/09/2019,00:06:52.455,$GPGGA,000651,4437.5825,N,12402.9433,W,2,08,00.9,23.0,M,-22.1,M,09.0,0302*6D
06/09/2019,00:06:53.651,$GPGGA,000652,4437.5826,N,12402.9433,W,2,08,00.9,23.0,M,-22.1,M,10.0,0302*65
06/09/2019,00:06:54.477,$GPGGA,000653,4437.5826,N,12402.9433,W,2,08,00.9,23.0,M,-22.1,M,11.0,0302*65
06/09/2019,00:06:55.654,$GPGGA,000654,4437.5825,N,12402.9433,W,2,08,00.9,23.0,M,-22.1,M,09.0,0302*68
06/09/2019,00:06:56.454,$GPGGA,000655,4437.5825,N,12402.9432,W,2,08,00.9,23.0,M,-22.1,M,10.0,0302*60
06/09/2019,00:06:57.601,$GPGGA,000656,4437.5825,N,12402.9432,W,2,08,00.9,23.0,M,-22.1,M,11.0,0302*62
06/09/2019,00:06:58.604,$GPGGA,000657,4437.5825,N,12402.9432,W,2,08,00.9,23.0,M,-22.1,M,09.0,0302*6A
06/09/2019,00:06:59.641,$GPGGA,000658,4437.5825,N,12402.9432,W,2,08,00.9,23.0,M,-22.1,M,10.0,0302*6D
06/09/2019,00:07:00.456,$GPGGA,000659,4437.5825,N,12402.9432,W,2,08,00.9,23.0,M,-22.1,M,11.0,0302*6D
06/09/2019,00:07:01.403,$GPGGA,000700,4437.5826,N,12402.9433,W,2,08,00.9,23.0,M,-22.1,M,09.0,0302*6B
06/09/2019,00:07:02.447,$GPGGA,000701,4437.5826,N,12402.9433,W,2,08,00.9,23.0,M,-22.1,M,10.0,0302*62
06/09/2019,00:07:03.513,$GPGGA,000702,4437.5826,N,12402.9433,W,2,08,00.9,23.0,M,-22.1,M,11.0,0302*60
06/09/2019,00:07:04.455,$GPGGA,000703,4437.5826,N,12402.9433,W,2,08,00.9,23.0,M,-22.1,M,09.0,0302*68
06/09/2019,00:07:05.651,$GPGGA,000704,4437.5826,N,12402.9433,W,2,08,00.9,23.0,M,-22.1,M,10.0,0302*67
06/09/2019,00:07:06.447,$GPGGA,000705,4437.5826,N,12402.9433,W,2,08,00.9,23.0,M,-22.1,M,11.0,0302*67
06/09/2019,00:07:07.373,$GPGGA,000706,4437.5826,N,12402.9433,W,2,08,00.9,23.0,M,-22.1,M,09.0,0302*6D
06/09/2019,00:07:08.455,$GPGGA,000707,4437.5826,N,12402.9433,W,2,08,00.9,23.0,M,-22.1,M,10.0,0302*64
06/09/2019,00:07:09.651,$GPGGA,000708,4437.5826,N,12402.9433,W,2,08,00.9,23.0,M,-22.1,M,08.0,0302*62
06/09/2019,00:07:10.448,$GPGGA,000709,4437.5826,N,12402.9433,W,2,08,00.9,23.0,M,-22.1,M,09.0,0302*62
06/09/2019,00:07:11.432,$GPGGA,000710,4437.5825,N,12402.9433,W,2,08,00.9,23.0,M,-22.1,M,10.0,0302*61
06/09/2019,00:07:12.404,$GPGGA,000711,4437.5826,N,12402.9433,W,2,08,00.9,23.0,M,-22.1,M,08.0,0302*6A
06/09/2019,00:07:13.658,$GPGGA,000712,4437.5825,N,12402.9433,W,2,08,00.9,23.0,M,-22.1,M,09.0,0302*6B
06/09/2019,00:07:14.448,$GPGGA,000713,4437.5825,N,12402.9433,W,2,08,00.9,23.0,M,-22.1,M,10.0,0302*62
06/09/2019,00:07:15.377,$GPGGA,000714,4437.5825,N,12402.9433,W,2,08,00.9,23.0,M,-22.1,M,09.0,0302*6D
06/09/2019,00:07:16.455,$GPGGA,000715,4437.5825,N,12402.9433,W,2,08,00.9,23.0,M,-22.1,M,10.0,0302*64
06/09/2019,00:07:17.549,$GPGGA,000716,4437.5825,N,12402.9433,W,2,08,00.9,23.0,M,-22.1,M,11.0,0302*66
06/09/2019,00:07:18.631,$GPGGA,000717,4437.5825,N,12402.9433,W,2,08,00.9,23.0,M,-22.1,M,10.0,0302*66
06/09/2019,00:07:19.698,$GPGGA,000718,4437.5825,N,12402.9433,W,2,08,00.9,23.0,M,-22.1,M,11.0,0302*68
06/09/2019,00:07:20.455,$GPGGA,000719,4437.5825,N,12402.9433,W,2,08,00.9,23.0,M,-22.1,M,12.0,0302*6A
06/09/2019,00:07:21.446,$GPGGA,000720,4437.5825,N,12402.9433,W,2,08,00.9,23.0,M,-22.1,M,10.0,0302*62
06/09/2019,00:07:22.558,$GPGGA,000721,4437.5825,N,12402.9432,W,2,08,00.9,23.0,M,-22.1,M,11.0,0302*63
06/09/2019,00:07:23.534,$GPGGA,000722,4437.5825,N,12402.9432,W,2,08,00.9,23.0,M,-22.1,M,09.0,0302*69
06/09/2019,00:07:24.729,$GPGGA,000723,4437.5825,N,12402.9432,W,2,08,00.9,23.0,M,-22.1,M,10.0,0302*60
06/09/2019,00:07:25.608,$GPGGA,000724,4437.5825,N,12402.9432,W,2,08,00.9,23.0,M,-22.1,M,08.0,0302*6E
06/09/2019,00:07:26.398,$GPGGA,000725,4437.5825,N,12402.9432,W,2,08,00.9,23.0,M,-22.1,M,09.0,0302*6E
06/09/2019,00:07:27.534,$GPGGA,000726,4437.5825,N,12402.9432,W,2,08,00.9,23.0,M,-22.1,M,08.0,0302*6C
06/09/2019,00:07:28.804,$GPGGA,000727,4437.5825,N,12402.9432,W,2,08,00.9,23.0,M,-22.1,M,09.0,0302*6C
06/09/2019,00:07:29.714,$GPGGA,000728,4437.5825,N,12402.9432,W,2,08,00.9,23.0,M,-22.1,M,10.0,0302*6B
06/09/2019,00:07:30.616,$GPGGA,000729,4437.5825,N,12402.9432,W,2,08,00.9,23.0,M,-22.1,M,11.0,0302*6B
06/09/2019,00:07:32.570,$GPGGA,000731,4437.5825,N,12402.9432,W,2,08,00.9,23.0,M,-22.1,M,09.0,0302*6B
06/09/2019,00:07:33.606,$GPGGA,000732,4437.5825,N,12402.9432,W,2,08,00.9,23.0,M,-22.1,M,10.0,0302*60
06/09/2019,00:07:34.607,$GPGGA,000733,4437.5826,N,12402.9432,W,2,08,00.9,22.9,M,-22.1,M,11.0,0302*6B
06/09/2019,00:07:35.448,$GPGGA,000734,4437.5826,N,12402.9432,W,2,08,00.9,22.9,M,-22.1,M,09.0,0302*65
06/09/2019,00:07:36.593,$GPGGA,000735,4437.5826,N,12402.9432,W,2,08,00.9,22.9,M,-22.1,M,10.0,0302*6C
06/09/2019,00:07:38.456,$GPGGA,000737,4437.5826,N,12402.9432,W,2,08,00.9,22.9,M,-22.1,M,10.0,0302*6E
06/09/2019,00:07:39.653,$GPGGA,000738,4437.5826,N,12402.9432,W,2,08,00.9,22.9,M,-22.1,M,11.0,0302*60
06/09/2019,00:07:40.669,$GPGGA,000739,4437.5826,N,12402.9433,W,2,08,00.9,22.9,M,-22.1,M,12.0,0302*63
06/09/2019,00:07:41.580,$GPGGA,000740,4437.5826,N,12402.9433,W,2,08,00.9,22.9,M,-22.1,M,10.0,0302*6F
06/09/2019,00:07:42.354,$GPGGA,000741,4437.5826,N,12402.9433,W,2,08,00.9,22.9,M,-22.1,M,11.0,0302*6F
06/09/2019,00:07:43.653,$GPGGA,000742,4437.5826,N,12402.9433,W,2,08,00.9,22.9,M,-22.1,M,12.0,0302*6F
06/09/2019,00:07:44.449,$GPGGA,000743,4437.5826,N,12402.9433,W,2,08,00.9,22.9,M,-22.1,M,10.0,0302*6C
06/09/2019,00:07:45.580,$GPGGA,000744,4437.5826,N,12402.9433,W,2,08,00.9,22.9,M,-22.1,M,11.0,0302*6A
06/09/2019,00:07:46.354,$GPGGA,000745,4437.5826,N,12402.9433,W,2,08,00.9,22.9,M,-22.1,M,09.0,0302*62
06/09/2019,00:07:47.660,$GPGGA,000746,4437.5826,N,12402.9433,W,2,08,00.9,22.9,M,-22.1,M,10.0,0302*69
06/09/2019,00:07:48.448,$GPGGA,000747,4437.5826,N,12402.9433,W,2,08,00.9,22.9,M,-22.1,M,08.0,0302*61
06/09/2019,00:07:49.582,$GPGGA,000748,4437.5826,N,12402.9433,W,2,08,00.9,22.9,M,-22.1,M,09.0,0302*6F
06/09/2019,00:07:50.355,$GPGGA,000749,4437.5826,N,12402.9433,W,2,08,00.9,22.9,M,-22.1,M,08.0,0302*6F
06/09/2019,00:07:51.550,$GPGGA,000750,4437.5826,N,12402.9433,W,2,08,00.9,22.9,M,-22.1,M,09.0,0302*66
06/09/2019,00:07:52.568,$GPGGA,000751,4437.5826,N,12402.9433,W,2,08,00.9,22.9,M,-22.1,M,10.0,0302*6F
06/09/2019,00:07:53.477,$GPGGA,000752,4437.5826,N,12402.9433,W,2,08,00.9,22.9,M,-22.1,M,10.0,0302*6C
06/09/2019,00:07:54.618,$GPGGA,000753,4437.5826,N,12402.9433,W,2,08,00.9,22.8,M,-22.1,M,11.0,0302*6D
06/09/2019,00:07:55.608,$GPGGA,000754,4437.5826,N,12402.9433,W,2,08,00.9,22.8,M,-22.1,M,12.0,0302*69
06/09/2019,00:07:56.398,$GPGGA,000755,4437.5826,N,12402.9433,W,2,08,00.9,22.8,M,-22.1,M,10.0,0302*6A
06/09/2019,00:07:57.603,$GPGGA,000756,4437.5826,N,12402.9433,W,2,08,00.9,22.8,M,-22.1,M,11.0,0302*68
06/09/2019,00:07:58.431,$GPGGA,000757,4437.5826,N,12402.9433,W,2,08,00.9,22.8,M,-22.1,M,12.0,0302*6A
06/09/2019,00:07:59.698,$GPGGA,000758,4437.5826,N,12402.9433,W,2,08,00.9,22.8,M,-22.1,M,10.0,0302*67
06/09/2019,00:08:00.599,$GPGGA,000759,4437.5826,N,12402.9433,W,2,08,00.9,22.8,M,-22.1,M,11.0,0302*67
06/09/2019,00:08:01.558,$GPGGA,000800,4437.5826,N,12402.9433,W,2,08,00.9,22.8,M,-22.1,M,12.0,0302*67
06/09/2019,00:08:02.904,$GPGGA,000801,4437.5826,N,12402.9432,W,2,08,00.9,22.8,M,-22.1,M,10.0,0302*65
06/09/2019,00:08:03.698,$GPGGA,000802,4437.5826,N,12402.9432,W,2,08,00.9,22.8,M,-22.1,M,11.0,0302*67
06/09/2019,00:08:04.510,$GPGGA,000803,4437.5826,N,12402.9432,W,2,08,00.9,22.8,M,-22.1,M,12.0,0302*65
06/09/2019,00:08:05.625,$GPGGA,000804,4437.5826,N,12402.9432,W,2,08,00.9,22.8,M,-22.1,M,10.0,0302*60
06/09/2019,00:08:06.405,$GPGGA,000805,4437.5826,N,12402.9432,W,2,08,00.9,22.8,M,-22.1,M,11.0,0302*60
06/09/2019,00:08:08.004,$GPGGA,000806,4437.5826,N,12402.9433,W,2,08,00.9,22.8,M,-22.1,M,12.0,0302*61
06/09/2019,00:08:08.600,$GPGGA,000807,4437.5826,N,12402.9433,W,2,08,00.9,22.8,M,-22.1,M,10.0,0302*62
06/09/2019,00:08:09.604,$GPGGA,000808,4437.5826,N,12402.9433,W,2,08,00.9,22.7,M,-22.1,M,11.0,0302*63
06/09/2019,00:08:10.604,$GPGGA,000809,4437.5826,N,12402.9433,W,2,08,00.9,22.7,M,-22.1,M,12.0,0302*61
06/09/2019,00:08:11.612,$GPGGA,000810,4437.5826,N,12402.9433,W,2,08,00.9,22.7,M,-22.1,M,10.0,0302*6B
06/09/2019,00:08:12.399,$GPGGA,000811,4437.5826,N,12402.9433,W,2,08,00.9,22.7,M,-22.1,M,11.0,0302*6B
06/09/2019,00:08:13.961,$GPGGA,000812,4437.5826,N,12402.9433,W,2,08,00.9,22.7,M,-22.1,M,12.0,0302*6B
06/09/2019,00:08:15.458,$GPGGA,000814,4437.5826,N,12402.9433,W,2,08,00.9,22.7,M,-22.1,M,11.0,0302*6E
06/09/2019,00:08:16.449,$GPGGA,000815,4437.5826,N,12402.9433,W,2,08,00.9,22.7,M,-22.1,M,12.0,0302*6C
06/09/2019,00:08:17.561,$GPGGA,000816,4437.5826,N,12402.9433,W,2,08,00.9,22.7,M,-22.1,M,10.0,0302*6D
06/09/2019,00:08:18.494,$GPGGA,000817,4437.5826,N,12402.9433,W,2,08,00.9,22.7,M,-22.1,M,11.0,0302*6D
06/09/2019,00:08:20.356,$GPGGA,000819,4437.5826,N,12402.9433,W,2,08,00.9,22.7,M,-22.1,M,10.0,0302*62
06/09/2019,00:08:21.654,$GPGGA,000820,4437.5826,N,12402.9433,W,2,08,00.9,22.7,M,-22.1,M,11.0,0302*69
06/09/2019,00:08:22.536,$GPGGA,000821,4437.5826,N,12402.9433,W,2,08,00.9,22.7,M,-22.1,M,12.0,0302*6B
06/09/2019,00:08:23.535,$GPGGA,000822,4437.5826,N,12402.9433,W,2,08,00.9,22.7,M,-22.1,M,10.0,0302*6A
06/09/2019,00:08:24.604,$GPGGA,000823,4437.5826,N,12402.9433,W,2,08,00.9,22.7,M,-22.1,M,11.0,0302*6A
06/09/2019,00:08:25.552,$GPGGA,000824,4437.5826,N,12402.9433,W,2,08,00.9,22.7,M,-22.1,M,12.0,0302*6E
06/09/2019,00:08:26.621,$GPGGA,000825,4437.5826,N,12402.9433,W,2,08,00.9,22.7,M,-22.1,M,10.0,0302*6D
06/09/2019,00:08:28.426,$GPGGA,000827,4437.5826,N,12402.9434,W,2,08,00.9,22.7,M,-22.1,M,12.0,0302*6A
06/09/2019,00:08:29.632,$GPGGA,000828,4437.5826,N,12402.9434,W,2,08,00.9,22.7,M,-22.1,M,10.0,0302*67
06/09/2019,00:08:30.773,$GPGGA,000829,4437.5826,N,12402.9434,W,2,08,00.9,22.7,M,-22.1,M,11.0,0302*67
06/09/2019,00:08:31.558,$GPGGA,000830,4437.5826,N,12402.9434,W,2,08,00.9,22.7,M,-22.1,M,12.0,0302*6C
06/09/2019,00:08:32.479,$GPGGA,000831,4437.5826,N,12402.9433,W,2,08,00.9,22.7,M,-22.1,M,10.0,0302*68
06/09/2019,00:08:33.561,$GPGGA,000832,4437.5826,N,12402.9434,W,2,08,00.9,22.7,M,-22.1,M,11.0,0302*6D
06/09/2019,00:08:34.551,$GPGGA,000833,4437.5826,N,12402.9433,W,2,08,00.9,22.7,M,-22.1,M,12.0,0302*68
06/09/2019,00:08:35.350,$GPGGA,000834,4437.5826,N,12402.9433,W,2,08,00.9,22.7,M,-22.1,M,10.0,0302*6D
06/09/2019,00:08:36.588,$GPGGA,000835,4437.5826,N,12402.9433,W,2,08,00.9,22.7,M,-22.1,M,11.0,0302*6D
06/09/2019,00:08:37.459,$GPGGA,000836,4437.5826,N,12402.9433,W,2,08,00.9,22.7,M,-22.1,M,12.0,0302*6D
06/09/2019,00:08:38.451,$GPGGA,000837,4437.5826,N,12402.9433,W,2,08,00.9,22.7,M,-22.1,M,10.0,0302*6E
06/09/2019,00:08:39.523,$GPGGA,000838,4437.5826,N,12402.9433,W,2,08,00.9,22.7,M,-22.1,M,11.0,0302*60
06/09/2019,00:08:40.598,$GPGGA,000839,4437.5826,N,12402.9433,W,2,08,00.9,22.7,M,-22.1,M,12.0,0302*62
06/09/2019,00:08:41.459,$GPGGA,000840,4437.5826,N,12402.9433,W,2,08,00.9,22.7,M,-22.1,M,10.0,0302*6E
06/09/2019,00:08:42.661,$GPGGA,000841,4437.5826,N,12402.9433,W,2,08,00.9,22.7,M,-22.1,M,11.0,0302*6E
06/09/2019,00:08:43.467,$GPGGA,000842,4437.5826,N,12402.9433,W,2,08,00.9,22.7,M,-22.1,M,12.0,0302*6E
06/09/2019,00:08:44.537,$GPGGA,000843,4437.5826,N,12402.9433,W,2,08,00.9,22.7,M,-22.1,M,10.0,0302*6D
06/09/2019,00:08:45.450,$GPGGA,000844,4437.5826,N,12402.9433,W,2,08,00.9,22.7,M,-22.1,M,11.0,0302*6B
06/09/2019,00:08:46.726,$GPGGA,000845,4437.5826,N,12402.9433,W,2,08,00.9,22.7,M,-22.1,M,12.0,0302*69
06/09/2019,00:08:48.605,$GPGGA,000847,4437.5826,N,12402.9433,W,2,08,00.9,22.6,M,-22.1,M,11.0,0302*69
06/09/2019,00:08:50.426,$GPGGA,000849,4437.5826,N,12402.9433,W,2,08,00.9,22.6,M,-22.1,M,10.0,0302*66
06/09/2019,00:08:51.406,$GPGGA,000850,4437.5826,N,12402.9433,W,2,08,00.9,22.6,M,-22.1,M,11.0,0302*6F
06/09/2019,00:08:52.625,$GPGGA,000851,4437.5826,N,12402.9433,W,2,08,00.9,22.6,M,-22.1,M,12.0,0302*6D
06/09/2019,00:08:53.516,$GPGGA,000852,4437.5826,N,12402.9433,W,2,08,00.9,22.6,M,-22.1,M,10.0,0302*6C
06/09/2019,00:08:54.775,$GPGGA,000853,4437.5826,N,12402.9433,W,2,08,00.9,22.6,M,-22.1,M,11.0,0302*6C
06/09/2019,00:08:55.714,$GPGGA,000854,4437.5826,N,12402.9433,W,2,08,00.9,22.6,M,-22.1,M,12.0,0302*68
06/09/2019,00:08:56.611,$GPGGA,000855,4437.5826,N,12402.9433,W,2,08,00.9,22.6,M,-22.1,M,10.0,0302*6B
06/09/2019,00:08:57.610,$GPGGA,000856,4437.5826,N,12402.9433,W,2,08,00.9,22.6,M,-22.1,M,11.0,0302*69
06/09/2019,00:08:59.538,$GPGGA,000858,4437.5826,N,12402.9433,W,2,08,00.9,22.6,M,-22.1,M,10.0,0302*66
06/09/2019,00:09:00.406,$GPGGA,000859,4437.5826,N,12402.9433,W,2,08,00.9,22.6,M,-22.1,M,11.0,0302*66
06/09/2019,00:09:01.610,$GPGGA,000900,4437.5826,N,12402.9433,W,2,08,00.9,22.6,M,-22.1,M,12.0,0302*68
06/09/2019,00:09:02.511,$GPGGA,000901,4437.5826,N,12402.9433,W,2,08,00.9,22.6,M,-22.1,M,10.0,0302*6B
06/09/2019,00:09:03.589,$GPGGA,000902,4437.5826,N,12402.9433,W,2,08,00.9,22.6,M,-22.1,M,11.0,0302*69
06/09/2019,00:09:04.462,$GPGGA,000903,4437.5826,N,12402.9433,W,2,08,00.9,22.6,M,-22.1,M,12.0,0302*6B
06/09/2019,00:09:05.663,$GPGGA,000904,4437.5826,N,12402.9433,W,2,08,00.9,22.6,M,-22.1,M,10.0,0302*6E
06/09/2019,00:09:07.446,$GPGGA,000906,4437.5826,N,12402.9433,W,2,08,00.9,22.6,M,-22.1,M,12.0,0302*6E
06/09/2019,00:09:08.786,$GPGGA,000907,4437.5826,N,12402.9433,W,2,08,00.9,22.6,M,-22.1,M,10.0,0302*6D
06/09/2019,00:09:09.635,$GPGGA,000908,4437.5826,N,12402.9433,W,2,08,00.9,22.5,M,-22.1,M,11.0,0302*60
06/09/2019,00:09:10.609,$GPGGA,000909,4437.5826,N,12402.9433,W,2,08,00.9,22.5,M,-22.1,M,12.0,0302*62
06/09/2019,00:09:11.454,$GPGGA,000910,4437.5826,N,12402.9433,W,2,08,00.9,22.5,M,-22.1,M,10.0,0302*68
06/09/2019,00:09:12.378,$GPGGA,000911,4437.5826,N,12402.9433,W,2,08,00.9,22.5,M,-22.1,M,11.0,0302*68
06/09/2019,00:09:13.800,$GPGGA,000912,4437.5826,N,12402.9433,W,2,08,00.9,22.5,M,-22.1,M,12.0,0302*68
06/09/2019,00:09:14.554,$GPGGA,000913,4437.5826,N,12402.9433,W,2,08,00.9,22.5,M,-22.1,M,10.0,0302*6B
06/09/2019,00:09:15.455,$GPGGA,000914,4437.5826,N,12402.9433,W,2,08,00.9,22.5,M,-22.1,M,11.0,0302*6D
06/09/2019,00:09:16.407,$GPGGA,000915,4437.5826,N,12402.9433,W,2,08,00.9,22.5,M,-22.1,M,09.0,0302*65
06/09/2019,00:09:17.861,$GPGGA,000916,4437.5826,N,12402.9433,W,2,08,00.9,22.5,M,-22.1,M,10.0,0302*6E
06/09/2019,00:09:18.664,$GPGGA,000917,4437.5826,N,12402.9433,W,2,08,00.9,22.5,M,-22.1,M,11.0,0302*6E
06/09/2019,00:09:19.455,$GPGGA,000918,4437.5826,N,12402.9433,W,2,08,00.9,22.5,M,-22.1,M,09.0,0302*68
06/09/2019,00:09:20.533,$GPGGA,000919,4437.5826,N,12402.9433,W,2,08,00.9,22.5,M,-22.1,M,10.0,0302*61
06/09/2019,00:09:21.363,$GPGGA,000920,4437.5826,N,12402.9433,W,2,08,00.9,22.5,M,-22.1,M,11.0,0302*6A
06/09/2019,00:09:22.744,$GPGGA,000921,4437.5826,N,12402.9433,W,2,08,00.9,22.5,M,-22.1,M,09.0,0302*62
06/09/2019,00:09:24.402,$GPGGA,000923,4437.5826,N,12402.9433,W,2,08,00.9,22.5,M,-22.1,M,08.0,0302*61
06/09/2019,00:09:25.539,$GPGGA,000924,4437.5826,N,12402.9433,W,2,08,00.9,22.5,M,-22.1,M,09.0,0302*67
06/09/2019,00:09:26.519,$GPGGA,000925,4437.5826,N,12402.9433,W,2,08,00.9,22.5,M,-22.1,M,10.0,0302*6E
06/09/2019,00:09:27.616,$GPGGA,000926,4437.5826,N,12402.9433,W,2,08,00.9,22.5,M,-22.1,M,08.0,0302*64
06/09/2019,00:09:28.493,$GPGGA,000927,4437.5826,N,12402.9433,W,2,08,00.9,22.5,M,-22.1,M,09.0,0302*64
06/09/2019,00:09:29.539,$GPGGA,000928,4437.5826,N,12402.9433,W,2,08,00.9,22.5,M,-22.1,M,10.0,0302*63
06/09/2019,00:09:30.554,$GPGGA,000929,4437.5826,N,12402.9433,W,2,08,00.9,22.5,M,-22.1,M,09.0,0302*6A
06/09/2019,00:09:31.605,$GPGGA,000930,4437.5826,N,12402.9433,W,2,08,00.9,22.5,M,-22.1,M,10.0,0302*6A
06/09/2019,00:09:32.403,$GPGGA,000931,4437.5826,N,12402.9433,W,2,08,00.9,22.5,M,-22.1,M,11.0,0302*6A
06/09/2019,00:09:33.830,$GPGGA,000932,4437.5826,N,12402.9433,W,2,08,00.9,22.5,M,-22.1,M,10.0,0302*68
06/09/2019,00:09:34.521,$GPGGA,000933,4437.5826,N,12402.9433,W,2,08,00.9,22.5,M,-22.1,M,11.0,0302*68
06/09/2019,00:09:35.650,$GPGGA,000934,4437.5826,N,12402.9433,W,2,08,00.9,22.5,M,-22.1,M,12.0,0302*6C
06/09/2019,00:09:36.408,$GPGGA,000935,4437.5826,N,12402.9433,W,2,08,00.9,22.4,M,-22.1,M,10.0,0302*6E
06/09/2019,00:09:37.607,$GPGGA,000936,4437.5826,N,12402.9433,W,2,08,00.9,22.5,M,-22.1,M,11.0,0302*6D
06/09/2019,00:09:38.520,$GPGGA,000937,4437.5826,N,12402.9433,W,2,08,00.9,22.4,M,-22.1,M,12.0,0302*6E
06/09/2019,00:09:40.603,$GPGGA,000939,4437.5826,N,12402.9433,W,2,08,00.9,22.5,M,-22.1,M,11.0,0302*62
06/09/2019,00:09:41.557,$GPGGA,000940,4437.5826,N,12402.9433,W,2,08,00.9,22.5,M,-22.1,M,12.0,0302*6F
06/09/2019,00:09:42.483,$GPGGA,000941,4437.5826,N,12402.9433,W,2,08,00.9,22.5,M,-22.1,M,10.0,0302*6C
06/09/2019,00:09:43.534,$GPGGA,000942,4437.5826,N,12402.9433,W,2,08,00.9,22.5,M,-22.1,M,11.0,0302*6E
06/09/2019,00:09:44.609,$GPGGA,000943,4437.5826,N,12402.9433,W,2,08,00.9,22.5,M,-22.1,M,09.0,0302*66
06/09/2019,00:09:45.569,$GPGGA,000944,4437.5826,N,12402.9433,W,2,08,00.9,22.4,M,-22.1,M,10.0,0302*68
06/09/2019,00:09:46.613,$GPGGA,000945,4437.5826,N,12402.9433,W,2,08,00.9,22.4,M,-22.1,M,09.0,0302*61
06/09/2019,00:09:47.463,$GPGGA,000946,4437.5826,N,12402.9433,W,2,08,00.9,22.4,M,-22.1,M,10.0,0302*6A
06/09/2019,00:09:48.555,$GPGGA,000947,4437.5826,N,12402.9433,W,2,08,00.9,22.4,M,-22.1,M,11.0,0302*6A
06/09/2019,00:09:49.607,$GPGGA,000948,4437.5826,N,12402.9433,W,2,08,00.9,22.4,M,-22.1,M,11.0,0302*65
06/09/2019,00:09:50.483,$GPGGA,000949,4437.5826,N,12402.9433,W,2,08,00.9,22.4,M,-22.1,M,12.0,0302*67
06/09/2019,00:09:51.360,$GPGGA,000950,4437.5826,N,12402.9433,W,2,08,00.9,22.4,M,-22.1,M,09.0,0302*65
06/09/2019,00:09:52.664,$GPGGA,000951,4437.5826,N,12402.9433,W,2,08,00.9,22.4,M,-22.1,M,10.0,0302*6C
06/09/2019,00:09:53.456,$GPGGA,000952,4437.5826,N,12402.9433,W,2,08,00.9,22.4,M,-22.1,M,11.0,0302*6E
06/09/2019,00:09:54.492,$GPGGA,000953,4437.5826,N,12402.9433,W,2,08,00.9,22.4,M,-22.1,M,09.0,0302*66
06/09/2019,00:09:55.466,$GPGGA,000954,4437.5826,N,12402.9432,W,2,08,00.9,22.4,M,-22.1,M,10.0,0302*68
06/09/2019,00:09:56.453,$GPGGA,000955,4437.5826,N,12402.9432,W,2,08,00.9,22.4,M,-22.1,M,09.0,0302*61
06/09/2019,00:09:57.457,$GPGGA,000956,4437.5826,N,12402.9432,W,2,08,00.9,22.4,M,-22.1,M,10.0,0302*6A
06/09/2019,00:09:58.602,$GPGGA,000957,4437.5826,N,12402.9432,W,2,08,00.9,22.4,M,-22.1,M,11.0,0302*6A
06/09/2019,00:09:59.465,$GPGGA,000958,4437.5826,N,12402.9432,W,2,08,00.9,22.4,M,-22.1,M,09.0,0302*6C
06/09/2019,00:10:00.662,$GPGGA,000959,4437.5826,N,12402.9432,W,2,08,00.9,22.4,M,-22.1,M,10.0,0302*65
06/09/2019,00:10:01.457,$GPGGA,001000,4437.5826,N,12402.9432,W,2,08,00.9,22.4,M,-22.1,M,11.0,0302*60
06/09/2019,00:10:02.592,$GPGGA,001001,4437.5826,N,12402.9432,W,2,08,00.9,22.4,M,-22.1,M,10.0,0302*60
06/09/2019,00:10:03.520,$GPGGA,001002,4437.5826,N,12402.9432,W,2,08,00.9,22.4,M,-22.1,M,11.0,0302*62
06/09/2019,00:10:04.613,$GPGGA,001003,4437.5826,N,12402.9432,W,2,08,00.9,22.4,M,-22.1,M,09.0,0302*6A
06/09/2019,00:10:05.478,$GPGGA,001004,4437.5826,N,12402.9432,W,2,08,00.9,22.4,M,-22.1,M,10.0,0302*65
06/09/2019,00:10:06.678,$GPGGA,001005,4437.5826,N,12402.9432,W,2,08,00.9,22.4,M,-22.1,M,08.0,0302*6D
06/09/2019,00:10:07.616,$GPGGA,001006,4437.5826,N,12402.9432,W,2,08,00.9,22.4,M,-22.1,M,09.0,0302*6F
06/09/2019,00:10:08.578,$GPGGA,001007,4437.5826,N,12402.9432,W,2,08,00.9,22.4,M,-22.1,M,10.0,0302*66
06/09/2019,00:10:09.458,$GPGGA,001008,4437.5826,N,12402.9432,W,2,08,00.9,22.4,M,-22.1,M,11.0,0302*68
06/09/2019,00:10:10.602,$GPGGA,001009,4437.5826,N,12402.9432,W,2,08,00.9,22.4,M,-22.1,M,10.0,0302*68
06/09/2019,00:10:11.465,$GPGGA,001010,4437.5826,N,12402.9432,W,2,08,00.9,22.4,M,-22.1,M,11.0,0302*61
06/09/2019,00:10:12.637,$GPGGA,001011,4437.5826,N,12402.9432,W,2,08,00.9,22.4,M,-22.1,M,09.0,0302*69
06/09/2019,00:10:14.517,$GPGGA,001013,4437.5826,N,12402.9432,W,2,08,00.9,22.4,M,-22.1,M,08.0,0302*6A
06/09/2019,00:10:16.512,$GPGGA,001015,4437.5826,N,12402.9432,W,2,08,00.9,22.4,M,-22.1,M,07.0,0302*63
06/09/2019,00:10:17.521,$GPGGA,001016,4437.5826,N,12402.9432,W,2,08,00.9,22.3,M,-22.1,M,08.0,0302*68
06/09/2019,00:10:18.614,$GPGGA,001017,4437.5826,N,12402.9432,W,2,08,00.9,22.3,M,-22.1,M,09.0,0302*68
06/09/2019,00:10:19.558,$GPGGA,001018,4437.5826,N,12402.9432,W,2,08,00.9,22.3,M,-22.1,M,09.0,0302*67
06/09/2019,00:10:20.381,$GPGGA,001019,4437.5826,N,12402.9432,W,2,08,00.9,22.3,M,-22.1,M,10.0,0302*6E
06/09/2019,00:10:21.466,$GPGGA,001020,4437.5826,N,12402.9432,W,2,08,00.9,22.3,M,-22.1,M,11.0,0302*65
06/09/2019,00:10:22.888,$GPGGA,001021,4437.5826,N,12402.9433,W,2,08,00.9,22.3,M,-22.1,M,09.0,0302*6C
06/09/2019,00:10:23.472,$GPGGA,001022,4437.5826,N,12402.9433,W,2,08,00.9,22.3,M,-22.1,M,10.0,0302*67
06/09/2019,00:10:24.541,$GPGGA,001023,4437.5826,N,12402.9433,W,2,08,00.9,22.3,M,-22.1,M,11.0,0302*67
06/09/2019,00:10:25.613,$GPGGA,001024,4437.5826,N,12402.9433,W,2,08,00.9,22.3,M,-22.1,M,09.0,0302*69
06/09/2019,00:10:26.615,$GPGGA,001025,4437.5826,N,12402.9433,W,2,08,00.9,22.3,M,-22.1,M,10.0,0302*60
