06/30/2019,19:58:53.511,$GPGGA,195852,3747.2006,N,12223.0582,W,2,08,01.0,18.5,M,-28.0,M,06.0,0302*66
06/30/2019,19:58:55.066,$GPGGA,195853,3747.2007,N,12223.0582,W,2,08,01.0,18.5,M,-28.0,M,05.0,0302*65
06/30/2019,19:58:56.503,$GPGGA,195855,3747.2007,N,12223.0583,W,2,07,01.1,18.5,M,-28.0,M,06.0,0302*6F
06/30/2019,19:58:57.530,$GPGGA,195856,3747.2007,N,12223.0583,W,2,07,01.1,18.5,M,-28.0,M,05.0,0302*6F
06/30/2019,19:58:58.512,$GPGGA,195857,3747.2006,N,12223.0583,W,2,07,01.1,18.5,M,-28.0,M,06.0,0302*6C
06/30/2019,19:58:59.545,$GPGGA,195858,3747.2007,N,12223.0583,W,2,07,01.1,18.5,M,-28.0,M,05.0,0302*61
06/30/2019,19:59:00.555,$GPGGA,195859,3747.2007,N,12223.0583,W,2,07,01.1,18.5,M,-28.0,M,05.0,0302*60
06/30/2019,19:59:01.472,$GPGGA,195900,3747.2007,N,12223.0582,W,2,07,01.1,18.5,M,-28.0,M,06.0,0302*6F
06/30/2019,19:59:02.568,$GPGGA,195901,3747.2007,N,12223.0582,W,2,07,01.1,18.5,M,-28.0,M,05.0,0302*6D
06/30/2019,19:59:03.605,$GPGGA,195902,3747.2007,N,12223.0582,W,2,07,01.1,18.5,M,-28.0,M,05.0,0302*6E
06/30/2019,19:59:04.504,$GPGGA,195903,3747.2006,N,12223.0583,W,2,07,01.1,18.5,M,-28.0,M,06.0,0302*6C
06/30/2019,19:59:05.532,$GPGGA,195904,3747.2007,N,12223.0583,W,2,07,01.1,18.5,M,-28.0,M,05.0,0302*69
06/30/2019,19:59:06.905,$GPGGA,195905,3747.2007,N,12223.0583,W,2,07,01.1,18.5,M,-28.0,M,05.0,0302*68
06/30/2019,19:59:07.705,$GPGGA,195906,3747.2007,N,12223.0583,W,2,07,01.1,18.5,M,-28.0,M,06.0,0302*68
06/30/2019,19:59:08.503,$GPGGA,195907,3747.2007,N,12223.0583,W,2,07,01.1,18.5,M,-28.0,M,06.0,0302*69
06/30/2019,19:59:09.532,$GPGGA,195908,3747.2007,N,12223.0583,W,2,07,01.1,18.5,M,-28.0,M,05.0,0302*65
06/30/2019,19:59:10.513,$GPGGA,195909,3747.2006,N,12223.0583,W,2,07,01.1,18.5,M,-28.0,M,05.0,0302*65
06/30/2019,19:59:11.605,$GPGGA,195910,3747.2006,N,12223.0583,W,2,07,01.1,18.5,M,-28.0,M,05.0,0302*6D
06/30/2019,19:59:12.904,$GPGGA,195911,3747.2006,N,12223.0582,W,2,07,01.1,18.5,M,-28.0,M,06.0,0302*6E
06/30/2019,19:59:13.632,$GPGGA,195912,3747.2007,N,12223.0582,W,2,07,01.1,18.5,M,-28.0,M,06.0,0302*6C
06/30/2019,19:59:14.612,$GPGGA,195913,3747.2007,N,12223.0582,W,2,07,01.1,18.5,M,-28.0,M,07.0,0302*6C
06/30/2019,19:59:15.605,$GPGGA,195914,3747.2007,N,12223.0582,W,2,07,01.1,18.5,M,-28.0,M,06.0,0302*6A
06/30/2019,19:59:16.904,$GPGGA,195915,3747.2007,N,12223.0583,W,2,07,01.1,18.5,M,-28.0,M,06.0,0302*6A
06/30/2019,19:59:17.656,$GPGGA,195916,3747.2007,N,12223.0583,W,2,07,01.1,18.6,M,-28.0,M,05.0,0302*69
06/30/2019,19:59:18.665,$GPGGA,195917,3747.2007,N,12223.0583,W,2,07,01.1,18.5,M,-28.0,M,06.0,0302*68
06/30/2019,19:59:19.546,$GPGGA,195918,3747.2007,N,12223.0583,W,2,07,01.1,18.5,M,-28.0,M,06.0,0302*67
06/30/2019,19:59:20.446,$GPGGA,195919,3747.2007,N,12223.0583,W,2,07,01.1,18.5,M,-28.0,M,07.0,0302*67
06/30/2019,19:59:21.577,$GPGGA,195920,3747.2007,N,12223.0583,W,2,07,01.1,18.5,M,-28.0,M,06.0,0302*6C
06/30/2019,19:59:23.065,$GPGGA,195921,3747.2007,N,12223.0583,W,2,07,01.1,18.5,M,-28.0,M,06.0,0302*6D
06/30/2019,19:59:23.404,$GPGGA,195922,3747.2007,N,12223.0583,W,2,07,01.1,18.6,M,-28.0,M,05.0,0302*6E
06/30/2019,19:59:24.504,$GPGGA,195923,3747.2007,N,12223.0583,W,2,07,01.1,18.6,M,-28.0,M,06.0,0302*6C
06/30/2019,19:59:26.533,$GPGGA,195925,3747.2007,N,12223.0582,W,2,07,01.1,18.6,M,-28.0,M,05.0,0302*68
06/30/2019,19:59:27.453,$GPGGA,195926,3747.2007,N,12223.0583,W,2,07,01.1,18.6,M,-28.0,M,05.0,0302*6A
06/30/2019,19:59:28.605,$GPGGA,195927,3747.2007,N,12223.0583,W,2,07,01.1,18.6,M,-28.0,M,06.0,0302*68
06/30/2019,19:59:29.504,$GPGGA,195928,3747.2007,N,12223.0583,W,2,07,01.1,18.6,M,-28.0,M,07.0,0302*66
06/30/2019,19:59:30.532,$GPGGA,195929,3747.2007,N,12223.0583,W,2,07,01.1,18.6,M,-28.0,M,06.0,0302*66
06/30/2019,19:59:31.453,$GPGGA,195930,3747.2007,N,12223.0583,W,2,07,01.1,18.6,M,-28.0,M,06.0,0302*6E
06/30/2019,19:59:32.656,$GPGGA,195931,3747.2007,N,12223.0583,W,2,07,01.1,18.6,M,-28.0,M,07.0,0302*6E
06/30/2019,19:59:33.846,$GPGGA,195932,3747.2007,N,12223.0583,W,2,07,01.1,18.6,M,-28.0,M,06.0,0302*6C
06/30/2019,19:59:34.584,$GPGGA,195933,3747.2007,N,12223.0583,W,2,07,01.1,18.5,M,-28.0,M,06.0,0302*6E
06/30/2019,19:59:35.852,$GPGGA,195934,3747.2007,N,12223.0583,W,2,07,01.1,18.5,M,-28.0,M,05.0,0302*6A
06/30/2019,19:59:36.655,$GPGGA,195935,3747.2007,N,12223.0583,W,2,07,01.1,18.5,M,-28.0,M,06.0,0302*68
06/30/2019,19:59:38.447,$GPGGA,195937,3747.2007,N,12223.0583,W,2,07,01.1,18.5,M,-28.0,M,05.0,0302*69
06/30/2019,19:59:40.533,$GPGGA,195939,3747.2007,N,12223.0583,W,2,07,01.1,18.5,M,-28.0,M,05.0,0302*67
06/30/2019,19:59:41.512,$GPGGA,195940,3747.2007,N,12223.0583,W,2,07,01.1,18.5,M,-28.0,M,05.0,0302*69
06/30/2019,19:59:42.998,$GPGGA,195941,3747.2007,N,12223.0583,W,2,07,01.1,18.6,M,-28.0,M,05.0,0302*6B
06/30/2019,19:59:44.506,$GPGGA,195943,3747.2007,N,12223.0583,W,2,07,01.1,18.6,M,-28.0,M,05.0,0302*69
06/30/2019,19:59:45.533,$GPGGA,195944,3747.2007,N,12223.0583,W,2,07,01.1,18.6,M,-28.0,M,06.0,0302*6D
06/30/2019,19:59:46.914,$GPGGA,195945,3747.2007,N,12223.0583,W,2,07,01.1,18.5,M,-28.0,M,05.0,0302*6C
06/30/2019,19:59:47.733,$GPGGA,195946,3747.2007,N,12223.0583,W,2,07,01.1,18.5,M,-28.0,M,05.0,0302*6F
06/30/2019,19:59:48.447,$GPGGA,195947,3747.2007,N,12223.0583,W,2,07,01.1,18.5,M,-28.0,M,06.0,0302*6D
06/30/2019,19:59:49.577,$GPGGA,195948,3747.2007,N,12223.0583,W,2,07,01.1,18.5,M,-28.0,M,06.0,0302*62
06/30/2019,19:59:50.964,$GPGGA,195949,3747.2007,N,12223.0583,W,2,07,01.1,18.6,M,-28.0,M,05.0,0302*63
06/30/2019,19:59:51.756,$GPGGA,195950,3747.2007,N,12223.0583,W,2,07,01.1,18.6,M,-28.0,M,06.0,0302*68
06/30/2019,19:59:52.556,$GPGGA,195951,3747.2007,N,12223.0583,W,2,07,01.1,18.5,M,-28.0,M,06.0,0302*6A
06/30/2019,19:59:54.584,$GPGGA,195953,3747.2007,N,12223.0583,W,2,07,01.1,18.5,M,-28.0,M,05.0,0302*6B
06/30/2019,19:59:55.455,$GPGGA,195954,3747.2007,N,12223.0583,W,2,07,01.1,18.5,M,-28.0,M,06.0,0302*6F
06/30/2019,19:59:56.547,$GPGGA,195955,3747.2007,N,12223.0583,W,2,07,01.1,18.5,M,-28.0,M,06.0,0302*6E
06/30/2019,19:59:57.557,$GPGGA,195956,3747.2007,N,12223.0583,W,2,07,01.1,18.6,M,-28.0,M,05.0,0302*6D
06/30/2019,19:59:58.475,$GPGGA,195957,3747.2007,N,12223.0583,W,2,07,01.1,18.5,M,-28.0,M,05.0,0302*6F
06/30/2019,19:59:59.513,$GPGGA,195958,3747.2007,N,12223.0584,W,2,07,01.1,18.5,M,-28.0,M,05.0,0302*67
06/30/2019,20:00:00.607,$GPGGA,195959,3747.2007,N,12223.0584,W,2,07,01.1,18.5,M,-28.0,M,06.0,0302*65
06/30/2019,20:00:01.505,$GPGGA,200000,3747.2007,N,12223.0583,W,2,07,01.1,18.5,M,-28.0,M,06.0,0302*68
06/30/2019,20:00:02.533,$GPGGA,200001,3747.2007,N,12223.0583,W,2,07,01.1,18.5,M,-28.0,M,05.0,0302*6A
06/30/2019,20:00:03.455,$GPGGA,200002,3747.2007,N,12223.0583,W,2,07,01.1,18.5,M,-28.0,M,05.0,0302*69
06/30/2019,20:00:04.656,$GPGGA,200003,3747.2007,N,12223.0583,W,2,07,01.1,18.5,M,-28.0,M,06.0,0302*6B
06/30/2019,20:00:05.452,$GPGGA,200004,3747.2007,N,12223.0583,W,2,07,01.1,18.5,M,-28.0,M,07.0,0302*6D
06/30/2019,20:00:06.475,$GPGGA,200005,3747.2007,N,12223.0583,W,2,07,01.1,18.5,M,-28.0,M,06.0,0302*6D
06/30/2019,20:00:07.455,$GPGGA,200006,3747.2007,N,12223.0583,W,2,07,01.1,18.6,M,-28.0,M,05.0,0302*6E
06/30/2019,20:00:08.659,$GPGGA,200007,3747.2007,N,12223.0583,W,2,07,01.1,18.5,M,-28.0,M,06.0,0302*6F
06/30/2019,20:00:09.448,$GPGGA,200008,3747.2007,N,12223.0583,W,2,07,01.1,18.5,M,-28.0,M,06.0,0302*60
06/30/2019,20:00:10.584,$GPGGA,200009,3747.2007,N,12223.0583,W,2,07,01.1,18.5,M,-28.0,M,05.0,0302*62
06/30/2019,20:00:11.455,$GPGGA,200010,3747.2007,N,12223.0584,W,2,07,01.1,18.5,M,-28.0,M,06.0,0302*6E
06/30/2019,20:00:12.657,$GPGGA,200011,3747.2007,N,12223.0584,W,2,07,01.1,18.5,M,-28.0,M,06.0,0302*6F
06/30/2019,20:00:13.848,$GPGGA,200012,3747.2007,N,12223.0583,W,2,07,01.1,18.5,M,-28.0,M,05.0,0302*68
06/30/2019,20:00:14.585,$GPGGA,200013,3747.2007,N,12223.0583,W,2,07,01.1,18.5,M,-28.0,M,05.0,0302*69
06/30/2019,20:00:15.456,$GPGGA,200014,3747.2007,N,12223.0583,W,2,07,01.1,18.6,M,-28.0,M,06.0,0302*6E
06/30/2019,20:00:16.549,$GPGGA,200015,3747.2007,N,12223.0583,W,2,07,01.1,18.6,M,-28.0,M,06.0,0302*6F
06/30/2019,20:00:17.449,$GPGGA,200016,3747.2007,N,12223.0583,W,2,07,01.1,18.6,M,-28.0,M,05.0,0302*6F
06/30/2019,20:00:18.585,$GPGGA,200017,3747.2007,N,12223.0583,W,2,07,01.1,18.6,M,-28.0,M,05.0,0302*6E
06/30/2019,20:00:19.456,$GPGGA,200018,3747.2007,N,12223.0583,W,2,07,01.1,18.6,M,-28.0,M,06.0,0302*62
06/30/2019,20:00:20.659,$GPGGA,200019,3747.2007,N,12223.0583,W,2,07,01.1,18.6,M,-28.0,M,05.0,0302*60
06/30/2019,20:00:21.449,$GPGGA,200020,3747.2007,N,12223.0583,W,2,07,01.1,18.6,M,-28.0,M,05.0,0302*6A
06/30/2019,20:00:22.585,$GPGGA,200021,3747.2007,N,12223.0583,W,2,07,01.1,18.6,M,-28.0,M,06.0,0302*68
06/30/2019,20:00:23.514,$GPGGA,200022,3747.2007,N,12223.0583,W,2,07,01.1,18.6,M,-28.0,M,05.0,0302*68
06/30/2019,20:00:25.008,$GPGGA,200023,3747.2007,N,12223.0583,W,2,07,01.1,18.6,M,-28.0,M,05.0,0302*69
06/30/2019,20:00:25.607,$GPGGA,200024,3747.2007,N,12223.0583,W,2,07,01.1,18.5,M,-28.0,M,06.0,0302*6E
06/30/2019,20:00:27.475,$GPGGA,200026,3747.2007,N,12223.0583,W,2,07,01.1,18.6,M,-28.0,M,05.0,0302*6C
06/30/2019,20:00:28.457,$GPGGA,200027,3747.2007,N,12223.0582,W,2,07,01.1,18.6,M,-28.0,M,06.0,0302*6F
06/30/2019,20:00:29.652,$GPGGA,200028,3747.2007,N,12223.0582,W,2,07,01.1,18.6,M,-28.0,M,05.0,0302*63
06/30/2019,20:00:30.450,$GPGGA,200029,3747.2007,N,12223.0582,W,2,07,01.1,18.5,M,-28.0,M,05.0,0302*61
06/30/2019,20:00:31.579,$GPGGA,200030,3747.2007,N,12223.0582,W,2,07,01.1,18.6,M,-28.0,M,06.0,0302*69
06/30/2019,20:00:32.456,$GPGGA,200031,3747.2007,N,12223.0583,W,2,07,01.1,18.6,M,-28.0,M,06.0,0302*69
06/30/2019,20:00:33.608,$GPGGA,200032,3747.2007,N,12223.0583,W,2,07,01.1,18.6,M,-28.0,M,05.0,0302*69
06/30/2019,20:00:34.507,$GPGGA,200033,3747.2007,N,12223.0583,W,2,07,01.1,18.6,M,-28.0,M,06.0,0302*6B
06/30/2019,20:00:35.476,$GPGGA,200034,3747.2007,N,12223.0583,W,2,07,01.1,18.6,M,-28.0,M,05.0,0302*6F
06/30/2019,20:00:36.563,$GPGGA,200035,3747.2007,N,12223.0583,W,2,07,01.1,18.6,M,-28.0,M,05.0,0302*6E
06/30/2019,20:00:37.549,$GPGGA,200036,3747.2007,N,12223.0583,W,2,07,01.1,18.6,M,-28.0,M,06.0,0302*6E
06/30/2019,20:00:38.450,$GPGGA,200037,3747.2007,N,12223.0583,W,2,07,01.1,18.6,M,-28.0,M,05.0,0302*6C
06/30/2019,20:00:39.477,$GPGGA,200038,3747.2007,N,12223.0582,W,2,07,01.1,18.6,M,-28.0,M,05.0,0302*62
06/30/2019,20:00:40.564,$GPGGA,200039,3747.2007,N,12223.0582,W,2,07,01.1,18.6,M,-28.0,M,06.0,0302*60
06/30/2019,20:00:41.549,$GPGGA,200040,3747.2007,N,12223.0582,W,2,07,01.1,18.6,M,-28.0,M,06.0,0302*6E
06/30/2019,20:00:42.450,$GPGGA,200041,3747.2007,N,12223.0582,W,2,07,01.1,18.6,M,-28.0,M,05.0,0302*6C
06/30/2019,20:00:43.476,$GPGGA,200042,3747.2007,N,12223.0582,W,2,07,01.1,18.6,M,-28.0,M,05.0,0302*6F
06/30/2019,20:00:44.567,$GPGGA,200043,3747.2007,N,12223.0582,W,2,07,01.1,18.6,M,-28.0,M,06.0,0302*6D
06/30/2019,20:00:45.549,$GPGGA,200044,3747.2007,N,12223.0583,W,2,07,01.1,18.6,M,-28.0,M,05.0,0302*68
06/30/2019,20:00:46.559,$GPGGA,200045,3747.2007,N,12223.0583,W,2,07,01.1,18.6,M,-28.0,M,05.0,0302*69
06/30/2019,20:00:47.878,$GPGGA,200046,3747.2007,N,12223.0583,W,2,07,01.1,18.6,M,-28.0,M,06.0,0302*69
06/30/2019,20:00:48.565,$GPGGA,200047,3747.2007,N,12223.0583,W,2,07,01.1,18.6,M,-28.0,M,06.0,0302*68
06/30/2019,20:00:50.659,$GPGGA,200049,3747.2007,N,12223.0583,W,2,07,01.1,18.6,M,-28.0,M,06.0,0302*66
06/30/2019,20:00:51.451,$GPGGA,200050,3747.2007,N,12223.0582,W,2,07,01.1,18.6,M,-28.0,M,06.0,0302*6F
06/30/2019,20:00:52.478,$GPGGA,200051,3747.2007,N,12223.0582,W,2,07,01.1,18.6,M,-28.0,M,06.0,0302*6E
06/30/2019,20:00:53.666,$GPGGA,200052,3747.2007,N,12223.0583,W,2,07,01.1,18.6,M,-28.0,M,05.0,0302*6F
06/30/2019,20:00:54.948,$GPGGA,200053,3747.2007,N,12223.0583,W,2,07,01.1,18.7,M,-28.0,M,06.0,0302*6C
06/30/2019,20:00:55.555,$GPGGA,200054,3747.2007,N,12223.0583,W,2,07,01.1,18.7,M,-28.0,M,06.0,0302*6B
06/30/2019,20:00:56.477,$GPGGA,200055,3747.2007,N,12223.0583,W,2,07,01.1,18.7,M,-28.0,M,05.0,0302*69
06/30/2019,20:00:57.458,$GPGGA,200056,3747.2007,N,12223.0583,W,2,07,01.1,18.7,M,-28.0,M,06.0,0302*69
06/30/2019,20:00:58.609,$GPGGA,200057,3747.2007,N,12223.0583,W,2,07,01.1,18.7,M,-28.0,M,06.0,0302*68
06/30/2019,20:00:59.451,$GPGGA,200058,3747.2007,N,12223.0583,W,2,07,01.1,18.7,M,-28.0,M,05.0,0302*64
06/30/2019,20:01:00.585,$GPGGA,200059,3747.2007,N,12223.0583,W,2,07,01.1,18.7,M,-28.0,M,06.0,0302*66
06/30/2019,20:01:01.458,$GPGGA,200100,3747.2007,N,12223.0583,W,2,07,01.1,18.7,M,-28.0,M,06.0,0302*6B
06/30/2019,20:01:02.551,$GPGGA,200101,3747.2007,N,12223.0583,W,2,07,01.1,18.7,M,-28.0,M,05.0,0302*69
06/30/2019,20:01:03.509,$GPGGA,200102,3747.2007,N,12223.0583,W,2,07,01.1,18.7,M,-28.0,M,06.0,0302*69
06/30/2019,20:01:04.537,$GPGGA,200103,3747.2007,N,12223.0583,W,2,07,01.1,18.7,M,-28.0,M,06.0,0302*68
06/30/2019,20:01:05.517,$GPGGA,200104,3747.2007,N,12223.0583,W,2,07,01.1,18.7,M,-28.0,M,05.0,0302*6C
06/30/2019,20:01:06.610,$GPGGA,200105,3747.2007,N,12223.0583,W,2,07,01.1,18.7,M,-28.0,M,05.0,0302*6D
06/30/2019,20:01:07.451,$GPGGA,200106,3747.2007,N,12223.0583,W,2,07,01.1,18.7,M,-28.0,M,06.0,0302*6D
06/30/2019,20:01:08.588,$GPGGA,200107,3747.2007,N,12223.0583,W,2,07,01.1,18.7,M,-28.0,M,05.0,0302*6F
06/30/2019,20:01:10.458,$GPGGA,200109,3747.2007,N,12223.0583,W,2,07,01.1,18.7,M,-28.0,M,06.0,0302*62
06/30/2019,20:01:11.551,$GPGGA,200110,3747.2007,N,12223.0583,W,2,07,01.1,18.7,M,-28.0,M,06.0,0302*6A
06/30/2019,20:01:12.560,$GPGGA,200111,3747.2007,N,12223.0583,W,2,07,01.1,18.7,M,-28.0,M,05.0,0302*68
06/30/2019,20:01:13.877,$GPGGA,200112,3747.2007,N,12223.0583,W,2,07,01.1,18.7,M,-28.0,M,05.0,0302*6B
06/30/2019,20:01:14.589,$GPGGA,200113,3747.2007,N,12223.0583,W,2,07,01.1,18.7,M,-28.0,M,06.0,0302*69
06/30/2019,20:01:15.627,$GPGGA,200114,3747.2007,N,12223.0583,W,2,07,01.1,18.7,M,-28.0,M,06.0,0302*6E
06/30/2019,20:01:16.509,$GPGGA,200115,3747.2007,N,12223.0583,W,2,07,01.1,18.7,M,-28.0,M,05.0,0302*6C
06/30/2019,20:01:17.325,$GPGGA,200116,3747.2007,N,12223.0583,W,2,07,01.1,18.7,M,-28.0,M,05.0,0302*6F
06/30/2019,20:01:18.572,$GPGGA,200117,3747.2007,N,12223.0582,W,2,07,01.1,18.7,M,-28.0,M,05.0,0302*6F
06/30/2019,20:01:19.551,$GPGGA,200118,3747.2007,N,12223.0583,W,2,07,01.1,18.7,M,-28.0,M,04.0,0302*60
06/30/2019,20:01:20.559,$GPGGA,200119,3747.2007,N,12223.0583,W,2,07,01.1,18.7,M,-28.0,M,05.0,0302*60
06/30/2019,20:01:21.478,$GPGGA,200120,3747.2007,N,12223.0583,W,2,07,01.1,18.7,M,-28.0,M,06.0,0302*69
06/30/2019,20:01:22.575,$GPGGA,200121,3747.2007,N,12223.0583,W,2,07,01.1,18.7,M,-28.0,M,05.0,0302*6B
06/30/2019,20:01:23.611,$GPGGA,200122,3747.2007,N,12223.0583,W,2,07,01.1,18.7,M,-28.0,M,05.0,0302*68
06/30/2019,20:01:25.012,$GPGGA,200123,3747.2007,N,12223.0583,W,2,07,01.1,18.7,M,-28.0,M,06.0,0302*6A
06/30/2019,20:01:25.279,$GPGGA,200124,3747.2007,N,12223.0582,W,2,07,01.1,18.7,M,-28.0,M,06.0,0302*6C
06/30/2019,20:01:26.622,$GPGGA,200125,3747.2007,N,12223.0582,W,2,07,01.1,18.7,M,-28.0,M,05.0,0302*6E
06/30/2019,20:01:28.611,$GPGGA,200127,3747.2007,N,12223.0582,W,2,07,01.1,18.7,M,-28.0,M,06.0,0302*6F
06/30/2019,20:01:29.301,$GPGGA,200128,3747.2007,N,12223.0582,W,2,07,01.1,18.7,M,-28.0,M,05.0,0302*63
06/30/2019,20:01:30.877,$GPGGA,200129,3747.2007,N,12223.0582,W,2,07,01.1,18.8,M,-28.0,M,05.0,0302*6D
06/30/2019,20:01:32.458,$GPGGA,200131,3747.2007,N,12223.0583,W,2,07,01.1,18.7,M,-28.0,M,05.0,0302*6A
06/30/2019,20:01:33.612,$GPGGA,200132,3747.2007,N,12223.0583,W,2,07,01.1,18.7,M,-28.0,M,05.0,0302*69
06/30/2019,20:01:34.907,$GPGGA,200133,3747.2007,N,12223.0583,W,2,07,01.1,18.8,M,-28.0,M,05.0,0302*67
06/30/2019,20:01:35.629,$GPGGA,200134,3747.2007,N,12223.0582,W,2,07,01.1,18.8,M,-28.0,M,05.0,0302*61
06/30/2019,20:01:36.519,$GPGGA,200135,3747.2007,N,12223.0582,W,2,07,01.1,18.8,M,-28.0,M,06.0,0302*63
06/30/2019,20:01:37.399,$GPGGA,200136,3747.2007,N,12223.0582,W,2,07,01.1,18.8,M,-28.0,M,06.0,0302*60
06/30/2019,20:01:38.453,$GPGGA,200137,3747.2007,N,12223.0582,W,2,07,01.1,18.8,M,-28.0,M,05.0,0302*62
06/30/2019,20:01:39.479,$GPGGA,200138,3747.2007,N,12223.0582,W,2,07,01.1,18.8,M,-28.0,M,06.0,0302*6E
06/30/2019,20:01:40.565,$GPGGA,200139,3747.2007,N,12223.0583,W,2,07,01.1,18.8,M,-28.0,M,06.0,0302*6E
06/30/2019,20:01:41.552,$GPGGA,200140,3747.2007,N,12223.0583,W,2,07,01.1,18.8,M,-28.0,M,05.0,0302*63
06/30/2019,20:01:42.452,$GPGGA,200141,3747.2007,N,12223.0583,W,2,07,01.1,18.8,M,-28.0,M,06.0,0302*61
06/30/2019,20:01:43.585,$GPGGA,200142,3747.2007,N,12223.0583,W,2,07,01.1,18.8,M,-28.0,M,06.0,0302*62
06/30/2019,20:01:44.858,$GPGGA,200143,3747.2007,N,12223.0582,W,2,07,01.1,18.8,M,-28.0,M,05.0,0302*61
06/30/2019,20:01:45.655,$GPGGA,200144,3747.2007,N,12223.0582,W,2,07,01.1,18.8,M,-28.0,M,06.0,0302*65
06/30/2019,20:01:46.453,$GPGGA,200145,3747.2007,N,12223.0582,W,2,07,01.1,18.8,M,-28.0,M,06.0,0302*64
06/30/2019,20:01:47.480,$GPGGA,200146,3747.2007,N,12223.0582,W,2,07,01.1,18.8,M,-28.0,M,05.0,0302*64
06/30/2019,20:01:48.570,$GPGGA,200147,3747.2007,N,12223.0583,W,2,07,01.1,18.8,M,-28.0,M,05.0,0302*64
06/30/2019,20:01:49.553,$GPGGA,200148,3747.2007,N,12223.0583,W,2,07,01.1,18.8,M,-28.0,M,06.0,0302*68
06/30/2019,20:01:50.562,$GPGGA,200149,3747.2007,N,12223.0583,W,2,07,01.1,18.8,M,-28.0,M,05.0,0302*6A
06/30/2019,20:01:51.878,$GPGGA,200150,3747.2007,N,12223.0583,W,2,07,01.1,18.8,M,-28.0,M,05.0,0302*62
06/30/2019,20:01:52.572,$GPGGA,200151,3747.2007,N,12223.0583,W,2,07,01.1,18.8,M,-28.0,M,06.0,0302*60
06/30/2019,20:01:53.962,$GPGGA,200152,3747.2007,N,12223.0583,W,2,07,01.1,18.8,M,-28.0,M,06.0,0302*63
06/30/2019,20:01:54.577,$GPGGA,200153,3747.2007,N,12223.0583,W,2,07,01.1,18.8,M,-28.0,M,05.0,0302*61
06/30/2019,20:01:55.539,$GPGGA,200154,3747.2007,N,12223.0583,W,2,07,01.1,18.8,M,-28.0,M,05.0,0302*66
06/30/2019,20:01:56.920,$GPGGA,200155,3747.2007,N,12223.0583,W,2,07,01.1,18.8,M,-28.0,M,06.0,0302*64
06/30/2019,20:01:57.730,$GPGGA,200156,3747.2007,N,12223.0583,W,2,07,01.1,18.8,M,-28.0,M,06.0,0302*67
06/30/2019,20:01:58.568,$GPGGA,200157,3747.2007,N,12223.0583,W,2,07,01.1,18.8,M,-28.0,M,05.0,0302*65
06/30/2019,20:01:59.480,$GPGGA,200158,3747.2007,N,12223.0583,W,2,07,01.1,18.8,M,-28.0,M,05.0,0302*6A
06/30/2019,20:02:00.567,$GPGGA,200159,3747.2007,N,12223.0583,W,2,07,01.1,18.8,M,-28.0,M,05.0,0302*6B
06/30/2019,20:02:01.554,$GPGGA,200200,3747.2007,N,12223.0582,W,2,07,01.1,18.8,M,-28.0,M,06.0,0302*66
06/30/2019,20:02:02.568,$GPGGA,200201,3747.2007,N,12223.0583,W,2,07,01.1,18.8,M,-28.0,M,06.0,0302*66
06/30/2019,20:02:03.539,$GPGGA,200202,3747.2007,N,12223.0583,W,2,08,01.0,18.8,M,-28.0,M,05.0,0302*68
06/30/2019,20:02:04.520,$GPGGA,200203,3747.2007,N,12223.0582,W,2,08,01.0,18.8,M,-28.0,M,05.0,0302*68
06/30/2019,20:02:05.400,$GPGGA,200204,3747.2007,N,12223.0582,W,2,08,01.0,18.8,M,-28.0,M,05.0,0302*6F
06/30/2019,20:02:06.567,$GPGGA,200205,3747.2007,N,12223.0582,W,2,07,01.1,18.8,M,-28.0,M,06.0,0302*63
06/30/2019,20:02:07.481,$GPGGA,200206,3747.2007,N,12223.0582,W,2,07,01.1,18.8,M,-28.0,M,06.0,0302*60
06/30/2019,20:02:08.461,$GPGGA,200207,3747.2007,N,12223.0582,W,2,07,01.1,18.8,M,-28.0,M,07.0,0302*60
06/30/2019,20:02:09.351,$GPGGA,200208,3747.2007,N,12223.0582,W,2,07,01.1,18.8,M,-28.0,M,06.0,0302*6E
06/30/2019,20:02:10.629,$GPGGA,200209,3747.2007,N,12223.0582,W,2,07,01.1,18.8,M,-28.0,M,06.0,0302*6F
06/30/2019,20:02:11.539,$GPGGA,200210,3747.2007,N,12223.0582,W,2,07,01.1,18.8,M,-28.0,M,05.0,0302*64
06/30/2019,20:02:12.520,$GPGGA,200211,3747.2007,N,12223.0582,W,2,07,01.1,18.8,M,-28.0,M,05.0,0302*65
06/30/2019,20:02:13.352,$GPGGA,200212,3747.2007,N,12223.0582,W,2,07,01.1,18.8,M,-28.0,M,06.0,0302*65
06/30/2019,20:02:14.512,$GPGGA,200213,3747.2007,N,12223.0583,W,2,07,01.1,18.8,M,-28.0,M,05.0,0302*66
06/30/2019,20:02:15.481,$GPGGA,200214,3747.2007,N,12223.0583,W,2,07,01.1,18.8,M,-28.0,M,06.0,0302*62
06/30/2019,20:02:16.571,$GPGGA,200215,3747.2007,N,12223.0582,W,2,07,01.1,18.8,M,-28.0,M,06.0,0302*62
06/30/2019,20:02:17.351,$GPGGA,200216,3747.2007,N,12223.0582,W,2,07,01.1,18.8,M,-28.0,M,05.0,0302*62
06/30/2019,20:02:18.455,$GPGGA,200217,3747.2007,N,12223.0582,W,2,07,01.1,18.8,M,-28.0,M,05.0,0302*63
06/30/2019,20:02:20.588,$GPGGA,200219,3747.2007,N,12223.0582,W,2,07,01.1,18.8,M,-28.0,M,05.0,0302*6D
06/30/2019,20:02:22.462,$GPGGA,200221,3747.2007,N,12223.0582,W,2,07,01.1,18.8,M,-28.0,M,06.0,0302*65
06/30/2019,20:02:23.613,$GPGGA,200222,3747.2007,N,12223.0582,W,2,07,01.1,18.8,M,-28.0,M,06.0,0302*66
06/30/2019,20:02:24.512,$GPGGA,200223,3747.2007,N,12223.0582,W,2,07,01.1,18.8,M,-28.0,M,05.0,0302*64
06/30/2019,20:02:25.540,$GPGGA,200224,3747.2007,N,12223.0583,W,2,07,01.1,18.8,M,-28.0,M,05.0,0302*62
06/30/2019,20:02:26.520,$GPGGA,200225,3747.2007,N,12223.0583,W,2,08,01.0,18.8,M,-28.0,M,06.0,0302*6E
06/30/2019,20:02:27.555,$GPGGA,200226,3747.2007,N,12223.0582,W,2,08,01.0,18.8,M,-28.0,M,06.0,0302*6C
06/30/2019,20:02:28.565,$GPGGA,200227,3747.2007,N,12223.0582,W,2,08,01.0,18.8,M,-28.0,M,06.0,0302*6D
06/30/2019,20:02:29.483,$GPGGA,200228,3747.2007,N,12223.0582,W,2,08,01.0,18.8,M,-28.0,M,05.0,0302*61
06/30/2019,20:02:30.262,$GPGGA,200229,3747.2007,N,12223.0582,W,2,08,01.0,18.8,M,-28.0,M,06.0,0302*63
06/30/2019,20:02:31.613,$GPGGA,200230,3747.2007,N,12223.0582,W,2,08,01.0,18.8,M,-28.0,M,06.0,0302*6B
06/30/2019,20:02:32.216,$GPGGA,200231,3747.2007,N,12223.0582,W,2,08,01.0,18.8,M,-28.0,M,05.0,0302*69
06/30/2019,20:02:33.629,$GPGGA,200232,3747.2007,N,12223.0583,W,2,08,01.0,18.8,M,-28.0,M,06.0,0302*68
06/30/2019,20:02:34.521,$GPGGA,200233,3747.2007,N,12223.0583,W,2,08,01.0,18.8,M,-28.0,M,06.0,0302*69
06/30/2019,20:02:35.555,$GPGGA,200234,3747.2007,N,12223.0583,W,2,08,01.0,18.8,M,-28.0,M,05.0,0302*6D
06/30/2019,20:02:36.456,$GPGGA,200235,3747.2007,N,12223.0583,W,2,08,01.0,18.8,M,-28.0,M,05.0,0302*6C
06/30/2019,20:02:38.591,$GPGGA,200237,3747.2007,N,12223.0583,W,2,08,01.0,18.8,M,-28.0,M,07.0,0302*6C
06/30/2019,20:02:39.462,$GPGGA,200238,3747.2007,N,12223.0583,W,2,08,01.0,18.8,M,-28.0,M,06.0,0302*62
06/30/2019,20:02:40.556,$GPGGA,200239,3747.2007,N,12223.0583,W,2,08,01.0,18.8,M,-28.0,M,05.0,0302*60
06/30/2019,20:02:41.457,$GPGGA,200240,3747.2007,N,12223.0583,W,2,08,01.0,18.8,M,-28.0,M,06.0,0302*6D
06/30/2019,20:02:42.591,$GPGGA,200241,3747.2007,N,12223.0583,W,2,08,01.0,18.8,M,-28.0,M,06.0,0302*6C
06/30/2019,20:02:43.911,$GPGGA,200242,3747.2007,N,12223.0583,W,2,07,01.1,18.8,M,-28.0,M,06.0,0302*61
06/30/2019,20:02:44.703,$GPGGA,200243,3747.2007,N,12223.0583,W,2,07,01.1,18.8,M,-28.0,M,05.0,0302*63
06/30/2019,20:02:45.513,$GPGGA,200244,3747.2007,N,12223.0583,W,2,07,01.1,18.8,M,-28.0,M,05.0,0302*64
06/30/2019,20:02:46.541,$GPGGA,200245,3747.2007,N,12223.0583,W,2,07,01.1,18.8,M,-28.0,M,06.0,0302*66
06/30/2019,20:02:47.557,$GPGGA,200246,3747.2007,N,12223.0583,W,2,07,01.1,18.8,M,-28.0,M,06.0,0302*65
06/30/2019,20:02:48.614,$GPGGA,200247,3747.2007,N,12223.0583,W,2,07,01.1,18.8,M,-28.0,M,05.0,0302*67
06/30/2019,20:02:49.303,$GPGGA,200248,3747.2007,N,12223.0583,W,2,07,01.1,18.8,M,-28.0,M,04.0,0302*69
06/30/2019,20:02:50.597,$GPGGA,200249,3747.2007,N,12223.0583,W,2,07,01.1,18.8,M,-28.0,M,05.0,0302*69
06/30/2019,20:02:51.465,$GPGGA,200250,3747.2007,N,12223.0583,W,2,07,01.1,18.8,M,-28.0,M,05.0,0302*61
06/30/2019,20:02:52.665,$GPGGA,200251,3747.2007,N,12223.0583,W,2,07,01.1,18.8,M,-28.0,M,05.0,0302*60
06/30/2019,20:02:53.458,$GPGGA,200252,3747.2007,N,12223.0583,W,2,07,01.1,18.8,M,-28.0,M,06.0,0302*60
06/30/2019,20:02:54.592,$GPGGA,200253,3747.2007,N,12223.0583,W,2,07,01.1,18.8,M,-28.0,M,06.0,0302*61
06/30/2019,20:02:55.861,$GPGGA,200254,3747.2007,N,12223.0583,W,2,07,01.1,18.8,M,-28.0,M,06.0,0302*66
06/30/2019,20:02:56.662,$GPGGA,200255,3747.2007,N,12223.0583,W,2,07,01.1,18.8,M,-28.0,M,07.0,0302*66
06/30/2019,20:02:57.457,$GPGGA,200256,3747.2007,N,12223.0583,W,2,07,01.1,18.7,M,-28.0,M,06.0,0302*6B
06/30/2019,20:02:58.630,$GPGGA,200257,3747.2007,N,12223.0583,W,2,07,01.1,18.7,M,-28.0,M,05.0,0302*69
06/30/2019,20:03:00.567,$GPGGA,200259,3747.2007,N,12223.0582,W,2,07,01.1,18.8,M,-28.0,M,05.0,0302*69
06/30/2019,20:03:01.556,$GPGGA,200300,3747.2008,N,12223.0582,W,2,07,01.1,18.7,M,-28.0,M,06.0,0302*67
06/30/2019,20:03:02.456,$GPGGA,200301,3747.2007,N,12223.0582,W,2,07,01.1,18.7,M,-28.0,M,06.0,0302*69
06/30/2019,20:03:04.640,$GPGGA,200303,3747.2007,N,12223.0583,W,2,07,01.1,18.7,M,-28.0,M,06.0,0302*6A
06/30/2019,20:03:05.310,$GPGGA,200304,3747.2007,N,12223.0583,W,2,07,01.1,18.7,M,-28.0,M,05.0,0302*6E
06/30/2019,20:03:06.670,$GPGGA,200305,3747.2007,N,12223.0582,W,2,07,01.1,18.8,M,-28.0,M,05.0,0302*61
06/30/2019,20:03:07.456,$GPGGA,200306,3747.2007,N,12223.0582,W,2,07,01.1,18.7,M,-28.0,M,06.0,0302*6E
06/30/2019,20:03:08.591,$GPGGA,200307,3747.2007,N,12223.0582,W,2,07,01.1,18.7,M,-28.0,M,05.0,0302*6C
06/30/2019,20:03:09.464,$GPGGA,200308,3747.2007,N,12223.0582,W,2,07,01.1,18.8,M,-28.0,M,05.0,0302*6C
06/30/2019,20:03:10.664,$GPGGA,200309,3747.2007,N,12223.0582,W,2,07,01.1,18.8,M,-28.0,M,06.0,0302*6E
06/30/2019,20:03:11.855,$GPGGA,200310,3747.2007,N,12223.0582,W,2,07,01.1,18.8,M,-28.0,M,05.0,0302*65
06/30/2019,20:03:12.592,$GPGGA,200311,3747.2007,N,12223.0582,W,2,07,01.1,18.8,M,-28.0,M,05.0,0302*64
06/30/2019,20:03:13.860,$GPGGA,200312,3747.2007,N,12223.0582,W,2,07,01.1,18.8,M,-28.0,M,05.0,0302*67
06/30/2019,20:03:14.665,$GPGGA,200313,3747.2007,N,12223.0582,W,2,07,01.1,18.8,M,-28.0,M,05.0,0302*66
06/30/2019,20:03:15.458,$GPGGA,200314,3747.2007,N,12223.0582,W,2,07,01.1,18.8,M,-28.0,M,06.0,0302*62
06/30/2019,20:03:16.484,$GPGGA,200315,3747.2007,N,12223.0582,W,2,07,01.1,18.8,M,-28.0,M,06.0,0302*63
06/30/2019,20:03:17.571,$GPGGA,200316,3747.2007,N,12223.0582,W,2,07,01.1,18.8,M,-28.0,M,05.0,0302*63
06/30/2019,20:03:18.556,$GPGGA,200317,3747.2007,N,12223.0582,W,2,07,01.1,18.8,M,-28.0,M,05.0,0302*62
06/30/2019,20:03:19.457,$GPGGA,200318,3747.2007,N,12223.0582,W,2,07,01.1,18.8,M,-28.0,M,06.0,0302*6E
06/30/2019,20:03:20.588,$GPGGA,200319,3747.2007,N,12223.0582,W,2,07,01.1,18.8,M,-28.0,M,05.0,0302*6C
06/30/2019,20:03:21.464,$GPGGA,200320,3747.2007,N,12223.0582,W,2,07,01.1,18.8,M,-28.0,M,06.0,0302*65
06/30/2019,20:03:22.671,$GPGGA,200321,3747.2007,N,12223.0582,W,2,07,01.1,18.8,M,-28.0,M,06.0,0302*64
06/30/2019,20:03:23.513,$GPGGA,200322,3747.2007,N,12223.0582,W,2,07,01.1,18.8,M,-28.0,M,05.0,0302*64
06/30/2019,20:03:24.541,$GPGGA,200323,3747.2006,N,12223.0582,W,2,07,01.1,18.8,M,-28.0,M,05.0,0302*64
06/30/2019,20:03:25.522,$GPGGA,200324,3747.2006,N,12223.0582,W,2,07,01.1,18.8,M,-28.0,M,05.0,0302*63
06/30/2019,20:03:27.016,$GPGGA,200325,3747.2007,N,12223.0582,W,2,07,01.1,18.8,M,-28.0,M,05.0,0302*63
06/30/2019,20:03:27.633,$GPGGA,200326,3747.2007,N,12223.0582,W,2,07,01.1,18.8,M,-28.0,M,06.0,0302*63
06/30/2019,20:03:28.592,$GPGGA,200327,3747.2007,N,12223.0582,W,2,07,01.1,18.8,M,-28.0,M,06.0,0302*62
06/30/2019,20:03:29.464,$GPGGA,200328,3747.2007,N,12223.0582,W,2,07,01.1,18.8,M,-28.0,M,05.0,0302*6E
06/30/2019,20:03:31.133,$GPGGA,200329,3747.2007,N,12223.0581,W,2,07,01.1,18.8,M,-28.0,M,05.0,0302*6C
06/30/2019,20:03:31.473,$GPGGA,200330,3747.2007,N,12223.0581,W,2,07,01.1,18.8,M,-28.0,M,04.0,0302*65
06/30/2019,20:03:32.659,$GPGGA,200331,3747.2007,N,12223.0581,W,2,07,01.1,18.8,M,-28.0,M,05.0,0302*65
06/30/2019,20:03:33.311,$GPGGA,200332,3747.2007,N,12223.0582,W,2,07,01.1,18.8,M,-28.0,M,05.0,0302*65
06/30/2019,20:03:34.615,$GPGGA,200333,3747.2007,N,12223.0582,W,2,07,01.1,18.8,M,-28.0,M,05.0,0302*64
06/30/2019,20:03:36.563,$GPGGA,200335,3747.2007,N,12223.0582,W,2,07,01.1,18.8,M,-28.0,M,06.0,0302*61
06/30/2019,20:03:37.485,$GPGGA,200336,3747.2007,N,12223.0582,W,2,07,01.1,18.8,M,-28.0,M,06.0,0302*62
06/30/2019,20:03:38.465,$GPGGA,200337,3747.2007,N,12223.0582,W,2,07,01.1,18.8,M,-28.0,M,05.0,0302*60
06/30/2019,20:03:39.558,$GPGGA,200338,3747.2007,N,12223.0582,W,2,07,01.1,18.8,M,-28.0,M,05.0,0302*6F
06/30/2019,20:03:40.563,$GPGGA,200339,3747.2007,N,12223.0582,W,2,08,01.0,18.8,M,-28.0,M,06.0,0302*63
06/30/2019,20:03:42.485,$GPGGA,200341,3747.2007,N,12223.0582,W,2,08,01.0,18.8,M,-28.0,M,05.0,0302*6F
06/30/2019,20:03:43.522,$GPGGA,200342,3747.2008,N,12223.0582,W,2,08,01.0,18.8,M,-28.0,M,05.0,0302*63
06/30/2019,20:03:44.615,$GPGGA,200343,3747.2008,N,12223.0582,W,2,08,01.0,18.7,M,-28.0,M,05.0,0302*6D
06/30/2019,20:03:45.515,$GPGGA,200344,3747.2008,N,12223.0582,W,2,08,01.0,18.7,M,-28.0,M,05.0,0302*6A
06/30/2019,20:03:46.943,$GPGGA,200345,3747.2008,N,12223.0582,W,2,08,01.0,18.7,M,-28.0,M,04.0,0302*6A
06/30/2019,20:03:48.524,$GPGGA,200347,3747.2008,N,12223.0582,W,2,08,01.0,18.7,M,-28.0,M,06.0,0302*6A
06/30/2019,20:03:49.407,$GPGGA,200348,3747.2008,N,12223.0582,W,2,08,01.0,18.7,M,-28.0,M,05.0,0302*66
06/30/2019,20:03:50.569,$GPGGA,200349,3747.2008,N,12223.0582,W,2,07,01.1,18.7,M,-28.0,M,06.0,0302*6A
06/30/2019,20:03:51.485,$GPGGA,200350,3747.2008,N,12223.0582,W,2,07,01.1,18.7,M,-28.0,M,06.0,0302*62
06/30/2019,20:03:52.573,$GPGGA,200351,3747.2008,N,12223.0582,W,2,07,01.1,18.7,M,-28.0,M,05.0,0302*60
06/30/2019,20:03:53.558,$GPGGA,200352,3747.2008,N,12223.0582,W,2,07,01.1,18.7,M,-28.0,M,05.0,0302*63
06/30/2019,20:03:54.459,$GPGGA,200353,3747.2008,N,12223.0582,W,2,07,01.1,18.7,M,-28.0,M,04.0,0302*63
06/30/2019,20:03:55.485,$GPGGA,200354,3747.2008,N,12223.0582,W,2,07,01.1,18.7,M,-28.0,M,04.0,0302*64
06/30/2019,20:03:56.569,$GPGGA,200355,3747.2008,N,12223.0582,W,2,07,01.1,18.7,M,-28.0,M,05.0,0302*64
06/30/2019,20:03:57.558,$GPGGA,200356,3747.2008,N,12223.0582,W,2,07,01.1,18.7,M,-28.0,M,06.0,0302*64
06/30/2019,20:03:58.572,$GPGGA,200357,3747.2008,N,12223.0583,W,2,07,01.1,18.7,M,-28.0,M,05.0,0302*67
06/30/2019,20:03:59.486,$GPGGA,200358,3747.2008,N,12223.0583,W,2,07,01.1,18.7,M,-28.0,M,05.0,0302*68
06/30/2019,20:04:00.570,$GPGGA,200359,3747.2008,N,12223.0583,W,2,07,01.1,18.7,M,-28.0,M,06.0,0302*6A
06/30/2019,20:04:01.559,$GPGGA,200400,3747.2008,N,12223.0583,W,2,07,01.1,18.7,M,-28.0,M,06.0,0302*61
06/30/2019,20:04:02.459,$GPGGA,200401,3747.2008,N,12223.0582,W,2,07,01.1,18.7,M,-28.0,M,07.0,0302*60
06/30/2019,20:04:03.543,$GPGGA,200402,3747.2008,N,12223.0582,W,2,07,01.1,18.7,M,-28.0,M,06.0,0302*62
06/30/2019,20:04:04.524,$GPGGA,200403,3747.2008,N,12223.0582,W,2,07,01.1,18.7,M,-28.0,M,06.0,0302*63
06/30/2019,20:04:05.404,$GPGGA,200404,3747.2008,N,12223.0582,W,2,07,01.1,18.7,M,-28.0,M,05.0,0302*67
06/30/2019,20:04:06.571,$GPGGA,200405,3747.2008,N,12223.0582,W,2,07,01.1,18.7,M,-28.0,M,06.0,0302*65
06/30/2019,20:04:07.486,$GPGGA,200406,3747.2008,N,12223.0583,W,2,07,01.1,18.7,M,-28.0,M,06.0,0302*67
06/30/2019,20:04:08.569,$GPGGA,200407,3747.2008,N,12223.0583,W,2,07,01.1,18.7,M,-28.0,M,05.0,0302*65
06/30/2019,20:04:09.558,$GPGGA,200408,3747.2008,N,12223.0582,W,2,07,01.1,18.8,M,-28.0,M,05.0,0302*64
06/30/2019,20:04:10.616,$GPGGA,200409,3747.2008,N,12223.0582,W,2,07,01.1,18.8,M,-28.0,M,05.0,0302*65
06/30/2019,20:04:11.544,$GPGGA,200410,3747.2008,N,12223.0582,W,2,07,01.1,18.8,M,-28.0,M,05.0,0302*6D
06/30/2019,20:04:12.524,$GPGGA,200411,3747.2007,N,12223.0582,W,2,07,01.1,18.8,M,-28.0,M,05.0,0302*63
06/30/2019,20:04:13.559,$GPGGA,200412,3747.2007,N,12223.0582,W,2,07,01.1,18.8,M,-28.0,M,04.0,0302*61
06/30/2019,20:04:14.567,$GPGGA,200413,3747.2007,N,12223.0582,W,2,07,01.1,18.8,M,-28.0,M,05.0,0302*61
06/30/2019,20:04:15.487,$GPGGA,200414,3747.2007,N,12223.0582,W,2,07,01.1,18.8,M,-28.0,M,06.0,0302*65
06/30/2019,20:04:16.570,$GPGGA,200415,3747.2007,N,12223.0582,W,2,07,01.1,18.8,M,-28.0,M,05.0,0302*67
06/30/2019,20:04:17.559,$GPGGA,200416,3747.2007,N,12223.0582,W,2,07,01.1,18.8,M,-28.0,M,05.0,0302*64
06/30/2019,20:04:18.460,$GPGGA,200417,3747.2007,N,12223.0582,W,2,07,01.1,18.8,M,-28.0,M,06.0,0302*66
06/30/2019,20:04:19.486,$GPGGA,200418,3747.2007,N,12223.0583,W,2,07,01.1,18.8,M,-28.0,M,06.0,0302*68
06/30/2019,20:04:20.569,$GPGGA,200419,3747.2007,N,12223.0582,W,2,07,01.1,18.8,M,-28.0,M,05.0,0302*6B
06/30/2019,20:04:21.560,$GPGGA,200420,3747.2007,N,12223.0582,W,2,07,01.1,18.8,M,-28.0,M,05.0,0302*61
06/30/2019,20:04:22.616,$GPGGA,200421,3747.2007,N,12223.0582,W,2,07,01.1,18.8,M,-28.0,M,06.0,0302*63
06/30/2019,20:04:23.544,$GPGGA,200422,3747.2007,N,12223.0582,W,2,07,01.1,18.8,M,-28.0,M,05.0,0302*63
06/30/2019,20:04:24.525,$GPGGA,200423,3747.2007,N,12223.0582,W,2,07,01.1,18.8,M,-28.0,M,05.0,0302*62
06/30/2019,20:04:25.617,$GPGGA,200424,3747.2007,N,12223.0582,W,2,07,01.1,18.8,M,-28.0,M,04.0,0302*64
06/30/2019,20:04:26.518,$GPGGA,200425,3747.2007,N,12223.0582,W,2,07,01.1,18.8,M,-28.0,M,05.0,0302*64
06/30/2019,20:04:27.487,$GPGGA,200426,3747.2007,N,12223.0582,W,2,07,01.1,18.8,M,-28.0,M,06.0,0302*64
06/30/2019,20:04:28.525,$GPGGA,200427,3747.2007,N,12223.0582,W,2,08,01.0,18.9,M,-28.0,M,06.0,0302*6A
06/30/2019,20:04:29.617,$GPGGA,200428,3747.2007,N,12223.0583,W,2,08,01.0,18.9,M,-28.0,M,05.0,0302*67
06/30/2019,20:04:30.517,$GPGGA,200429,3747.2007,N,12223.0583,W,2,08,01.0,18.8,M,-28.0,M,05.0,0302*67
06/30/2019,20:04:32.595,$GPGGA,200431,3747.2007,N,12223.0583,W,2,08,01.0,18.9,M,-28.0,M,05.0,0302*6F
06/30/2019,20:04:33.468,$GPGGA,200432,3747.2007,N,12223.0582,W,2,08,01.0,18.9,M,-28.0,M,06.0,0302*6E
06/30/2019,20:04:34.561,$GPGGA,200433,3747.2007,N,12223.0582,W,2,08,01.0,18.9,M,-28.0,M,06.0,0302*6F
06/30/2019,20:04:35.517,$GPGGA,200434,3747.2007,N,12223.0582,W,2,08,01.0,18.8,M,-28.0,M,05.0,0302*6A
06/30/2019,20:04:36.545,$GPGGA,200435,3747.2007,N,12223.0582,W,2,08,01.0,18.9,M,-28.0,M,05.0,0302*6A
06/30/2019,20:04:37.525,$GPGGA,200436,3747.2007,N,12223.0583,W,2,08,01.0,18.9,M,-28.0,M,06.0,0302*6B
06/30/2019,20:04:39.717,$GPGGA,200438,3747.2007,N,12223.0583,W,2,08,01.0,18.9,M,-28.0,M,05.0,0302*66
06/30/2019,20:04:40.518,$GPGGA,200439,3747.2007,N,12223.0583,W,2,08,01.0,18.9,M,-28.0,M,06.0,0302*64
06/30/2019,20:04:41.544,$GPGGA,200440,3747.2007,N,12223.0583,W,2,08,01.0,18.9,M,-28.0,M,06.0,0302*6A
06/30/2019,20:04:42.917,$GPGGA,200441,3747.2007,N,12223.0583,W,2,08,01.0,18.9,M,-28.0,M,05.0,0302*68
06/30/2019,20:04:43.710,$GPGGA,200442,3747.2007,N,12223.0583,W,2,08,01.0,18.9,M,-28.0,M,05.0,0302*6B
06/30/2019,20:04:44.519,$GPGGA,200443,3747.2007,N,12223.0583,W,2,08,01.0,18.9,M,-28.0,M,05.0,0302*6A
06/30/2019,20:04:45.545,$GPGGA,200444,3747.2007,N,12223.0583,W,2,08,01.0,18.9,M,-28.0,M,05.0,0302*6D
06/30/2019,20:04:46.925,$GPGGA,200445,3747.2007,N,12223.0583,W,2,08,01.0,18.9,M,-28.0,M,06.0,0302*6F
06/30/2019,20:04:47.739,$GPGGA,200446,3747.2007,N,12223.0583,W,2,08,01.0,18.9,M,-28.0,M,05.0,0302*6F
06/30/2019,20:04:48.565,$GPGGA,200447,3747.2007,N,12223.0583,W,2,08,01.0,18.9,M,-28.0,M,05.0,0302*6E
06/30/2019,20:04:49.488,$GPGGA,200448,3747.2007,N,12223.0583,W,2,08,01.0,18.9,M,-28.0,M,06.0,0302*62
06/30/2019,20:04:50.469,$GPGGA,200449,3747.2007,N,12223.0584,W,2,08,01.0,18.9,M,-28.0,M,05.0,0302*67
06/30/2019,20:04:51.561,$GPGGA,200450,3747.2007,N,12223.0583,W,2,08,01.0,18.9,M,-28.0,M,05.0,0302*68
06/30/2019,20:04:53.083,$GPGGA,200451,3747.2007,N,12223.0583,W,2,08,01.0,18.9,M,-28.0,M,04.0,0302*68
06/30/2019,20:04:53.349,$GPGGA,200452,3747.2007,N,12223.0584,W,2,08,01.0,18.9,M,-28.0,M,05.0,0302*6D
06/30/2019,20:04:54.643,$GPGGA,200453,3747.2007,N,12223.0584,W,2,08,01.0,19.0,M,-28.0,M,05.0,0302*64
06/30/2019,20:04:55.619,$GPGGA,200454,3747.2007,N,12223.0584,W,2,08,01.0,19.0,M,-28.0,M,05.0,0302*63
06/30/2019,20:04:56.519,$GPGGA,200455,3747.2007,N,12223.0584,W,2,07,01.1,19.0,M,-28.0,M,06.0,0302*6F
06/30/2019,20:04:57.545,$GPGGA,200456,3747.2007,N,12223.0583,W,2,07,01.1,19.0,M,-28.0,M,06.0,0302*6B
06/30/2019,20:04:58.526,$GPGGA,200457,3747.2007,N,12223.0583,W,2,07,01.1,19.0,M,-28.0,M,06.0,0302*6A
06/30/2019,20:04:59.619,$GPGGA,200458,3747.2007,N,12223.0583,W,2,07,01.1,19.0,M,-28.0,M,05.0,0302*66
06/30/2019,20:05:00.519,$GPGGA,200459,3747.2007,N,12223.0584,W,2,07,01.1,19.0,M,-28.0,M,06.0,0302*63
06/30/2019,20:05:02.546,$GPGGA,200501,3747.2007,N,12223.0584,W,2,07,01.1,19.0,M,-28.0,M,05.0,0302*6C
06/30/2019,20:05:03.508,$GPGGA,200502,3747.2007,N,12223.0584,W,2,07,01.1,19.0,M,-28.0,M,06.0,0302*6C
06/30/2019,20:05:04.960,$GPGGA,200503,3747.2007,N,12223.0584,W,2,08,01.0,19.1,M,-28.0,M,05.0,0302*61
06/30/2019,20:05:05.562,$GPGGA,200504,3747.2007,N,12223.0584,W,2,08,01.0,19.1,M,-28.0,M,06.0,0302*65
06/30/2019,20:05:06.489,$GPGGA,200505,3747.2007,N,12223.0584,W,2,08,01.0,19.1,M,-28.0,M,06.0,0302*64
06/30/2019,20:05:07.526,$GPGGA,200506,3747.2007,N,12223.0584,W,2,08,01.0,19.1,M,-28.0,M,06.0,0302*67
06/30/2019,20:05:08.619,$GPGGA,200507,3747.2007,N,12223.0584,W,2,08,01.0,19.1,M,-28.0,M,05.0,0302*65
06/30/2019,20:05:09.519,$GPGGA,200508,3747.2007,N,12223.0584,W,2,08,01.0,19.1,M,-28.0,M,06.0,0302*69
06/30/2019,20:05:10.946,$GPGGA,200509,3747.2007,N,12223.0584,W,2,08,01.0,19.1,M,-28.0,M,06.0,0302*68
06/30/2019,20:05:11.641,$GPGGA,200510,3747.2007,N,12223.0584,W,2,08,01.0,19.1,M,-28.0,M,05.0,0302*63
06/30/2019,20:05:12.669,$GPGGA,200511,3747.2007,N,12223.0584,W,2,08,01.0,19.2,M,-28.0,M,06.0,0302*62
06/30/2019,20:05:13.462,$GPGGA,200512,3747.2007,N,12223.0584,W,2,08,01.0,19.2,M,-28.0,M,06.0,0302*61
06/30/2019,20:05:14.489,$GPGGA,200513,3747.2007,N,12223.0584,W,2,08,01.0,19.2,M,-28.0,M,05.0,0302*63
06/30/2019,20:05:15.526,$GPGGA,200514,3747.2007,N,12223.0584,W,2,08,01.0,19.2,M,-28.0,M,06.0,0302*67
06/30/2019,20:05:16.620,$GPGGA,200515,3747.2006,N,12223.0584,W,2,08,01.0,19.2,M,-28.0,M,06.0,0302*67
06/30/2019,20:05:17.310,$GPGGA,200516,3747.2006,N,12223.0584,W,2,08,01.0,19.2,M,-28.0,M,05.0,0302*67
06/30/2019,20:05:18.603,$GPGGA,200517,3747.2006,N,12223.0584,W,2,08,01.0,19.2,M,-28.0,M,05.0,0302*66
06/30/2019,20:05:19.474,$GPGGA,200518,3747.2006,N,12223.0584,W,2,08,01.0,19.3,M,-28.0,M,06.0,0302*6B
06/30/2019,20:05:21.138,$GPGGA,200519,3747.2006,N,12223.0584,W,2,08,01.0,19.3,M,-28.0,M,05.0,0302*69
06/30/2019,20:05:21.477,$GPGGA,200520,3747.2006,N,12223.0584,W,2,08,01.0,19.3,M,-28.0,M,05.0,0302*63
06/30/2019,20:05:22.547,$GPGGA,200521,3747.2006,N,12223.0584,W,2,08,01.0,19.3,M,-28.0,M,04.0,0302*63
06/30/2019,20:05:23.470,$GPGGA,200522,3747.2006,N,12223.0584,W,2,08,01.0,19.2,M,-28.0,M,05.0,0302*60
06/30/2019,20:05:25.139,$GPGGA,200523,3747.2007,N,12223.0584,W,2,08,01.0,19.1,M,-28.0,M,06.0,0302*60
06/30/2019,20:05:25.479,$GPGGA,200524,3747.2007,N,12223.0583,W,2,08,01.0,19.1,M,-28.0,M,05.0,0302*63
06/30/2019,20:05:27.548,$GPGGA,200526,3747.2007,N,12223.0583,W,2,07,01.1,18.9,M,-28.0,M,06.0,0302*65
06/30/2019,20:05:28.528,$GPGGA,200527,3747.2007,N,12223.0583,W,2,07,01.1,18.8,M,-28.0,M,05.0,0302*66
06/30/2019,20:05:29.409,$GPGGA,200528,3747.2007,N,12223.0583,W,2,07,01.1,18.7,M,-28.0,M,05.0,0302*66
06/30/2019,20:05:30.570,$GPGGA,200529,3747.2007,N,12223.0582,W,2,07,01.1,18.7,M,-28.0,M,05.0,0302*66
06/30/2019,20:05:31.491,$GPGGA,200530,3747.2007,N,12223.0582,W,2,08,01.0,18.6,M,-28.0,M,04.0,0302*60
06/30/2019,20:05:32.585,$GPGGA,200531,3747.2007,N,12223.0582,W,2,08,01.0,18.6,M,-28.0,M,05.0,0302*60
06/30/2019,20:05:33.563,$GPGGA,200532,3747.2008,N,12223.0582,W,2,08,01.0,18.6,M,-28.0,M,06.0,0302*6F
06/30/2019,20:05:34.570,$GPGGA,200533,3747.2008,N,12223.0582,W,2,08,01.0,18.6,M,-28.0,M,05.0,0302*6D
06/30/2019,20:05:35.888,$GPGGA,200534,3747.2008,N,12223.0582,W,2,08,01.0,18.5,M,-28.0,M,05.0,0302*69
06/30/2019,20:05:36.587,$GPGGA,200535,3747.2008,N,12223.0582,W,2,08,01.0,18.5,M,-28.0,M,06.0,0302*6B
06/30/2019,20:05:37.620,$GPGGA,200536,3747.2008,N,12223.0582,W,2,08,01.0,18.5,M,-28.0,M,06.0,0302*68
06/30/2019,20:05:38.521,$GPGGA,200537,3747.2008,N,12223.0582,W,2,08,01.0,18.5,M,-28.0,M,07.0,0302*68
06/30/2019,20:05:39.491,$GPGGA,200538,3747.2008,N,12223.0582,W,2,08,01.0,18.5,M,-28.0,M,06.0,0302*66
06/30/2019,20:05:40.573,$GPGGA,200539,3747.2008,N,12223.0582,W,2,08,01.0,18.5,M,-28.0,M,06.0,0302*67
06/30/2019,20:05:41.564,$GPGGA,200540,3747.2008,N,12223.0582,W,2,08,01.0,18.5,M,-28.0,M,05.0,0302*6A
06/30/2019,20:05:42.465,$GPGGA,200541,3747.2008,N,12223.0582,W,2,08,01.0,18.5,M,-28.0,M,06.0,0302*68
06/30/2019,20:05:43.491,$GPGGA,200542,3747.2008,N,12223.0582,W,2,08,01.0,18.5,M,-28.0,M,06.0,0302*6B
06/30/2019,20:05:44.471,$GPGGA,200543,3747.2008,N,12223.0582,W,2,08,01.0,18.5,M,-28.0,M,05.0,0302*69
06/30/2019,20:05:46.677,$GPGGA,200545,3747.2008,N,12223.0582,W,2,08,01.0,18.5,M,-28.0,M,06.0,0302*6C
06/30/2019,20:05:47.464,$GPGGA,200546,3747.2008,N,12223.0582,W,2,08,01.0,18.5,M,-28.0,M,05.0,0302*6C
06/30/2019,20:05:48.593,$GPGGA,200547,3747.2008,N,12223.0582,W,2,08,01.0,18.5,M,-28.0,M,06.0,0302*6E
06/30/2019,20:05:49.471,$GPGGA,200548,3747.2008,N,12223.0582,W,2,08,01.0,18.5,M,-28.0,M,06.0,0302*61
06/30/2019,20:05:50.678,$GPGGA,200549,3747.2008,N,12223.0582,W,2,08,01.0,18.5,M,-28.0,M,05.0,0302*63
06/30/2019,20:05:51.465,$GPGGA,200550,3747.2008,N,12223.0582,W,2,08,01.0,18.5,M,-28.0,M,05.0,0302*6B
06/30/2019,20:05:52.492,$GPGGA,200551,3747.2008,N,12223.0582,W,2,08,01.0,18.5,M,-28.0,M,06.0,0302*69
06/30/2019,20:05:53.472,$GPGGA,200552,3747.2008,N,12223.0582,W,2,08,01.0,18.5,M,-28.0,M,05.0,0302*69
06/30/2019,20:05:55.068,$GPGGA,200553,3747.2008,N,12223.0582,W,2,08,01.0,18.5,M,-28.0,M,05.0,0302*68
06/30/2019,20:05:55.662,$GPGGA,200554,3747.2008,N,12223.0582,W,2,08,01.0,18.5,M,-28.0,M,06.0,0302*6C
06/30/2019,20:05:56.548,$GPGGA,200555,3747.2008,N,12223.0582,W,2,08,01.0,18.5,M,-28.0,M,05.0,0302*6E
06/30/2019,20:05:57.529,$GPGGA,200556,3747.2008,N,12223.0582,W,2,08,01.0,18.5,M,-28.0,M,05.0,0302*6D
06/30/2019,20:05:58.621,$GPGGA,200557,3747.2008,N,12223.0582,W,2,08,01.0,18.5,M,-28.0,M,04.0,0302*6D
06/30/2019,20:05:59.521,$GPGGA,200558,3747.2008,N,12223.0582,W,2,08,01.0,18.5,M,-28.0,M,05.0,0302*63
06/30/2019,20:06:01.030,$GPGGA,200559,3747.2008,N,12223.0582,W,2,08,01.0,18.5,M,-28.0,M,06.0,0302*61
06/30/2019,20:06:01.298,$GPGGA,200600,3747.2008,N,12223.0582,W,2,08,01.0,18.5,M,-28.0,M,05.0,0302*6D
06/30/2019,20:06:02.566,$GPGGA,200601,3747.2008,N,12223.0582,W,2,08,01.0,18.5,M,-28.0,M,06.0,0302*6F
06/30/2019,20:06:03.466,$GPGGA,200602,3747.2008,N,12223.0581,W,2,08,01.0,18.5,M,-28.0,M,06.0,0302*6F
06/30/2019,20:06:04.998,$GPGGA,200603,3747.2008,N,12223.0582,W,2,08,01.0,18.5,M,-28.0,M,06.0,0302*6D
06/30/2019,20:06:05.489,$GPGGA,200604,3747.2008,N,12223.0582,W,2,08,01.0,18.5,M,-28.0,M,05.0,0302*69
06/30/2019,20:06:06.622,$GPGGA,200605,3747.2008,N,12223.0582,W,2,08,01.0,18.5,M,-28.0,M,06.0,0302*6B
06/30/2019,20:06:07.466,$GPGGA,200606,3747.2008,N,12223.0582,W,2,08,01.0,18.5,M,-28.0,M,06.0,0302*68
06/30/2019,20:06:08.599,$GPGGA,200607,3747.2008,N,12223.0582,W,2,08,01.0,18.5,M,-28.0,M,05.0,0302*6A
06/30/2019,20:06:09.473,$GPGGA,200608,3747.2008,N,12223.0582,W,2,08,01.0,18.5,M,-28.0,M,06.0,0302*66
06/30/2019,20:06:10.671,$GPGGA,200609,3747.2008,N,12223.0582,W,2,08,01.0,18.5,M,-28.0,M,06.0,0302*67
06/30/2019,20:06:11.861,$GPGGA,200610,3747.2008,N,12223.0582,W,2,08,01.0,18.5,M,-28.0,M,05.0,0302*6C
06/30/2019,20:06:12.599,$GPGGA,200611,3747.2008,N,12223.0582,W,2,08,01.0,18.5,M,-28.0,M,05.0,0302*6D
06/30/2019,20:06:14.579,$GPGGA,200613,3747.2008,N,12223.0582,W,2,08,01.0,18.5,M,-28.0,M,06.0,0302*6C
06/30/2019,20:06:15.566,$GPGGA,200614,3747.2008,N,12223.0582,W,2,08,01.0,18.5,M,-28.0,M,05.0,0302*68
06/30/2019,20:06:16.466,$GPGGA,200615,3747.2008,N,12223.0582,W,2,08,01.0,18.5,M,-28.0,M,05.0,0302*69
06/30/2019,20:06:17.493,$GPGGA,200616,3747.2008,N,12223.0582,W,2,08,01.0,18.5,M,-28.0,M,05.0,0302*6A
06/30/2019,20:06:18.621,$GPGGA,200617,3747.2007,N,12223.0582,W,2,07,01.1,18.5,M,-28.0,M,05.0,0302*6A
06/30/2019,20:06:19.636,$GPGGA,200618,3747.2008,N,12223.0582,W,2,07,01.1,18.5,M,-28.0,M,06.0,0302*69
06/30/2019,20:06:20.522,$GPGGA,200619,3747.2008,N,12223.0582,W,2,08,01.0,18.5,M,-28.0,M,06.0,0302*66
06/30/2019,20:06:21.549,$GPGGA,200620,3747.2008,N,12223.0582,W,2,07,01.1,18.5,M,-28.0,M,05.0,0302*61
06/30/2019,20:06:22.925,$GPGGA,200621,3747.2008,N,12223.0582,W,2,07,01.1,18.5,M,-28.0,M,05.0,0302*60
06/30/2019,20:06:23.730,$GPGGA,200622,3747.2008,N,12223.0582,W,2,08,01.0,18.5,M,-28.0,M,06.0,0302*6E
06/30/2019,20:06:24.523,$GPGGA,200623,3747.2008,N,12223.0582,W,2,08,01.0,18.5,M,-28.0,M,06.0,0302*6F
06/30/2019,20:06:25.550,$GPGGA,200624,3747.2008,N,12223.0582,W,2,08,01.0,18.5,M,-28.0,M,05.0,0302*6B
06/30/2019,20:06:26.530,$GPGGA,200625,3747.2008,N,12223.0582,W,2,08,01.0,18.5,M,-28.0,M,06.0,0302*69
06/30/2019,20:06:27.566,$GPGGA,200626,3747.2008,N,12223.0582,W,2,08,01.0,18.6,M,-28.0,M,06.0,0302*69
06/30/2019,20:06:28.572,$GPGGA,200627,3747.2008,N,12223.0582,W,2,08,01.0,18.5,M,-28.0,M,05.0,0302*68
06/30/2019,20:06:29.505,$GPGGA,200628,3747.2008,N,12223.0582,W,2,08,01.0,18.5,M,-28.0,M,06.0,0302*64
06/30/2019,20:06:30.579,$GPGGA,200629,3747.2008,N,12223.0582,W,2,08,01.0,18.5,M,-28.0,M,07.0,0302*64
06/30/2019,20:06:31.980,$GPGGA,200630,3747.2008,N,12223.0582,W,2,08,01.0,18.6,M,-28.0,M,07.0,0302*6F
06/30/2019,20:06:32.319,$GPGGA,200631,3747.2008,N,12223.0582,W,2,08,01.0,18.6,M,-28.0,M,08.0,0302*61
06/30/2019,20:06:33.549,$GPGGA,200632,3747.2008,N,12223.0581,W,2,08,01.0,18.5,M,-28.0,M,07.0,0302*6D
06/30/2019,20:06:34.531,$GPGGA,200633,3747.2008,N,12223.0581,W,2,08,01.0,18.5,M,-28.0,M,05.0,0302*6E
06/30/2019,20:06:35.568,$GPGGA,200634,3747.2008,N,12223.0581,W,2,08,01.0,18.6,M,-28.0,M,05.0,0302*6A
06/30/2019,20:06:36.573,$GPGGA,200635,3747.2008,N,12223.0582,W,2,08,01.0,18.6,M,-28.0,M,06.0,0302*6B
06/30/2019,20:06:37.494,$GPGGA,200636,3747.2008,N,12223.0582,W,2,08,01.0,18.6,M,-28.0,M,06.0,0302*68
06/30/2019,20:06:38.588,$GPGGA,200637,3747.2008,N,12223.0582,W,2,08,01.0,18.6,M,-28.0,M,05.0,0302*6A
06/30/2019,20:06:39.567,$GPGGA,200638,3747.2007,N,12223.0582,W,2,08,01.0,18.6,M,-28.0,M,06.0,0302*69
06/30/2019,20:06:40.569,$GPGGA,200639,3747.2007,N,12223.0581,W,2,08,01.0,18.6,M,-28.0,M,06.0,0302*6B
06/30/2019,20:06:42.494,$GPGGA,200641,3747.2007,N,12223.0582,W,2,08,01.0,18.6,M,-28.0,M,05.0,0302*64
06/30/2019,20:06:43.531,$GPGGA,200642,3747.2007,N,12223.0582,W,2,08,01.0,18.6,M,-28.0,M,06.0,0302*64
06/30/2019,20:06:44.623,$GPGGA,200643,3747.2007,N,12223.0582,W,2,08,01.0,18.6,M,-28.0,M,05.0,0302*66
06/30/2019,20:06:45.524,$GPGGA,200644,3747.2007,N,12223.0581,W,2,08,01.0,18.6,M,-28.0,M,06.0,0302*61
06/30/2019,20:06:46.948,$GPGGA,200645,3747.2007,N,12223.0581,W,2,08,01.0,18.6,M,-28.0,M,06.0,0302*60
06/30/2019,20:06:48.419,$GPGGA,200647,3747.2007,N,12223.0581,W,2,08,01.0,18.6,M,-28.0,M,06.0,0302*62
06/30/2019,20:06:49.624,$GPGGA,200648,3747.2007,N,12223.0582,W,2,08,01.0,18.6,M,-28.0,M,06.0,0302*6E
06/30/2019,20:06:50.414,$GPGGA,200649,3747.2007,N,12223.0581,W,2,08,01.0,18.6,M,-28.0,M,05.0,0302*6F
06/30/2019,20:06:51.550,$GPGGA,200650,3747.2007,N,12223.0581,W,2,08,01.0,18.6,M,-28.0,M,06.0,0302*64
06/30/2019,20:06:52.419,$GPGGA,200651,3747.2007,N,12223.0581,W,2,08,01.0,18.7,M,-28.0,M,06.0,0302*64
06/30/2019,20:06:53.512,$GPGGA,200652,3747.2007,N,12223.0581,W,2,08,01.0,18.7,M,-28.0,M,05.0,0302*64
06/30/2019,20:06:54.524,$GPGGA,200653,3747.2007,N,12223.0582,W,2,08,01.0,18.7,M,-28.0,M,05.0,0302*66
06/30/2019,20:06:55.494,$GPGGA,200654,3747.2007,N,12223.0582,W,2,08,01.0,18.7,M,-28.0,M,06.0,0302*62
06/30/2019,20:06:57.476,$GPGGA,200656,3747.2007,N,12223.0581,W,2,08,01.0,18.7,M,-28.0,M,06.0,0302*63
06/30/2019,20:06:58.777,$GPGGA,200657,3747.2007,N,12223.0581,W,2,08,01.0,18.7,M,-28.0,M,06.0,0302*62
06/30/2019,20:06:59.468,$GPGGA,200658,3747.2007,N,12223.0581,W,2,08,01.0,18.7,M,-28.0,M,05.0,0302*6E
06/30/2019,20:07:00.596,$GPGGA,200659,3747.2007,N,12223.0581,W,2,08,01.0,18.7,M,-28.0,M,05.0,0302*6F
06/30/2019,20:07:01.476,$GPGGA,200700,3747.2007,N,12223.0581,W,2,08,01.0,18.7,M,-28.0,M,04.0,0302*63
06/30/2019,20:07:02.673,$GPGGA,200701,3747.2007,N,12223.0581,W,2,08,01.0,18.7,M,-28.0,M,05.0,0302*63
06/30/2019,20:07:03.414,$GPGGA,200702,3747.2007,N,12223.0581,W,2,08,01.0,18.7,M,-28.0,M,06.0,0302*63
06/30/2019,20:07:04.650,$GPGGA,200703,3747.2007,N,12223.0581,W,2,08,01.0,18.7,M,-28.0,M,05.0,0302*61
06/30/2019,20:07:05.462,$GPGGA,200704,3747.2007,N,12223.0581,W,2,08,01.0,18.7,M,-28.0,M,05.0,0302*66
06/30/2019,20:07:06.624,$GPGGA,200705,3747.2007,N,12223.0581,W,2,08,01.0,18.7,M,-28.0,M,06.0,0302*64
06/30/2019,20:07:07.919,$GPGGA,200706,3747.2007,N,12223.0581,W,2,08,01.0,18.7,M,-28.0,M,06.0,0302*67
06/30/2019,20:07:08.652,$GPGGA,200707,3747.2007,N,12223.0581,W,2,08,01.0,18.7,M,-28.0,M,05.0,0302*65
06/30/2019,20:07:09.624,$GPGGA,200708,3747.2007,N,12223.0581,W,2,08,01.0,18.7,M,-28.0,M,06.0,0302*69
06/30/2019,20:07:11.025,$GPGGA,200709,3747.2007,N,12223.0581,W,2,08,01.0,18.7,M,-28.0,M,06.0,0302*68
06/30/2019,20:07:12.525,$GPGGA,200711,3747.2007,N,12223.0581,W,2,08,01.0,18.7,M,-28.0,M,06.0,0302*61
06/30/2019,20:07:13.496,$GPGGA,200712,3747.2007,N,12223.0581,W,2,08,01.0,18.7,M,-28.0,M,06.0,0302*62
06/30/2019,20:07:15.083,$GPGGA,200713,3747.2007,N,12223.0581,W,2,08,01.0,18.7,M,-28.0,M,05.0,0302*60
06/30/2019,20:07:15.422,$GPGGA,200714,3747.2007,N,12223.0581,W,2,08,01.0,18.7,M,-28.0,M,06.0,0302*64
06/30/2019,20:07:16.414,$GPGGA,200715,3747.2007,N,12223.0581,W,2,08,01.0,18.7,M,-28.0,M,06.0,0302*65
06/30/2019,20:07:17.552,$GPGGA,200716,3747.2007,N,12223.0581,W,2,08,01.0,18.7,M,-28.0,M,05.0,0302*65
06/30/2019,20:07:18.420,$GPGGA,200717,3747.2007,N,12223.0581,W,2,08,01.0,18.7,M,-28.0,M,05.0,0302*64
06/30/2019,20:07:19.513,$GPGGA,200718,3747.2007,N,12223.0581,W,2,08,01.0,18.7,M,-28.0,M,06.0,0302*68
06/30/2019,20:07:20.525,$GPGGA,200719,3747.2007,N,12223.0581,W,2,08,01.0,18.7,M,-28.0,M,05.0,0302*6A
06/30/2019,20:07:21.441,$GPGGA,200720,3747.2007,N,12223.0580,W,2,08,01.0,18.7,M,-28.0,M,05.0,0302*61
06/30/2019,20:07:22.633,$GPGGA,200721,3747.2007,N,12223.0580,W,2,08,01.0,18.7,M,-28.0,M,06.0,0302*63
06/30/2019,20:07:24.625,$GPGGA,200723,3747.2007,N,12223.0581,W,2,08,01.0,18.8,M,-28.0,M,05.0,0302*6C
06/30/2019,20:07:25.417,$GPGGA,200724,3747.2007,N,12223.0581,W,2,08,01.0,18.8,M,-28.0,M,05.0,0302*6B
06/30/2019,20:07:26.552,$GPGGA,200725,3747.2007,N,12223.0581,W,2,08,01.0,18.8,M,-28.0,M,06.0,0302*69
06/30/2019,20:07:27.532,$GPGGA,200726,3747.2007,N,12223.0580,W,2,08,01.0,18.8,M,-28.0,M,06.0,0302*6B
06/30/2019,20:07:28.625,$GPGGA,200727,3747.2007,N,12223.0581,W,2,08,01.0,18.8,M,-28.0,M,05.0,0302*68
06/30/2019,20:07:30.526,$GPGGA,200729,3747.2007,N,12223.0581,W,2,08,01.0,18.8,M,-28.0,M,06.0,0302*65
06/30/2019,20:07:31.497,$GPGGA,200730,3747.2007,N,12223.0581,W,2,08,01.0,18.8,M,-28.0,M,06.0,0302*6D
06/30/2019,20:07:32.582,$GPGGA,200731,3747.2007,N,12223.0581,W,2,08,01.0,18.8,M,-28.0,M,05.0,0302*6F
06/30/2019,20:07:33.964,$GPGGA,200732,3747.2007,N,12223.0580,W,2,08,01.0,18.8,M,-28.0,M,06.0,0302*6E
06/30/2019,20:07:34.576,$GPGGA,200733,3747.2007,N,12223.0580,W,2,08,01.0,18.8,M,-28.0,M,06.0,0302*6F
06/30/2019,20:07:35.497,$GPGGA,200734,3747.2007,N,12223.0581,W,2,08,01.0,18.8,M,-28.0,M,05.0,0302*6A
06/30/2019,20:07:36.477,$GPGGA,200735,3747.2007,N,12223.0581,W,2,08,01.0,18.8,M,-28.0,M,05.0,0302*6B
06/30/2019,20:07:37.674,$GPGGA,200736,3747.2007,N,12223.0581,W,2,08,01.0,18.8,M,-28.0,M,06.0,0302*6B
06/30/2019,20:07:38.470,$GPGGA,200737,3747.2007,N,12223.0581,W,2,08,01.0,18.8,M,-28.0,M,05.0,0302*69
06/30/2019,20:07:39.701,$GPGGA,200738,3747.2007,N,12223.0581,W,2,08,01.0,18.8,M,-28.0,M,05.0,0302*66
06/30/2019,20:07:40.874,$GPGGA,200739,3747.2007,N,12223.0581,W,2,08,01.0,18.8,M,-28.0,M,06.0,0302*64
06/30/2019,20:07:41.666,$GPGGA,200740,3747.2007,N,12223.0581,W,2,08,01.0,18.8,M,-28.0,M,05.0,0302*69
06/30/2019,20:07:42.471,$GPGGA,200741,3747.2007,N,12223.0581,W,2,08,01.0,18.8,M,-28.0,M,05.0,0302*68
06/30/2019,20:07:43.553,$GPGGA,200742,3747.2007,N,12223.0581,W,2,08,01.0,18.8,M,-28.0,M,05.0,0302*6B
06/30/2019,20:07:44.421,$GPGGA,200743,3747.2007,N,12223.0581,W,2,08,01.0,18.8,M,-28.0,M,06.0,0302*69
06/30/2019,20:07:45.626,$GPGGA,200744,3747.2007,N,12223.0581,W,2,08,01.0,18.8,M,-28.0,M,06.0,0302*6E
06/30/2019,20:07:46.816,$GPGGA,200745,3747.2007,N,12223.0581,W,2,08,01.0,18.8,M,-28.0,M,06.0,0302*6F
06/30/2019,20:07:47.569,$GPGGA,200746,3747.2007,N,12223.0581,W,2,08,01.0,18.8,M,-28.0,M,05.0,0302*6F
06/30/2019,20:07:48.581,$GPGGA,200747,3747.2007,N,12223.0581,W,2,08,01.0,18.8,M,-28.0,M,06.0,0302*6D
06/30/2019,20:07:49.570,$GPGGA,200748,3747.2007,N,12223.0581,W,2,08,01.0,18.8,M,-28.0,M,06.0,0302*62
06/30/2019,20:07:51.077,$GPGGA,200749,3747.2007,N,12223.0581,W,2,08,01.0,18.8,M,-28.0,M,05.0,0302*60
06/30/2019,20:07:51.344,$GPGGA,200750,3747.2007,N,12223.0581,W,2,08,01.0,18.8,M,-28.0,M,06.0,0302*6B
06/30/2019,20:07:52.422,$GPGGA,200751,3747.2007,N,12223.0582,W,2,08,01.0,18.8,M,-28.0,M,06.0,0302*69
06/30/2019,20:07:53.626,$GPGGA,200752,3747.2007,N,12223.0582,W,2,08,01.0,18.8,M,-28.0,M,05.0,0302*69
06/30/2019,20:07:54.927,$GPGGA,200753,3747.2007,N,12223.0582,W,2,08,01.0,18.8,M,-28.0,M,05.0,0302*68
06/30/2019,20:07:55.665,$GPGGA,200754,3747.2007,N,12223.0582,W,2,08,01.0,18.8,M,-28.0,M,06.0,0302*6C
06/30/2019,20:07:56.534,$GPGGA,200755,3747.2007,N,12223.0581,W,2,08,01.0,18.8,M,-28.0,M,06.0,0302*6E
06/30/2019,20:07:57.515,$GPGGA,200756,3747.2008,N,12223.0581,W,2,08,01.0,18.8,M,-28.0,M,05.0,0302*61
06/30/2019,20:07:58.527,$GPGGA,200757,3747.2008,N,12223.0582,W,2,08,01.0,18.9,M,-28.0,M,06.0,0302*61
06/30/2019,20:07:59.442,$GPGGA,200758,3747.2008,N,12223.0582,W,2,08,01.0,18.9,M,-28.0,M,06.0,0302*6E
06/30/2019,20:08:00.533,$GPGGA,200759,3747.2007,N,12223.0582,W,2,08,01.0,18.9,M,-28.0,M,05.0,0302*63
06/30/2019,20:08:01.514,$GPGGA,200800,3747.2008,N,12223.0582,W,2,07,01.1,18.9,M,-28.0,M,05.0,0302*61
06/30/2019,20:08:02.526,$GPGGA,200801,3747.2008,N,12223.0582,W,2,07,01.1,18.8,M,-28.0,M,05.0,0302*61
06/30/2019,20:08:03.499,$GPGGA,200802,3747.2008,N,12223.0582,W,2,08,01.0,18.8,M,-28.0,M,05.0,0302*6C
06/30/2019,20:08:04.578,$GPGGA,200803,3747.2008,N,12223.0582,W,2,07,01.1,18.8,M,-28.0,M,06.0,0302*60
06/30/2019,20:08:05.572,$GPGGA,200804,3747.2008,N,12223.0582,W,2,07,01.1,18.8,M,-28.0,M,06.0,0302*67
06/30/2019,20:08:06.472,$GPGGA,200805,3747.2008,N,12223.0582,W,2,07,01.1,18.8,M,-28.0,M,05.0,0302*65
06/30/2019,20:08:07.499,$GPGGA,200806,3747.2008,N,12223.0582,W,2,07,01.1,18.8,M,-28.0,M,05.0,0302*66
06/30/2019,20:08:08.583,$GPGGA,200807,3747.2008,N,12223.0582,W,2,08,01.0,18.8,M,-28.0,M,06.0,0302*6A
06/30/2019,20:08:09.572,$GPGGA,200808,3747.2008,N,12223.0582,W,2,08,01.0,18.8,M,-28.0,M,06.0,0302*65
06/30/2019,20:08:10.583,$GPGGA,200809,3747.2008,N,12223.0582,W,2,08,01.0,18.8,M,-28.0,M,05.0,0302*67
06/30/2019,20:08:11.499,$GPGGA,200810,3747.2008,N,12223.0582,W,2,08,01.0,18.8,M,-28.0,M,06.0,0302*6C
06/30/2019,20:08:12.592,$GPGGA,200811,3747.2008,N,12223.0582,W,2,08,01.0,18.8,M,-28.0,M,06.0,0302*6D
06/30/2019,20:08:13.571,$GPGGA,200812,3747.2008,N,12223.0582,W,2,08,01.0,18.8,M,-28.0,M,05.0,0302*6D
06/30/2019,20:08:14.868,$GPGGA,200813,3747.2008,N,12223.0582,W,2,08,01.0,18.8,M,-28.0,M,05.0,0302*6C
06/30/2019,20:08:15.594,$GPGGA,200814,3747.2008,N,12223.0582,W,2,08,01.0,18.8,M,-28.0,M,06.0,0302*68
06/30/2019,20:08:16.480,$GPGGA,200815,3747.2008,N,12223.0582,W,2,08,01.0,18.8,M,-28.0,M,06.0,0302*69
06/30/2019,20:08:17.676,$GPGGA,200816,3747.2008,N,12223.0582,W,2,08,01.0,18.8,M,-28.0,M,05.0,0302*69
06/30/2019,20:08:18.472,$GPGGA,200817,3747.2008,N,12223.0582,W,2,08,01.0,18.8,M,-28.0,M,06.0,0302*6B
06/30/2019,20:08:19.500,$GPGGA,200818,3747.2008,N,12223.0582,W,2,08,01.0,18.8,M,-28.0,M,06.0,0302*64
06/30/2019,20:08:20.984,$GPGGA,200819,3747.2008,N,12223.0582,W,2,08,01.0,18.8,M,-28.0,M,05.0,0302*66
06/30/2019,20:08:21.590,$GPGGA,200820,3747.2008,N,12223.0582,W,2,08,01.0,18.7,M,-28.0,M,05.0,0302*63
06/30/2019,20:08:22.527,$GPGGA,200821,3747.2008,N,12223.0582,W,2,08,01.0,18.7,M,-28.0,M,06.0,0302*61
06/30/2019,20:08:23.499,$GPGGA,200822,3747.2008,N,12223.0582,W,2,08,01.0,18.7,M,-28.0,M,05.0,0302*61
06/30/2019,20:08:24.583,$GPGGA,200823,3747.2009,N,12223.0582,W,2,08,01.0,18.7,M,-28.0,M,05.0,0302*61
06/30/2019,20:08:25.573,$GPGGA,200824,3747.2008,N,12223.0582,W,2,08,01.0,18.6,M,-28.0,M,04.0,0302*67
06/30/2019,20:08:26.978,$GPGGA,200825,3747.2008,N,12223.0582,W,2,08,01.0,18.6,M,-28.0,M,05.0,0302*67
06/30/2019,20:08:27.522,$GPGGA,200826,3747.2009,N,12223.0582,W,2,08,01.0,18.6,M,-28.0,M,05.0,0302*65
06/30/2019,20:08:28.535,$GPGGA,200827,3747.2009,N,12223.0582,W,2,08,01.0,18.6,M,-28.0,M,05.0,0302*64
06/30/2019,20:08:29.516,$GPGGA,200828,3747.2009,N,12223.0582,W,2,08,01.0,18.6,M,-28.0,M,05.0,0302*6B
06/30/2019,20:08:30.528,$GPGGA,200829,3747.2008,N,12223.0582,W,2,08,01.0,18.6,M,-28.0,M,06.0,0302*68
06/30/2019,20:08:31.555,$GPGGA,200830,3747.2008,N,12223.0582,W,2,08,01.0,18.6,M,-28.0,M,06.0,0302*60
06/30/2019,20:08:32.535,$GPGGA,200831,3747.2008,N,12223.0581,W,2,08,01.0,18.6,M,-28.0,M,05.0,0302*61
06/30/2019,20:08:33.573,$GPGGA,200832,3747.2008,N,12223.0581,W,2,08,01.0,18.6,M,-28.0,M,05.0,0302*62
06/30/2019,20:08:34.577,$GPGGA,200833,3747.2008,N,12223.0581,W,2,08,01.0,18.6,M,-28.0,M,06.0,0302*60
06/30/2019,20:08:35.500,$GPGGA,200834,3747.2008,N,12223.0581,W,2,08,01.0,18.6,M,-28.0,M,06.0,0302*67
06/30/2019,20:08:36.480,$GPGGA,200835,3747.2008,N,12223.0581,W,2,08,01.0,18.6,M,-28.0,M,05.0,0302*65
06/30/2019,20:08:37.574,$GPGGA,200836,3747.2008,N,12223.0581,W,2,08,01.0,18.5,M,-28.0,M,05.0,0302*65
06/30/2019,20:08:38.585,$GPGGA,200837,3747.2008,N,12223.0580,W,2,08,01.0,18.5,M,-28.0,M,05.0,0302*65
06/30/2019,20:08:39.501,$GPGGA,200838,3747.2008,N,12223.0580,W,2,08,01.0,18.5,M,-28.0,M,05.0,0302*6A
06/30/2019,20:08:40.481,$GPGGA,200839,3747.2008,N,12223.0580,W,2,08,01.0,18.5,M,-28.0,M,04.0,0302*6A
06/30/2019,20:08:41.668,$GPGGA,200840,3747.2008,N,12223.0580,W,2,08,01.0,18.5,M,-28.0,M,04.0,0302*64
06/30/2019,20:08:42.474,$GPGGA,200841,3747.2008,N,12223.0580,W,2,08,01.0,18.5,M,-28.0,M,05.0,0302*64
06/30/2019,20:08:43.556,$GPGGA,200842,3747.2008,N,12223.0580,W,2,08,01.0,18.5,M,-28.0,M,06.0,0302*64
06/30/2019,20:08:44.424,$GPGGA,200843,3747.2008,N,12223.0580,W,2,08,01.0,18.5,M,-28.0,M,06.0,0302*65
06/30/2019,20:08:45.629,$GPGGA,200844,3747.2008,N,12223.0580,W,2,08,01.0,18.5,M,-28.0,M,05.0,0302*61
06/30/2019,20:08:46.418,$GPGGA,200845,3747.2008,N,12223.0580,W,2,08,01.0,18.5,M,-28.0,M,04.0,0302*61
06/30/2019,20:08:47.445,$GPGGA,200846,3747.2008,N,12223.0580,W,2,08,01.0,18.5,M,-28.0,M,05.0,0302*63
06/30/2019,20:08:48.425,$GPGGA,200847,3747.2008,N,12223.0580,W,2,08,01.0,18.5,M,-28.0,M,05.0,0302*62
06/30/2019,20:08:49.517,$GPGGA,200848,3747.2008,N,12223.0580,W,2,08,01.0,18.5,M,-28.0,M,05.0,0302*6D
06/30/2019,20:08:50.642,$GPGGA,200849,3747.2007,N,12223.0579,W,2,08,01.0,18.5,M,-28.0,M,05.0,0302*65
06/30/2019,20:08:51.445,$GPGGA,200850,3747.2007,N,12223.0579,W,2,08,01.0,18.5,M,-28.0,M,06.0,0302*6E
06/30/2019,20:08:52.637,$GPGGA,200851,3747.2007,N,12223.0579,W,2,08,01.0,18.6,M,-28.0,M,06.0,0302*6C
06/30/2019,20:08:53.517,$GPGGA,200852,3747.2007,N,12223.0579,W,2,08,01.0,18.5,M,-28.0,M,05.0,0302*6F
06/30/2019,20:08:54.529,$GPGGA,200853,3747.2007,N,12223.0579,W,2,08,01.0,18.5,M,-28.0,M,05.0,0302*6E
06/30/2019,20:08:55.501,$GPGGA,200854,3747.2007,N,12223.0579,W,2,08,01.0,18.5,M,-28.0,M,06.0,0302*6A
06/30/2019,20:08:56.482,$GPGGA,200855,3747.2007,N,12223.0579,W,2,08,01.0,18.5,M,-28.0,M,06.0,0302*6B
06/30/2019,20:08:57.574,$GPGGA,200856,3747.2007,N,12223.0579,W,2,08,01.0,18.5,M,-28.0,M,05.0,0302*6B
06/30/2019,20:08:58.587,$GPGGA,200857,3747.2007,N,12223.0580,W,2,08,01.0,18.5,M,-28.0,M,05.0,0302*6C
06/30/2019,20:08:59.502,$GPGGA,200858,3747.2007,N,12223.0580,W,2,08,01.0,18.5,M,-28.0,M,06.0,0302*60
06/30/2019,20:09:00.986,$GPGGA,200859,3747.2007,N,12223.0580,W,2,08,01.0,18.4,M,-28.0,M,05.0,0302*63
06/30/2019,20:09:01.594,$GPGGA,200900,3747.2008,N,12223.0579,W,2,08,01.0,18.4,M,-28.0,M,06.0,0302*64
06/30/2019,20:09:02.529,$GPGGA,200901,3747.2008,N,12223.0579,W,2,08,01.0,18.4,M,-28.0,M,05.0,0302*66
06/30/2019,20:09:03.595,$GPGGA,200902,3747.2008,N,12223.0579,W,2,08,01.0,18.4,M,-28.0,M,06.0,0302*66
06/30/2019,20:09:04.879,$GPGGA,200903,3747.2008,N,12223.0580,W,2,08,01.0,18.4,M,-28.0,M,06.0,0302*61
06/30/2019,20:09:05.668,$GPGGA,200904,3747.2008,N,12223.0580,W,2,08,01.0,18.4,M,-28.0,M,05.0,0302*65
06/30/2019,20:09:06.475,$GPGGA,200905,3747.2008,N,12223.0580,W,2,08,01.0,18.4,M,-28.0,M,06.0,0302*67
06/30/2019,20:09:07.445,$GPGGA,200906,3747.2008,N,12223.0580,W,2,08,01.0,18.4,M,-28.0,M,06.0,0302*64
06/30/2019,20:09:08.537,$GPGGA,200907,3747.2008,N,12223.0579,W,2,08,01.0,18.4,M,-28.0,M,05.0,0302*60
06/30/2019,20:09:09.518,$GPGGA,200908,3747.2008,N,12223.0579,W,2,08,01.0,18.4,M,-28.0,M,05.0,0302*6F
06/30/2019,20:09:10.646,$GPGGA,200909,3747.2008,N,12223.0579,W,2,08,01.0,18.4,M,-28.0,M,06.0,0302*6D
06/30/2019,20:09:11.447,$GPGGA,200910,3747.2008,N,12223.0580,W,2,08,01.0,18.4,M,-28.0,M,05.0,0302*60
06/30/2019,20:09:12.538,$GPGGA,200911,3747.2008,N,12223.0580,W,2,08,01.0,18.4,M,-28.0,M,05.0,0302*61
06/30/2019,20:09:13.576,$GPGGA,200912,3747.2008,N,12223.0580,W,2,08,01.0,18.4,M,-28.0,M,06.0,0302*61
06/30/2019,20:09:14.979,$GPGGA,200913,3747.2008,N,12223.0580,W,2,08,01.0,18.4,M,-28.0,M,06.0,0302*60
06/30/2019,20:09:15.524,$GPGGA,200914,3747.2008,N,12223.0579,W,2,08,01.0,18.5,M,-28.0,M,05.0,0302*63
06/30/2019,20:09:16.538,$GPGGA,200915,3747.2008,N,12223.0579,W,2,08,01.0,18.5,M,-28.0,M,06.0,0302*61
06/30/2019,20:09:17.519,$GPGGA,200916,3747.2008,N,12223.0580,W,2,08,01.0,18.5,M,-28.0,M,06.0,0302*64
