08/05/2019,21:38:21.734,$GPGGA,213821,4437.5832,N,12402.8840,W,2,08,01.0,23.9,M,-22.1,M,10.0,0272*64
08/05/2019,21:38:22.663,$GPGGA,213822,4437.5832,N,12402.8840,W,2,08,01.0,23.9,M,-22.1,M,11.0,0272*66
08/05/2019,21:38:23.712,$GPGGA,213823,4437.5832,N,12402.8840,W,2,08,01.0,23.9,M,-22.1,M,12.0,0272*64
08/05/2019,21:38:24.706,$GPGGA,213824,4437.5832,N,12402.8840,W,2,08,01.0,23.9,M,-22.1,M,13.0,0272*62
08/05/2019,21:38:25.735,$GPGGA,213825,4437.5832,N,12402.8840,W,2,08,01.0,23.9,M,-22.1,M,14.0,0272*64
08/05/2019,21:38:26.650,$GPGGA,213826,4437.5832,N,12402.8840,W,2,08,01.0,23.9,M,-22.1,M,09.0,0272*6B
08/05/2019,21:38:27.721,$GPGGA,213827,4437.5832,N,12402.8840,W,2,08,01.0,23.9,M,-22.1,M,10.0,0272*62
08/05/2019,21:38:28.709,$GPGGA,213828,4437.5832,N,12402.8840,W,2,08,01.0,23.9,M,-22.1,M,11.0,0272*6C
08/05/2019,21:38:29.734,$GPGGA,213829,4437.5832,N,12402.8840,W,2,08,01.0,23.9,M,-22.1,M,12.0,0272*6E
08/05/2019,21:38:30.660,$GPGGA,213830,4437.5832,N,12402.8840,W,2,08,01.0,23.9,M,-22.1,M,13.0,0272*67
08/05/2019,21:38:31.718,$GPGGA,213831,4437.5832,N,12402.8841,W,2,08,01.0,23.9,M,-22.1,M,14.0,0272*60
08/05/2019,21:38:32.694,$GPGGA,213832,4437.5832,N,12402.8841,W,2,08,01.0,23.9,M,-22.1,M,12.0,0272*65
08/05/2019,21:38:33.796,$GPGGA,213833,4437.5832,N,12402.8841,W,2,08,01.0,23.9,M,-22.1,M,13.0,0272*65
08/05/2019,21:38:34.654,$GPGGA,213834,4437.5832,N,12402.8841,W,2,08,01.0,23.9,M,-22.1,M,14.0,0272*65
08/05/2019,21:38:35.660,$GPGGA,213835,4437.5832,N,12402.8841,W,2,08,01.0,23.9,M,-22.1,M,12.0,0272*62
08/05/2019,21:38:36.642,$GPGGA,213836,4437.5832,N,12402.8841,W,2,08,01.0,23.9,M,-22.1,M,13.0,0272*60
08/05/2019,21:38:37.746,$GPGGA,213837,4437.5832,N,12402.8841,W,2,08,01.0,23.9,M,-22.1,M,14.0,0272*66
08/05/2019,21:38:38.692,$GPGGA,213838,4437.5832,N,12402.8841,W,2,08,01.0,23.9,M,-22.1,M,12.0,0272*6F
08/05/2019,21:38:39.749,$GPGGA,213839,4437.5832,N,12402.8841,W,2,08,01.0,23.9,M,-22.1,M,13.0,0272*6F
08/05/2019,21:38:40.693,$GPGGA,213840,4437.5832,N,12402.8841,W,2,08,01.0,23.9,M,-22.1,M,14.0,0272*66
08/05/2019,21:38:41.792,$GPGGA,213841,4437.5832,N,12402.8841,W,2,08,01.0,23.9,M,-22.1,M,12.0,0272*61
08/05/2019,21:38:42.712,$GPGGA,213842,4437.5832,N,12402.8841,W,2,08,01.0,23.9,M,-22.1,M,13.0,0272*63
08/05/2019,21:38:43.662,$GPGGA,213843,4437.5832,N,12402.8841,W,2,08,01.0,23.9,M,-22.1,M,14.0,0272*65
08/05/2019,21:38:44.648,$GPGGA,213844,4437.5832,N,12402.8841,W,2,08,01.0,23.9,M,-22.1,M,12.0,0272*64
08/05/2019,21:38:45.733,$GPGGA,213845,4437.5832,N,12402.8841,W,2,09,00.9,23.9,M,-22.1,M,13.0,0272*6D
08/05/2019,21:38:46.677,$GPGGA,213846,4437.5832,N,12402.8841,W,2,09,00.9,23.9,M,-22.1,M,14.0,0272*69
08/05/2019,21:38:47.666,$GPGGA,213847,4437.5831,N,12402.8841,W,2,09,00.9,23.9,M,-22.1,M,12.0,0272*6D
08/05/2019,21:38:48.642,$GPGGA,213848,4437.5831,N,12402.8841,W,2,09,00.9,23.9,M,-22.1,M,13.0,0272*63
08/05/2019,21:38:49.735,$GPGGA,213849,4437.5831,N,12402.8841,W,2,09,00.9,23.9,M,-22.1,M,14.0,0272*65
08/05/2019,21:38:50.652,$GPGGA,213850,4437.5832,N,12402.8840,W,2,09,00.9,23.9,M,-22.1,M,09.0,0272*63
08/05/2019,21:38:51.722,$GPGGA,213851,4437.5832,N,12402.8840,W,2,09,00.9,23.9,M,-22.1,M,10.0,0272*6A
08/05/2019,21:38:52.689,$GPGGA,213852,4437.5832,N,12402.8840,W,2,09,00.9,23.9,M,-22.1,M,11.0,0272*68
08/05/2019,21:38:53.797,$GPGGA,213853,4437.5832,N,12402.8840,W,2,09,00.9,23.9,M,-22.1,M,12.0,0272*6A
08/05/2019,21:38:54.651,$GPGGA,213854,4437.5832,N,12402.8840,W,2,09,00.9,23.9,M,-22.1,M,13.0,0272*6C
08/05/2019,21:38:55.660,$GPGGA,213855,4437.5831,N,12402.8840,W,2,09,00.9,23.9,M,-22.1,M,14.0,0272*69
08/05/2019,21:38:56.661,$GPGGA,213856,4437.5831,N,12402.8840,W,2,09,00.9,24.0,M,-22.1,M,12.0,0272*62
08/05/2019,21:38:57.804,$GPGGA,213857,4437.5831,N,12402.8840,W,2,09,00.9,24.0,M,-22.1,M,13.0,0272*62
08/05/2019,21:38:58.647,$GPGGA,213858,4437.5831,N,12402.8840,W,2,09,00.9,24.0,M,-22.1,M,14.0,0272*6A
08/05/2019,21:38:59.663,$GPGGA,213859,4437.5831,N,12402.8840,W,2,09,00.9,24.0,M,-22.1,M,12.0,0272*6D
08/05/2019,21:39:00.662,$GPGGA,213900,4437.5831,N,12402.8840,W,2,08,00.9,24.0,M,-22.1,M,13.0,0272*60
08/05/2019,21:39:01.735,$GPGGA,213901,4437.5831,N,12402.8840,W,2,08,01.0,24.0,M,-22.1,M,14.0,0272*6E
08/05/2019,21:39:02.676,$GPGGA,213902,4437.5831,N,12402.8840,W,2,08,01.0,24.0,M,-22.1,M,09.0,0272*61
08/05/2019,21:39:03.716,$GPGGA,213903,4437.5831,N,12402.8840,W,2,08,01.0,24.0,M,-22.1,M,10.0,0272*68
08/05/2019,21:39:04.701,$GPGGA,213904,4437.5831,N,12402.8840,W,2,09,00.9,24.0,M,-22.1,M,14.0,0272*62
08/05/2019,21:39:05.786,$GPGGA,213905,4437.5831,N,12402.8840,W,2,09,00.9,24.0,M,-22.1,M,12.0,0272*65
08/05/2019,21:39:06.725,$GPGGA,213906,4437.5831,N,12402.8840,W,2,09,00.9,24.0,M,-22.1,M,13.0,0272*67
08/05/2019,21:39:07.763,$GPGGA,213907,4437.5831,N,12402.8839,W,2,09,00.9,24.0,M,-22.1,M,14.0,0272*6F
08/05/2019,21:39:08.634,$GPGGA,213908,4437.5831,N,12402.8839,W,2,09,00.9,24.0,M,-22.1,M,12.0,0272*66
08/05/2019,21:39:09.794,$GPGGA,213909,4437.5831,N,12402.8840,W,2,09,00.9,23.9,M,-22.1,M,13.0,0272*66
08/05/2019,21:39:10.736,$GPGGA,213910,4437.5831,N,12402.8840,W,2,09,00.9,23.9,M,-22.1,M,14.0,0272*69
08/05/2019,21:39:11.662,$GPGGA,213911,4437.5832,N,12402.8840,W,2,09,00.9,23.8,M,-22.1,M,12.0,0272*6C
08/05/2019,21:39:12.715,$GPGGA,213912,4437.5832,N,12402.8840,W,2,09,00.9,23.8,M,-22.1,M,13.0,0272*6E
08/05/2019,21:39:13.736,$GPGGA,213913,4437.5832,N,12402.8840,W,2,09,00.9,23.7,M,-22.1,M,14.0,0272*67
08/05/2019,21:39:14.668,$GPGGA,213914,4437.5832,N,12402.8841,W,2,09,00.9,23.6,M,-22.1,M,12.0,0272*66
08/05/2019,21:39:15.723,$GPGGA,213915,4437.5832,N,12402.8841,W,2,09,00.9,23.6,M,-22.1,M,13.0,0272*66
08/05/2019,21:39:16.695,$GPGGA,213916,4437.5832,N,12402.8841,W,2,09,00.9,23.6,M,-22.1,M,14.0,0272*62
08/05/2019,21:39:17.783,$GPGGA,213917,4437.5832,N,12402.8841,W,2,09,00.9,23.6,M,-22.1,M,12.0,0272*65
08/05/2019,21:39:18.694,$GPGGA,213918,4437.5832,N,12402.8840,W,2,09,00.9,23.6,M,-22.1,M,13.0,0272*6A
08/05/2019,21:39:19.724,$GPGGA,213919,4437.5832,N,12402.8840,W,2,09,00.9,23.6,M,-22.1,M,14.0,0272*6C
08/05/2019,21:39:20.705,$GPGGA,213920,4437.5832,N,12402.8840,W,2,09,00.9,23.6,M,-22.1,M,09.0,0272*6A
08/05/2019,21:39:21.786,$GPGGA,213921,4437.5832,N,12402.8840,W,2,09,00.9,23.6,M,-22.1,M,10.0,0272*63
08/05/2019,21:39:22.715,$GPGGA,213922,4437.5832,N,12402.8840,W,2,09,00.9,23.6,M,-22.1,M,11.0,0272*61
08/05/2019,21:39:23.654,$GPGGA,213923,4437.5832,N,12402.8840,W,2,09,00.9,23.6,M,-22.1,M,12.0,0272*63
08/05/2019,21:39:24.709,$GPGGA,213924,4437.5832,N,12402.8840,W,2,09,00.9,23.6,M,-22.1,M,13.0,0272*65
08/05/2019,21:39:25.785,$GPGGA,213925,4437.5832,N,12402.8841,W,2,09,00.9,23.5,M,-22.1,M,14.0,0272*61
08/05/2019,21:39:26.724,$GPGGA,213926,4437.5832,N,12402.8841,W,2,09,00.9,23.4,M,-22.1,M,12.0,0272*65
08/05/2019,21:39:27.733,$GPGGA,213927,4437.5833,N,12402.8841,W,2,09,00.9,23.4,M,-22.1,M,13.0,0272*64
08/05/2019,21:39:28.698,$GPGGA,213928,4437.5833,N,12402.8842,W,2,09,00.9,23.3,M,-22.1,M,14.0,0272*68
08/05/2019,21:39:29.795,$GPGGA,213929,4437.5833,N,12402.8842,W,2,09,00.9,23.3,M,-22.1,M,12.0,0272*6F
08/05/2019,21:39:30.706,$GPGGA,213930,4437.5833,N,12402.8843,W,2,09,00.9,23.2,M,-22.1,M,13.0,0272*66
08/05/2019,21:39:31.720,$GPGGA,213931,4437.5833,N,12402.8843,W,2,09,00.9,23.1,M,-22.1,M,14.0,0272*63
08/05/2019,21:39:32.710,$GPGGA,213932,4437.5833,N,12402.8843,W,2,09,00.9,23.0,M,-22.1,M,12.0,0272*67
08/05/2019,21:39:33.788,$GPGGA,213933,4437.5833,N,12402.8843,W,2,09,00.9,23.0,M,-22.1,M,13.0,0272*67
08/05/2019,21:39:34.695,$GPGGA,213934,4437.5834,N,12402.8843,W,2,09,00.9,23.0,M,-22.1,M,14.0,0272*60
08/05/2019,21:39:35.720,$GPGGA,213935,4437.5834,N,12402.8843,W,2,08,01.1,22.9,M,-22.1,M,12.0,0272*67
08/05/2019,21:39:36.696,$GPGGA,213936,4437.5834,N,12402.8844,W,2,08,01.1,22.9,M,-22.1,M,13.0,0272*62
08/05/2019,21:39:37.788,$GPGGA,213937,4437.5834,N,12402.8843,W,2,08,01.1,22.9,M,-22.1,M,14.0,0272*63
08/05/2019,21:39:38.725,$GPGGA,213938,4437.5834,N,12402.8843,W,2,09,00.9,22.9,M,-22.1,M,12.0,0272*62
08/05/2019,21:39:39.715,$GPGGA,213939,4437.5833,N,12402.8843,W,2,09,00.9,23.0,M,-22.1,M,13.0,0272*6D
08/05/2019,21:39:40.693,$GPGGA,213940,4437.5833,N,12402.8843,W,2,09,00.9,23.0,M,-22.1,M,14.0,0272*64
08/05/2019,21:39:41.788,$GPGGA,213941,4437.5833,N,12402.8842,W,2,09,00.9,23.1,M,-22.1,M,12.0,0272*63
08/05/2019,21:39:42.721,$GPGGA,213942,4437.5833,N,12402.8842,W,2,09,00.9,23.1,M,-22.1,M,13.0,0272*61
08/05/2019,21:39:43.715,$GPGGA,213943,4437.5833,N,12402.8842,W,2,09,00.9,23.1,M,-22.1,M,14.0,0272*67
08/05/2019,21:39:44.695,$GPGGA,213944,4437.5833,N,12402.8842,W,2,09,00.9,23.2,M,-22.1,M,12.0,0272*65
08/05/2019,21:39:45.812,$GPGGA,213945,4437.5833,N,12402.8842,W,2,09,00.9,23.2,M,-22.1,M,13.0,0272*65
08/05/2019,21:39:46.715,$GPGGA,213946,4437.5833,N,12402.8842,W,2,09,00.9,23.3,M,-22.1,M,14.0,0272*60
08/05/2019,21:39:47.716,$GPGGA,213947,4437.5832,N,12402.8841,W,2,09,00.9,23.4,M,-22.1,M,12.0,0272*62
08/05/2019,21:39:48.646,$GPGGA,213948,4437.5833,N,12402.8841,W,2,09,00.9,23.4,M,-22.1,M,13.0,0272*6D
08/05/2019,21:39:49.737,$GPGGA,213949,4437.5833,N,12402.8841,W,2,09,00.9,23.4,M,-22.1,M,14.0,0272*6B
08/05/2019,21:39:50.653,$GPGGA,213950,4437.5833,N,12402.8841,W,2,09,00.9,23.5,M,-22.1,M,09.0,0272*6E
08/05/2019,21:39:51.665,$GPGGA,213951,4437.5833,N,12402.8841,W,2,09,00.9,23.5,M,-22.1,M,10.0,0272*67
08/05/2019,21:39:52.695,$GPGGA,213952,4437.5833,N,12402.8841,W,2,09,00.9,23.5,M,-22.1,M,11.0,0272*65
08/05/2019,21:39:53.795,$GPGGA,213953,4437.5833,N,12402.8841,W,2,09,00.9,23.5,M,-22.1,M,12.0,0272*67
08/05/2019,21:39:54.653,$GPGGA,213954,4437.5833,N,12402.8841,W,2,09,00.9,23.6,M,-22.1,M,13.0,0272*62
08/05/2019,21:39:55.720,$GPGGA,213955,4437.5832,N,12402.8841,W,2,09,00.9,23.6,M,-22.1,M,14.0,0272*65
08/05/2019,21:39:56.704,$GPGGA,213956,4437.5832,N,12402.8841,W,2,09,00.9,23.6,M,-22.1,M,12.0,0272*60
08/05/2019,21:39:57.745,$GPGGA,213957,4437.5832,N,12402.8841,W,2,09,00.9,23.6,M,-22.1,M,13.0,0272*60
08/05/2019,21:39:58.647,$GPGGA,213958,4437.5833,N,12402.8841,W,2,09,00.9,23.6,M,-22.1,M,14.0,0272*69
08/05/2019,21:39:59.655,$GPGGA,213959,4437.5833,N,12402.8841,W,2,09,00.9,23.6,M,-22.1,M,12.0,0272*6E
08/05/2019,21:40:00.661,$GPGGA,214000,4437.5833,N,12402.8841,W,2,09,00.9,23.7,M,-22.1,M,13.0,0272*6C
08/05/2019,21:40:01.778,$GPGGA,214001,4437.5833,N,12402.8841,W,2,09,00.9,23.7,M,-22.1,M,14.0,0272*6A
08/05/2019,21:40:02.696,$GPGGA,214002,4437.5833,N,12402.8841,W,2,09,00.9,23.7,M,-22.1,M,12.0,0272*6F
08/05/2019,21:40:03.716,$GPGGA,214003,4437.5833,N,12402.8841,W,2,09,00.9,23.7,M,-22.1,M,13.0,0272*6F
08/05/2019,21:40:04.701,$GPGGA,214004,4437.5833,N,12402.8841,W,2,09,00.9,23.7,M,-22.1,M,14.0,0272*6F
08/05/2019,21:40:05.789,$GPGGA,214005,4437.5833,N,12402.8841,W,2,09,00.9,23.7,M,-22.1,M,12.0,0272*68
08/05/2019,21:40:06.715,$GPGGA,214006,4437.5833,N,12402.8841,W,2,09,00.9,23.7,M,-22.1,M,13.0,0272*6A
08/05/2019,21:40:07.669,$GPGGA,214007,4437.5833,N,12402.8841,W,2,09,00.9,23.7,M,-22.1,M,14.0,0272*6C
08/05/2019,21:40:08.646,$GPGGA,214008,4437.5833,N,12402.8841,W,2,09,00.9,23.7,M,-22.1,M,12.0,0272*65
08/05/2019,21:40:09.748,$GPGGA,214009,4437.5833,N,12402.8841,W,2,09,00.9,23.7,M,-22.1,M,13.0,0272*65
08/05/2019,21:40:10.696,$GPGGA,214010,4437.5833,N,12402.8842,W,2,09,00.9,23.7,M,-22.1,M,14.0,0272*69
08/05/2019,21:40:11.717,$GPGGA,214011,4437.5833,N,12402.8842,W,2,09,00.9,23.7,M,-22.1,M,12.0,0272*6E
08/05/2019,21:40:12.748,$GPGGA,214012,4437.5833,N,12402.8842,W,2,09,00.9,23.7,M,-22.1,M,13.0,0272*6C
08/05/2019,21:40:13.738,$GPGGA,214013,4437.5833,N,12402.8842,W,2,09,00.9,23.7,M,-22.1,M,14.0,0272*6A
08/05/2019,21:40:14.671,$GPGGA,214014,4437.5833,N,12402.8842,W,2,09,00.9,23.7,M,-22.1,M,12.0,0272*6B
08/05/2019,21:40:15.716,$GPGGA,214015,4437.5833,N,12402.8842,W,2,09,00.9,23.7,M,-22.1,M,13.0,0272*6B
08/05/2019,21:40:16.704,$GPGGA,214016,4437.5833,N,12402.8842,W,2,09,00.9,23.7,M,-22.1,M,14.0,0272*6F
08/05/2019,21:40:17.789,$GPGGA,214017,4437.5833,N,12402.8842,W,2,09,00.9,23.7,M,-22.1,M,12.0,0272*68
08/05/2019,21:40:18.714,$GPGGA,214018,4437.5833,N,12402.8842,W,2,09,00.9,23.7,M,-22.1,M,13.0,0272*66
08/05/2019,21:40:19.706,$GPGGA,214019,4437.5833,N,12402.8842,W,2,09,00.9,23.7,M,-22.1,M,14.0,0272*60
08/05/2019,21:40:20.648,$GPGGA,214020,4437.5833,N,12402.8842,W,2,09,00.9,23.7,M,-22.1,M,09.0,0272*66
08/05/2019,21:40:21.738,$GPGGA,214021,4437.5833,N,12402.8843,W,2,09,00.9,23.7,M,-22.1,M,10.0,0272*6E
08/05/2019,21:40:22.676,$GPGGA,214022,4437.5833,N,12402.8843,W,2,09,00.9,23.7,M,-22.1,M,11.0,0272*6C
08/05/2019,21:40:23.716,$GPGGA,214023,4437.5833,N,12402.8843,W,2,09,00.9,23.7,M,-22.1,M,12.0,0272*6E
08/05/2019,21:40:24.712,$GPGGA,214024,4437.5833,N,12402.8843,W,2,09,00.9,23.7,M,-22.1,M,13.0,0272*68
08/05/2019,21:40:25.789,$GPGGA,214025,4437.5833,N,12402.8843,W,2,09,00.9,23.7,M,-22.1,M,14.0,0272*6E
08/05/2019,21:40:26.694,$GPGGA,214026,4437.5833,N,12402.8843,W,2,09,00.9,23.6,M,-22.1,M,12.0,0272*6A
08/05/2019,21:40:27.717,$GPGGA,214027,4437.5833,N,12402.8843,W,2,09,00.9,23.6,M,-22.1,M,13.0,0272*6A
08/05/2019,21:40:28.706,$GPGGA,214028,4437.5833,N,12402.8843,W,2,09,00.9,23.6,M,-22.1,M,14.0,0272*62
08/05/2019,21:40:29.739,$GPGGA,214029,4437.5833,N,12402.8843,W,2,09,00.9,23.6,M,-22.1,M,12.0,0272*65
08/05/2019,21:40:30.652,$GPGGA,214030,4437.5833,N,12402.8843,W,2,09,00.9,23.6,M,-22.1,M,13.0,0272*6C
08/05/2019,21:40:31.719,$GPGGA,214031,4437.5833,N,12402.8843,W,2,09,00.9,23.6,M,-22.1,M,14.0,0272*6A
08/05/2019,21:40:32.711,$GPGGA,214032,4437.5833,N,12402.8843,W,2,09,00.9,23.6,M,-22.1,M,12.0,0272*6F
08/05/2019,21:40:33.793,$GPGGA,214033,4437.5833,N,12402.8843,W,2,09,00.9,23.6,M,-22.1,M,13.0,0272*6F
08/05/2019,21:40:34.715,$GPGGA,214034,4437.5833,N,12402.8843,W,2,09,00.9,23.5,M,-22.1,M,14.0,0272*6C
08/05/2019,21:40:35.665,$GPGGA,214035,4437.5833,N,12402.8843,W,2,09,00.9,23.5,M,-22.1,M,12.0,0272*6B
08/05/2019,21:40:36.647,$GPGGA,214036,4437.5833,N,12402.8843,W,2,09,00.9,23.5,M,-22.1,M,13.0,0272*69
08/05/2019,21:40:37.742,$GPGGA,214037,4437.5833,N,12402.8843,W,2,09,00.9,23.5,M,-22.1,M,14.0,0272*6F
08/05/2019,21:40:38.660,$GPGGA,214038,4437.5834,N,12402.8843,W,2,09,00.9,23.5,M,-22.1,M,12.0,0272*61
08/05/2019,21:40:39.722,$GPGGA,214039,4437.5834,N,12402.8843,W,2,09,00.9,23.5,M,-22.1,M,13.0,0272*61
08/05/2019,21:40:40.698,$GPGGA,214040,4437.5834,N,12402.8843,W,2,09,00.9,23.5,M,-22.1,M,14.0,0272*68
08/05/2019,21:40:41.807,$GPGGA,214041,4437.5834,N,12402.8843,W,2,09,00.9,23.4,M,-22.1,M,12.0,0272*6E
08/05/2019,21:40:42.653,$GPGGA,214042,4437.5834,N,12402.8843,W,2,09,00.9,23.4,M,-22.1,M,13.0,0272*6C
08/05/2019,21:40:43.727,$GPGGA,214043,4437.5834,N,12402.8843,W,2,09,00.9,23.4,M,-22.1,M,14.0,0272*6A
08/05/2019,21:40:44.646,$GPGGA,214044,4437.5834,N,12402.8843,W,2,09,00.9,23.4,M,-22.1,M,12.0,0272*6B
08/05/2019,21:40:45.739,$GPGGA,214045,4437.5834,N,12402.8843,W,2,09,00.9,23.4,M,-22.1,M,13.0,0272*6B
08/05/2019,21:40:46.652,$GPGGA,214046,4437.5834,N,12402.8843,W,2,09,00.9,23.4,M,-22.1,M,14.0,0272*6F
08/05/2019,21:40:47.668,$GPGGA,214047,4437.5834,N,12402.8843,W,2,09,00.9,23.4,M,-22.1,M,12.0,0272*68
08/05/2019,21:40:48.647,$GPGGA,214048,4437.5835,N,12402.8843,W,2,09,00.9,23.4,M,-22.1,M,13.0,0272*67
08/05/2019,21:40:49.743,$GPGGA,214049,4437.5835,N,12402.8843,W,2,09,00.9,23.4,M,-22.1,M,14.0,0272*61
08/05/2019,21:40:50.656,$GPGGA,214050,4437.5835,N,12402.8843,W,2,09,00.9,23.4,M,-22.1,M,09.0,0272*65
08/05/2019,21:40:51.669,$GPGGA,214051,4437.5835,N,12402.8843,W,2,09,00.9,23.4,M,-22.1,M,10.0,0272*6C
08/05/2019,21:40:52.660,$GPGGA,214052,4437.5835,N,12402.8843,W,2,09,00.9,23.3,M,-22.1,M,11.0,0272*69
08/05/2019,21:40:53.744,$GPGGA,214053,4437.5835,N,12402.8843,W,2,09,00.9,23.3,M,-22.1,M,12.0,0272*6B
08/05/2019,21:40:54.655,$GPGGA,214054,4437.5835,N,12402.8843,W,2,09,00.9,23.3,M,-22.1,M,13.0,0272*6D
08/05/2019,21:40:55.667,$GPGGA,214055,4437.5835,N,12402.8843,W,2,09,00.9,23.3,M,-22.1,M,14.0,0272*6B
08/05/2019,21:40:56.645,$GPGGA,214056,4437.5835,N,12402.8842,W,2,09,00.9,23.3,M,-22.1,M,12.0,0272*6F
08/05/2019,21:40:57.784,$GPGGA,214057,4437.5835,N,12402.8842,W,2,09,00.9,23.4,M,-22.1,M,13.0,0272*68
08/05/2019,21:40:58.715,$GPGGA,214058,4437.5835,N,12402.8842,W,2,09,00.9,23.4,M,-22.1,M,14.0,0272*60
08/05/2019,21:40:59.666,$GPGGA,214059,4437.5835,N,12402.8842,W,2,09,00.9,23.4,M,-22.1,M,12.0,0272*67
08/05/2019,21:41:00.654,$GPGGA,214100,4437.5835,N,12402.8842,W,2,09,00.9,23.4,M,-22.1,M,13.0,0272*6B
08/05/2019,21:41:01.740,$GPGGA,214101,4437.5836,N,12402.8842,W,2,10,00.8,23.3,M,-22.1,M,14.0,0272*60
08/05/2019,21:41:02.657,$GPGGA,214102,4437.5836,N,12402.8842,W,2,10,00.8,23.3,M,-22.1,M,12.0,0272*65
08/05/2019,21:41:03.718,$GPGGA,214103,4437.5836,N,12402.8842,W,2,10,00.8,23.2,M,-22.1,M,13.0,0272*64
08/05/2019,21:41:04.707,$GPGGA,214104,4437.5836,N,12402.8842,W,2,10,00.8,23.2,M,-22.1,M,14.0,0272*64
08/05/2019,21:41:05.740,$GPGGA,214105,4437.5836,N,12402.8842,W,2,10,00.8,23.2,M,-22.1,M,12.0,0272*63
08/05/2019,21:41:06.651,$GPGGA,214106,4437.5836,N,12402.8842,W,2,10,00.8,23.1,M,-22.1,M,13.0,0272*62
08/05/2019,21:41:07.688,$GPGGA,214107,4437.5836,N,12402.8842,W,2,10,00.8,23.1,M,-22.1,M,14.0,0272*64
08/05/2019,21:41:08.698,$GPGGA,214108,4437.5836,N,12402.8842,W,2,10,00.8,23.1,M,-22.1,M,12.0,0272*6D
08/05/2019,21:41:09.791,$GPGGA,214109,4437.5836,N,12402.8842,W,2,10,00.8,23.0,M,-22.1,M,13.0,0272*6C
08/05/2019,21:41:10.715,$GPGGA,214110,4437.5836,N,12402.8842,W,2,10,00.8,23.0,M,-22.1,M,14.0,0272*63
08/05/2019,21:41:11.667,$GPGGA,214111,4437.5836,N,12402.8842,W,2,10,00.8,23.0,M,-22.1,M,12.0,0272*64
08/05/2019,21:41:12.693,$GPGGA,214112,4437.5837,N,12402.8841,W,2,10,00.8,23.0,M,-22.1,M,13.0,0272*64
08/05/2019,21:41:13.804,$GPGGA,214113,4437.5837,N,12402.8841,W,2,10,00.8,22.9,M,-22.1,M,14.0,0272*6A
08/05/2019,21:41:14.650,$GPGGA,214114,4437.5837,N,12402.8841,W,2,10,00.8,22.9,M,-22.1,M,12.0,0272*6B
08/05/2019,21:41:15.678,$GPGGA,214115,4437.5837,N,12402.8841,W,2,10,00.8,22.9,M,-22.1,M,13.0,0272*6B
08/05/2019,21:41:16.651,$GPGGA,214116,4437.5837,N,12402.8841,W,2,10,00.8,22.9,M,-22.1,M,14.0,0272*6F
08/05/2019,21:41:17.744,$GPGGA,214117,4437.5837,N,12402.8841,W,2,10,00.8,22.8,M,-22.1,M,12.0,0272*69
08/05/2019,21:41:18.660,$GPGGA,214118,4437.5837,N,12402.8841,W,2,10,00.8,22.8,M,-22.1,M,13.0,0272*67
08/05/2019,21:41:19.727,$GPGGA,214119,4437.5837,N,12402.8841,W,2,10,00.8,22.8,M,-22.1,M,14.0,0272*61
08/05/2019,21:41:20.707,$GPGGA,214120,4437.5837,N,12402.8841,W,2,10,00.8,22.8,M,-22.1,M,12.0,0272*6D
08/05/2019,21:41:21.740,$GPGGA,214121,4437.5837,N,12402.8841,W,2,10,00.8,22.8,M,-22.1,M,13.0,0272*6D
08/05/2019,21:41:22.660,$GPGGA,214122,4437.5837,N,12402.8841,W,2,10,00.8,22.8,M,-22.1,M,14.0,0272*69
08/05/2019,21:41:23.718,$GPGGA,214123,4437.5837,N,12402.8840,W,2,10,00.8,22.7,M,-22.1,M,12.0,0272*60
08/05/2019,21:41:24.715,$GPGGA,214124,4437.5837,N,12402.8840,W,2,10,00.8,22.7,M,-22.1,M,13.0,0272*66
08/05/2019,21:41:25.740,$GPGGA,214125,4437.5837,N,12402.8840,W,2,10,00.8,22.7,M,-22.1,M,14.0,0272*60
08/05/2019,21:41:26.656,$GPGGA,214126,4437.5837,N,12402.8840,W,2,10,00.8,22.7,M,-22.1,M,12.0,0272*65
08/05/2019,21:41:27.813,$GPGGA,214127,4437.5837,N,12402.8840,W,2,10,00.8,22.7,M,-22.1,M,13.0,0272*65
08/05/2019,21:41:28.649,$GPGGA,214128,4437.5837,N,12402.8840,W,2,10,00.8,22.7,M,-22.1,M,14.0,0272*6D
08/05/2019,21:41:29.741,$GPGGA,214129,4437.5837,N,12402.8840,W,2,10,00.8,22.7,M,-22.1,M,12.0,0272*6A
08/05/2019,21:41:30.660,$GPGGA,214130,4437.5837,N,12402.8840,W,2,10,00.8,22.6,M,-22.1,M,13.0,0272*62
08/05/2019,21:41:31.721,$GPGGA,214131,4437.5837,N,12402.8840,W,2,10,00.8,22.6,M,-22.1,M,14.0,0272*64
08/05/2019,21:41:32.700,$GPGGA,214132,4437.5837,N,12402.8840,W,2,10,00.8,22.6,M,-22.1,M,12.0,0272*61
08/05/2019,21:41:33.792,$GPGGA,214133,4437.5837,N,12402.8840,W,2,10,00.8,22.6,M,-22.1,M,13.0,0272*61
08/05/2019,21:41:34.719,$GPGGA,214134,4437.5836,N,12402.8840,W,2,10,00.8,22.6,M,-22.1,M,14.0,0272*60
08/05/2019,21:41:35.671,$GPGGA,214135,4437.5836,N,12402.8840,W,2,10,00.8,22.6,M,-22.1,M,12.0,0272*67
08/05/2019,21:41:36.654,$GPGGA,214136,4437.5836,N,12402.8840,W,2,10,00.8,22.6,M,-22.1,M,13.0,0272*65
08/05/2019,21:41:37.747,$GPGGA,214137,4437.5836,N,12402.8840,W,2,09,00.9,22.5,M,-22.1,M,14.0,0272*69
08/05/2019,21:41:38.660,$GPGGA,214138,4437.5836,N,12402.8840,W,2,09,00.9,22.5,M,-22.1,M,12.0,0272*60
08/05/2019,21:41:39.723,$GPGGA,214139,4437.5836,N,12402.8840,W,2,09,00.9,22.5,M,-22.1,M,13.0,0272*60
08/05/2019,21:41:40.643,$GPGGA,214140,4437.5836,N,12402.8840,W,2,09,00.9,22.5,M,-22.1,M,14.0,0272*69
08/05/2019,21:41:41.761,$GPGGA,214141,4437.5836,N,12402.8840,W,2,09,00.9,22.5,M,-22.1,M,12.0,0272*6E
08/05/2019,21:41:42.712,$GPGGA,214142,4437.5836,N,12402.8840,W,2,09,00.9,22.5,M,-22.1,M,13.0,0272*6C
08/05/2019,21:41:43.671,$GPGGA,214143,4437.5837,N,12402.8840,W,2,09,00.9,22.5,M,-22.1,M,14.0,0272*6B
08/05/2019,21:41:44.660,$GPGGA,214144,4437.5837,N,12402.8840,W,2,09,00.9,22.4,M,-22.1,M,12.0,0272*6B
08/05/2019,21:41:45.806,$GPGGA,214145,4437.5837,N,12402.8840,W,2,09,00.9,22.4,M,-22.1,M,13.0,0272*6B
08/05/2019,21:41:46.730,$GPGGA,214146,4437.5837,N,12402.8840,W,2,09,00.9,22.4,M,-22.1,M,14.0,0272*6F
08/05/2019,21:41:47.772,$GPGGA,214147,4437.5838,N,12402.8840,W,2,09,00.9,22.4,M,-22.1,M,12.0,0272*67
08/05/2019,21:41:48.653,$GPGGA,214148,4437.5838,N,12402.8840,W,2,09,00.9,22.4,M,-22.1,M,13.0,0272*69
08/05/2019,21:41:49.749,$GPGGA,214149,4437.5838,N,12402.8840,W,2,09,00.9,22.4,M,-22.1,M,14.0,0272*6F
08/05/2019,21:41:50.654,$GPGGA,214150,4437.5838,N,12402.8840,W,2,09,00.9,22.4,M,-22.1,M,12.0,0272*61
08/05/2019,21:41:51.682,$GPGGA,214151,4437.5837,N,12402.8840,W,2,09,00.9,22.3,M,-22.1,M,13.0,0272*69
08/05/2019,21:41:52.663,$GPGGA,214152,4437.5837,N,12402.8841,W,2,09,00.9,22.3,M,-22.1,M,14.0,0272*6C
08/05/2019,21:41:53.752,$GPGGA,214153,4437.5837,N,12402.8841,W,2,09,00.9,22.3,M,-22.1,M,12.0,0272*6B
08/05/2019,21:41:54.690,$GPGGA,214154,4437.5838,N,12402.8841,W,2,09,00.9,22.3,M,-22.1,M,13.0,0272*62
08/05/2019,21:41:55.723,$GPGGA,214155,4437.5838,N,12402.8841,W,2,09,00.9,22.3,M,-22.1,M,14.0,0272*64
08/05/2019,21:41:56.717,$GPGGA,214156,4437.5838,N,12402.8841,W,2,09,00.9,22.3,M,-22.1,M,09.0,0272*6B
08/05/2019,21:41:57.844,$GPGGA,214157,4437.5838,N,12402.8841,W,2,09,00.9,22.3,M,-22.1,M,10.0,0272*62
08/05/2019,21:41:58.673,$GPGGA,214158,4437.5838,N,12402.8841,W,2,09,00.9,22.3,M,-22.1,M,11.0,0272*6C
08/05/2019,21:41:59.723,$GPGGA,214159,4437.5838,N,12402.8841,W,2,09,00.9,22.3,M,-22.1,M,12.0,0272*6E
08/05/2019,21:42:00.693,$GPGGA,214200,4437.5837,N,12402.8841,W,2,09,00.9,22.3,M,-22.1,M,13.0,0272*6F
08/05/2019,21:42:01.810,$GPGGA,214201,4437.5837,N,12402.8841,W,2,09,00.9,22.3,M,-22.1,M,14.0,0272*69
08/05/2019,21:42:02.662,$GPGGA,214202,4437.5837,N,12402.8841,W,2,09,00.9,22.3,M,-22.1,M,12.0,0272*6C
08/05/2019,21:42:03.673,$GPGGA,214203,4437.5837,N,12402.8841,W,2,09,00.9,22.4,M,-22.1,M,13.0,0272*6B
08/05/2019,21:42:04.653,$GPGGA,214204,4437.5837,N,12402.8841,W,2,09,00.9,22.4,M,-22.1,M,14.0,0272*6B
08/05/2019,21:42:05.748,$GPGGA,214205,4437.5838,N,12402.8841,W,2,09,00.9,22.4,M,-22.1,M,12.0,0272*63
08/05/2019,21:42:06.684,$GPGGA,214206,4437.5838,N,12402.8841,W,2,09,00.9,22.4,M,-22.1,M,13.0,0272*61
08/05/2019,21:42:07.726,$GPGGA,214207,4437.5838,N,12402.8841,W,2,09,00.9,22.4,M,-22.1,M,14.0,0272*67
08/05/2019,21:42:08.703,$GPGGA,214208,4437.5838,N,12402.8841,W,2,09,00.9,22.4,M,-22.1,M,12.0,0272*6E
08/05/2019,21:42:09.799,$GPGGA,214209,4437.5838,N,12402.8841,W,2,09,00.9,22.4,M,-22.1,M,13.0,0272*6E
08/05/2019,21:42:10.795,$GPGGA,214210,4437.5838,N,12402.8841,W,2,09,00.9,22.4,M,-22.1,M,14.0,0272*61
08/05/2019,21:42:11.724,$GPGGA,214211,4437.5838,N,12402.8842,W,2,09,00.9,22.4,M,-22.1,M,12.0,0272*65
08/05/2019,21:42:12.720,$GPGGA,214212,4437.5838,N,12402.8842,W,2,09,00.9,22.4,M,-22.1,M,13.0,0272*67
08/05/2019,21:42:13.746,$GPGGA,214213,4437.5838,N,12402.8842,W,2,09,00.9,22.4,M,-22.1,M,14.0,0272*61
08/05/2019,21:42:14.659,$GPGGA,214214,4437.5838,N,12402.8842,W,2,09,00.9,22.4,M,-22.1,M,12.0,0272*60
08/05/2019,21:42:15.687,$GPGGA,214215,4437.5838,N,12402.8842,W,2,09,00.9,22.4,M,-22.1,M,13.0,0272*60
08/05/2019,21:42:16.653,$GPGGA,214216,4437.5838,N,12402.8842,W,2,09,00.9,22.4,M,-22.1,M,14.0,0272*64
08/05/2019,21:42:17.750,$GPGGA,214217,4437.5838,N,12402.8842,W,2,09,00.9,22.4,M,-22.1,M,12.0,0272*63
08/05/2019,21:42:18.660,$GPGGA,214218,4437.5838,N,12402.8842,W,2,09,00.9,22.4,M,-22.1,M,13.0,0272*6D
08/05/2019,21:42:19.679,$GPGGA,214219,4437.5838,N,12402.8843,W,2,09,00.9,22.4,M,-22.1,M,14.0,0272*6A
08/05/2019,21:42:20.653,$GPGGA,214220,4437.5838,N,12402.8843,W,2,09,00.9,22.3,M,-22.1,M,12.0,0272*61
08/05/2019,21:42:21.743,$GPGGA,214221,4437.5838,N,12402.8843,W,2,09,00.9,22.3,M,-22.1,M,13.0,0272*61
08/05/2019,21:42:22.759,$GPGGA,214222,4437.5838,N,12402.8843,W,2,09,00.9,22.3,M,-22.1,M,14.0,0272*65
08/05/2019,21:42:23.725,$GPGGA,214223,4437.5838,N,12402.8844,W,2,09,00.9,22.3,M,-22.1,M,12.0,0272*65
08/05/2019,21:42:24.794,$GPGGA,214224,4437.5839,N,12402.8844,W,2,09,00.9,22.3,M,-22.1,M,13.0,0272*62
08/05/2019,21:42:25.751,$GPGGA,214225,4437.5839,N,12402.8844,W,2,09,00.9,22.2,M,-22.1,M,08.0,0272*68
08/05/2019,21:42:26.654,$GPGGA,214226,4437.5839,N,12402.8844,W,2,09,00.9,22.2,M,-22.1,M,09.0,0272*6A
08/05/2019,21:42:27.682,$GPGGA,214227,4437.5839,N,12402.8844,W,2,09,00.9,22.2,M,-22.1,M,10.0,0272*63
08/05/2019,21:42:28.654,$GPGGA,214228,4437.5839,N,12402.8844,W,2,09,00.9,22.2,M,-22.1,M,11.0,0272*6D
08/05/2019,21:42:29.753,$GPGGA,214229,4437.5839,N,12402.8844,W,2,09,00.9,22.2,M,-22.1,M,12.0,0272*6F
08/05/2019,21:42:30.661,$GPGGA,214230,4437.5839,N,12402.8844,W,2,09,00.9,22.1,M,-22.1,M,11.0,0272*67
08/05/2019,21:42:31.684,$GPGGA,214231,4437.5839,N,12402.8844,W,2,09,00.9,22.2,M,-22.1,M,12.0,0272*66
08/05/2019,21:42:32.665,$GPGGA,214232,4437.5838,N,12402.8844,W,2,09,00.9,22.1,M,-22.1,M,13.0,0272*66
08/05/2019,21:42:33.762,$GPGGA,214233,4437.5839,N,12402.8844,W,2,09,00.9,22.1,M,-22.1,M,13.0,0272*66
08/05/2019,21:42:34.702,$GPGGA,214234,4437.5839,N,12402.8844,W,2,09,00.9,22.2,M,-22.1,M,14.0,0272*65
08/05/2019,21:42:35.731,$GPGGA,214235,4437.5839,N,12402.8844,W,2,09,00.9,22.2,M,-22.1,M,15.0,0272*65
08/05/2019,21:42:36.704,$GPGGA,214236,4437.5839,N,12402.8843,W,2,10,00.9,22.2,M,-22.1,M,12.0,0272*6E
08/05/2019,21:42:37.798,$GPGGA,214237,4437.5839,N,12402.8843,W,2,09,00.9,22.2,M,-22.1,M,13.0,0272*66
08/05/2019,21:42:38.692,$GPGGA,214238,4437.5839,N,12402.8843,W,2,08,01.1,22.2,M,-22.1,M,14.0,0272*66
08/05/2019,21:42:39.732,$GPGGA,214239,4437.5839,N,12402.8843,W,2,08,01.1,22.2,M,-22.1,M,12.0,0272*61
08/05/2019,21:42:40.654,$GPGGA,214240,4437.5838,N,12402.8843,W,2,08,01.1,22.2,M,-22.1,M,13.0,0272*6F
08/05/2019,21:42:41.753,$GPGGA,214241,4437.5838,N,12402.8843,W,2,08,01.1,22.3,M,-22.1,M,14.0,0272*68
08/05/2019,21:42:42.657,$GPGGA,214242,4437.5838,N,12402.8843,W,2,08,01.1,22.3,M,-22.1,M,12.0,0272*6D
08/05/2019,21:42:43.725,$GPGGA,214243,4437.5838,N,12402.8843,W,2,08,01.1,22.3,M,-22.1,M,13.0,0272*6D
08/05/2019,21:42:44.705,$GPGGA,214244,4437.5838,N,12402.8843,W,2,08,01.1,22.3,M,-22.1,M,14.0,0272*6D
08/05/2019,21:42:45.797,$GPGGA,214245,4437.5839,N,12402.8843,W,2,08,01.1,22.3,M,-22.1,M,12.0,0272*6B
08/05/2019,21:42:46.702,$GPGGA,214246,4437.5838,N,12402.8843,W,2,08,01.1,22.3,M,-22.1,M,13.0,0272*68
08/05/2019,21:42:47.726,$GPGGA,214247,4437.5838,N,12402.8843,W,2,08,01.1,22.3,M,-22.1,M,14.0,0272*6E
08/05/2019,21:42:48.722,$GPGGA,214248,4437.5838,N,12402.8843,W,2,08,01.1,22.3,M,-22.1,M,09.0,0272*6D
08/05/2019,21:42:49.750,$GPGGA,214249,4437.5838,N,12402.8843,W,2,08,01.1,22.4,M,-22.1,M,10.0,0272*63
08/05/2019,21:42:50.663,$GPGGA,214250,4437.5838,N,12402.8843,W,2,08,01.1,22.4,M,-22.1,M,14.0,0272*6F
08/05/2019,21:42:51.689,$GPGGA,214251,4437.5838,N,12402.8843,W,2,08,01.1,22.4,M,-22.1,M,12.0,0272*68
08/05/2019,21:42:52.728,$GPGGA,214252,4437.5838,N,12402.8843,W,2,09,01.1,22.4,M,-22.1,M,13.0,0272*6B
08/05/2019,21:42:53.747,$GPGGA,214253,4437.5838,N,12402.8843,W,2,09,00.9,22.4,M,-22.1,M,14.0,0272*64
08/05/2019,21:42:54.674,$GPGGA,214254,4437.5838,N,12402.8843,W,2,09,00.9,22.4,M,-22.1,M,12.0,0272*65
08/05/2019,21:42:55.724,$GPGGA,214255,4437.5838,N,12402.8843,W,2,09,00.9,22.4,M,-22.1,M,13.0,0272*65
08/05/2019,21:42:56.719,$GPGGA,214256,4437.5838,N,12402.8843,W,2,09,00.9,22.4,M,-22.1,M,14.0,0272*61
08/05/2019,21:42:57.760,$GPGGA,214257,4437.5838,N,12402.8843,W,2,09,00.9,22.4,M,-22.1,M,12.0,0272*66
08/05/2019,21:42:58.670,$GPGGA,214258,4437.5838,N,12402.8843,W,2,09,00.9,22.4,M,-22.1,M,13.0,0272*68
08/05/2019,21:42:59.757,$GPGGA,214259,4437.5838,N,12402.8843,W,2,09,00.9,22.4,M,-22.1,M,14.0,0272*6E
08/05/2019,21:43:00.654,$GPGGA,214300,4437.5838,N,12402.8843,W,2,09,00.9,22.4,M,-22.1,M,12.0,0272*65
08/05/2019,21:43:01.757,$GPGGA,214301,4437.5838,N,12402.8843,W,2,09,00.9,22.4,M,-22.1,M,13.0,0272*65
08/05/2019,21:43:02.738,$GPGGA,214302,4437.5838,N,12402.8843,W,2,09,00.9,22.4,M,-22.1,M,14.0,0272*61
08/05/2019,21:43:03.675,$GPGGA,214303,4437.5838,N,12402.8843,W,2,09,00.9,22.4,M,-22.1,M,12.0,0272*66
08/05/2019,21:43:04.670,$GPGGA,214304,4437.5838,N,12402.8843,W,2,09,00.9,22.4,M,-22.1,M,13.0,0272*60
08/05/2019,21:43:05.798,$GPGGA,214305,4437.5838,N,12402.8843,W,2,09,00.9,22.4,M,-22.1,M,14.0,0272*66
08/05/2019,21:43:06.703,$GPGGA,214306,4437.5838,N,12402.8843,W,2,09,00.9,22.4,M,-22.1,M,12.0,0272*63
08/05/2019,21:43:07.726,$GPGGA,214307,4437.5838,N,12402.8843,W,2,09,00.9,22.4,M,-22.1,M,13.0,0272*63
08/05/2019,21:43:08.721,$GPGGA,214308,4437.5838,N,12402.8843,W,2,09,00.9,22.4,M,-22.1,M,14.0,0272*6B
08/05/2019,21:43:09.747,$GPGGA,214309,4437.5838,N,12402.8843,W,2,09,00.9,22.3,M,-22.1,M,12.0,0272*6B
08/05/2019,21:43:10.685,$GPGGA,214310,4437.5838,N,12402.8843,W,2,09,00.9,22.3,M,-22.1,M,13.0,0272*62
08/05/2019,21:43:11.725,$GPGGA,214311,4437.5838,N,12402.8843,W,2,09,00.9,22.3,M,-22.1,M,14.0,0272*64
08/05/2019,21:43:12.714,$GPGGA,214312,4437.5838,N,12402.8843,W,2,09,00.9,22.3,M,-22.1,M,12.0,0272*61
08/05/2019,21:43:13.748,$GPGGA,214313,4437.5838,N,12402.8843,W,2,09,00.9,22.3,M,-22.1,M,13.0,0272*61
08/05/2019,21:43:14.669,$GPGGA,214314,4437.5838,N,12402.8843,W,2,09,00.9,22.3,M,-22.1,M,14.0,0272*61
08/05/2019,21:43:15.726,$GPGGA,214315,4437.5838,N,12402.8842,W,2,09,00.9,22.3,M,-22.1,M,12.0,0272*67
08/05/2019,21:43:16.723,$GPGGA,214316,4437.5838,N,12402.8842,W,2,09,00.9,22.3,M,-22.1,M,13.0,0272*65
08/05/2019,21:43:17.750,$GPGGA,214317,4437.5838,N,12402.8842,W,2,09,00.9,22.3,M,-22.1,M,14.0,0272*63
08/05/2019,21:43:18.708,$GPGGA,214318,4437.5838,N,12402.8842,W,2,09,00.9,22.3,M,-22.1,M,12.0,0272*6A
08/05/2019,21:43:19.726,$GPGGA,214319,4437.5838,N,12402.8842,W,2,09,00.9,22.3,M,-22.1,M,13.0,0272*6A
08/05/2019,21:43:20.709,$GPGGA,214320,4437.5838,N,12402.8842,W,2,09,00.9,22.3,M,-22.1,M,14.0,0272*67
08/05/2019,21:43:21.799,$GPGGA,214321,4437.5838,N,12402.8842,W,2,10,00.9,22.3,M,-22.1,M,12.0,0272*68
08/05/2019,21:43:22.714,$GPGGA,214322,4437.5838,N,12402.8842,W,2,10,00.9,22.3,M,-22.1,M,13.0,0272*6A
08/05/2019,21:43:23.674,$GPGGA,214323,4437.5838,N,12402.8842,W,2,10,00.9,22.3,M,-22.1,M,14.0,0272*6C
08/05/2019,21:43:24.670,$GPGGA,214324,4437.5838,N,12402.8842,W,2,10,00.9,22.3,M,-22.1,M,12.0,0272*6D
08/05/2019,21:43:25.746,$GPGGA,214325,4437.5838,N,12402.8842,W,2,10,00.9,22.3,M,-22.1,M,13.0,0272*6D
08/05/2019,21:43:26.667,$GPGGA,214326,4437.5838,N,12402.8842,W,2,10,00.9,22.3,M,-22.1,M,14.0,0272*69
08/05/2019,21:43:27.726,$GPGGA,214327,4437.5838,N,12402.8842,W,2,10,00.9,22.3,M,-22.1,M,12.0,0272*6E
08/05/2019,21:43:28.707,$GPGGA,214328,4437.5838,N,12402.8842,W,2,10,00.9,22.3,M,-22.1,M,13.0,0272*60
08/05/2019,21:43:29.814,$GPGGA,214329,4437.5838,N,12402.8842,W,2,09,00.9,22.3,M,-22.1,M,14.0,0272*6E
08/05/2019,21:43:30.661,$GPGGA,214330,4437.5838,N,12402.8842,W,2,09,00.9,22.3,M,-22.1,M,12.0,0272*60
08/05/2019,21:43:31.675,$GPGGA,214331,4437.5838,N,12402.8842,W,2,09,00.9,22.4,M,-22.1,M,13.0,0272*67
08/05/2019,21:43:32.679,$GPGGA,214332,4437.5838,N,12402.8842,W,2,09,00.9,22.4,M,-22.1,M,14.0,0272*63
08/05/2019,21:43:33.802,$GPGGA,214333,4437.5838,N,12402.8842,W,2,09,00.9,22.4,M,-22.1,M,12.0,0272*64
08/05/2019,21:43:34.800,$GPGGA,214334,4437.5838,N,12402.8842,W,2,09,00.9,22.4,M,-22.1,M,13.0,0272*62
08/05/2019,21:43:35.727,$GPGGA,214335,4437.5838,N,12402.8842,W,2,09,00.9,22.4,M,-22.1,M,14.0,0272*64
08/05/2019,21:43:36.706,$GPGGA,214336,4437.5838,N,12402.8843,W,2,09,00.9,22.4,M,-22.1,M,12.0,0272*60
08/05/2019,21:43:37.839,$GPGGA,214337,4437.5838,N,12402.8843,W,2,09,00.9,22.4,M,-22.1,M,13.0,0272*60
08/05/2019,21:43:38.657,$GPGGA,214338,4437.5838,N,12402.8843,W,2,09,00.9,22.4,M,-22.1,M,14.0,0272*68
08/05/2019,21:43:39.735,$GPGGA,214339,4437.5838,N,12402.8843,W,2,10,00.9,22.4,M,-22.1,M,12.0,0272*67
08/05/2019,21:43:40.717,$GPGGA,214340,4437.5838,N,12402.8843,W,2,10,00.9,22.4,M,-22.1,M,13.0,0272*68
08/05/2019,21:43:41.800,$GPGGA,214341,4437.5838,N,12402.8843,W,2,10,00.9,22.4,M,-22.1,M,14.0,0272*6E
08/05/2019,21:43:42.700,$GPGGA,214342,4437.5838,N,12402.8843,W,2,10,00.9,22.4,M,-22.1,M,12.0,0272*6B
08/05/2019,21:43:43.676,$GPGGA,214343,4437.5838,N,12402.8843,W,2,10,00.9,22.4,M,-22.1,M,13.0,0272*6B
08/05/2019,21:43:44.656,$GPGGA,214344,4437.5838,N,12402.8843,W,2,10,00.9,22.4,M,-22.1,M,14.0,0272*6B
08/05/2019,21:43:45.748,$GPGGA,214345,4437.5838,N,12402.8843,W,2,10,00.9,22.4,M,-22.1,M,12.0,0272*6C
08/05/2019,21:43:46.659,$GPGGA,214346,4437.5837,N,12402.8843,W,2,10,00.9,22.4,M,-22.1,M,13.0,0272*61
08/05/2019,21:43:47.673,$GPGGA,214347,4437.5837,N,12402.8843,W,2,10,00.9,22.3,M,-22.1,M,14.0,0272*60
08/05/2019,21:43:48.674,$GPGGA,214348,4437.5837,N,12402.8843,W,2,10,00.9,22.3,M,-22.1,M,12.0,0272*69
08/05/2019,21:43:49.748,$GPGGA,214349,4437.5837,N,12402.8844,W,2,10,00.9,22.3,M,-22.1,M,13.0,0272*6E
08/05/2019,21:43:50.665,$GPGGA,214350,4437.5837,N,12402.8844,W,2,10,00.9,22.3,M,-22.1,M,14.0,0272*61
08/05/2019,21:43:51.733,$GPGGA,214351,4437.5837,N,12402.8844,W,2,10,00.9,22.3,M,-22.1,M,12.0,0272*66
08/05/2019,21:43:52.707,$GPGGA,214352,4437.5837,N,12402.8844,W,2,10,00.9,22.3,M,-22.1,M,13.0,0272*64
08/05/2019,21:43:53.804,$GPGGA,214353,4437.5838,N,12402.8844,W,2,10,00.9,22.3,M,-22.1,M,14.0,0272*6D
08/05/2019,21:43:54.694,$GPGGA,214354,4437.5838,N,12402.8844,W,2,10,00.9,22.3,M,-22.1,M,12.0,0272*6C
08/05/2019,21:43:55.770,$GPGGA,214355,4437.5838,N,12402.8844,W,2,10,00.9,22.3,M,-22.1,M,13.0,0272*6C
08/05/2019,21:43:56.708,$GPGGA,214356,4437.5838,N,12402.8844,W,2,10,00.9,22.3,M,-22.1,M,14.0,0272*68
08/05/2019,21:43:57.812,$GPGGA,214357,4437.5838,N,12402.8844,W,2,10,00.9,22.3,M,-22.1,M,12.0,0272*6F
08/05/2019,21:43:58.726,$GPGGA,214358,4437.5838,N,12402.8844,W,2,10,00.9,22.3,M,-22.1,M,13.0,0272*61
08/05/2019,21:43:59.676,$GPGGA,214359,4437.5838,N,12402.8844,W,2,10,00.9,22.3,M,-22.1,M,14.0,0272*67
08/05/2019,21:44:00.658,$GPGGA,214400,4437.5838,N,12402.8844,W,2,10,00.9,22.3,M,-22.1,M,12.0,0272*6A
08/05/2019,21:44:01.749,$GPGGA,214401,4437.5838,N,12402.8844,W,2,10,00.9,22.3,M,-22.1,M,13.0,0272*6A
08/05/2019,21:44:02.685,$GPGGA,214402,4437.5838,N,12402.8843,W,2,10,00.9,22.3,M,-22.1,M,14.0,0272*69
08/05/2019,21:44:03.727,$GPGGA,214403,4437.5838,N,12402.8843,W,2,09,00.9,22.3,M,-22.1,M,12.0,0272*66
08/05/2019,21:44:04.710,$GPGGA,214404,4437.5838,N,12402.8843,W,2,10,00.9,22.4,M,-22.1,M,13.0,0272*6F
08/05/2019,21:44:05.801,$GPGGA,214405,4437.5837,N,12402.8843,W,2,10,00.9,22.4,M,-22.1,M,14.0,0272*66
08/05/2019,21:44:06.617,$GPGGA,214406,4437.5837,N,12402.8843,W,2,10,00.9,22.4,M,-22.1,M,12.0,0272*63
08/05/2019,21:44:07.678,$GPGGA,214407,4437.5837,N,12402.8843,W,2,10,00.9,22.4,M,-22.1,M,13.0,0272*63
08/05/2019,21:44:08.665,$GPGGA,214408,4437.5837,N,12402.8843,W,2,10,00.9,22.5,M,-22.1,M,14.0,0272*6A
08/05/2019,21:44:09.790,$GPGGA,214409,4437.5837,N,12402.8843,W,2,10,00.9,22.5,M,-22.1,M,12.0,0272*6D
08/05/2019,21:44:10.649,$GPGGA,214410,4437.5837,N,12402.8843,W,2,10,00.9,22.5,M,-22.1,M,13.0,0272*64
08/05/2019,21:44:11.684,$GPGGA,214411,4437.5837,N,12402.8843,W,2,10,00.9,22.5,M,-22.1,M,14.0,0272*62
08/05/2019,21:44:12.687,$GPGGA,214412,4437.5837,N,12402.8842,W,2,10,00.9,22.5,M,-22.1,M,12.0,0272*66
08/05/2019,21:44:13.700,$GPGGA,214413,4437.5837,N,12402.8842,W,2,10,00.9,22.5,M,-22.1,M,13.0,0272*66
08/05/2019,21:44:14.640,$GPGGA,214414,4437.5837,N,12402.8842,W,2,10,00.9,22.5,M,-22.1,M,14.0,0272*66
08/05/2019,21:44:15.676,$GPGGA,214415,4437.5837,N,12402.8842,W,2,10,00.9,22.5,M,-22.1,M,12.0,0272*61
08/05/2019,21:44:16.670,$GPGGA,214416,4437.5837,N,12402.8842,W,2,10,00.9,22.6,M,-22.1,M,13.0,0272*60
08/05/2019,21:44:17.715,$GPGGA,214417,4437.5837,N,12402.8842,W,2,10,00.9,22.5,M,-22.1,M,14.0,0272*65
08/05/2019,21:44:18.617,$GPGGA,214418,4437.5837,N,12402.8842,W,2,10,00.9,22.5,M,-22.1,M,12.0,0272*6C
08/05/2019,21:44:19.676,$GPGGA,214419,4437.5837,N,12402.8842,W,2,10,00.9,22.5,M,-22.1,M,13.0,0272*6C
08/05/2019,21:44:20.666,$GPGGA,214420,4437.5837,N,12402.8842,W,2,10,00.9,22.5,M,-22.1,M,14.0,0272*61
08/05/2019,21:44:21.701,$GPGGA,214421,4437.5837,N,12402.8842,W,2,10,00.9,22.5,M,-22.1,M,12.0,0272*66
08/05/2019,21:44:22.702,$GPGGA,214422,4437.5837,N,12402.8842,W,2,10,00.9,22.5,M,-22.1,M,13.0,0272*64
08/05/2019,21:44:23.628,$GPGGA,214423,4437.5837,N,12402.8842,W,2,10,00.9,22.5,M,-22.1,M,14.0,0272*62
08/05/2019,21:44:24.613,$GPGGA,214424,4437.5837,N,12402.8842,W,2,10,00.9,22.5,M,-22.1,M,12.0,0272*63
08/05/2019,21:44:25.793,$GPGGA,214425,4437.5837,N,12402.8842,W,2,10,00.9,22.5,M,-22.1,M,13.0,0272*63
08/05/2019,21:44:26.624,$GPGGA,214426,4437.5837,N,12402.8842,W,2,10,00.9,22.4,M,-22.1,M,14.0,0272*66
08/05/2019,21:44:27.628,$GPGGA,214427,4437.5837,N,12402.8842,W,2,10,00.9,22.4,M,-22.1,M,12.0,0272*61
08/05/2019,21:44:28.609,$GPGGA,214428,4437.5837,N,12402.8842,W,2,10,00.9,22.4,M,-22.1,M,13.0,0272*6F
08/05/2019,21:44:29.802,$GPGGA,214429,4437.5837,N,12402.8842,W,2,10,00.9,22.4,M,-22.1,M,14.0,0272*69
08/05/2019,21:44:30.616,$GPGGA,214430,4437.5837,N,12402.8842,W,2,10,00.9,22.4,M,-22.1,M,12.0,0272*67
08/05/2019,21:44:31.631,$GPGGA,214431,4437.5837,N,12402.8842,W,2,10,00.9,22.4,M,-22.1,M,13.0,0272*67
08/05/2019,21:44:32.698,$GPGGA,214432,4437.5837,N,12402.8842,W,2,10,00.9,22.4,M,-22.1,M,14.0,0272*63
08/05/2019,21:44:33.720,$GPGGA,214433,4437.5837,N,12402.8842,W,2,10,00.9,22.4,M,-22.1,M,15.0,0272*63
08/05/2019,21:44:34.617,$GPGGA,214434,4437.5837,N,12402.8842,W,2,10,00.9,22.4,M,-22.1,M,16.0,0272*67
08/05/2019,21:44:35.718,$GPGGA,214435,4437.5837,N,12402.8842,W,2,10,00.9,22.4,M,-22.1,M,14.0,0272*64
08/05/2019,21:44:36.674,$GPGGA,214436,4437.5837,N,12402.8842,W,2,10,00.9,22.4,M,-22.1,M,15.0,0272*66
08/05/2019,21:44:37.751,$GPGGA,214437,4437.5837,N,12402.8842,W,2,10,00.9,22.4,M,-22.1,M,16.0,0272*64
08/05/2019,21:44:38.666,$GPGGA,214438,4437.5837,N,12402.8842,W,2,10,00.9,22.4,M,-22.1,M,14.0,0272*69
08/05/2019,21:44:39.677,$GPGGA,214439,4437.5837,N,12402.8842,W,2,10,00.9,22.4,M,-22.1,M,15.0,0272*69
08/05/2019,21:44:40.665,$GPGGA,214440,4437.5837,N,12402.8842,W,2,10,00.9,22.4,M,-22.1,M,16.0,0272*64
08/05/2019,21:44:41.751,$GPGGA,214441,4437.5837,N,12402.8842,W,2,10,00.9,22.4,M,-22.1,M,14.0,0272*67
08/05/2019,21:44:42.681,$GPGGA,214442,4437.5837,N,12402.8842,W,2,10,00.9,22.4,M,-22.1,M,15.0,0272*65
08/05/2019,21:44:43.629,$GPGGA,214443,4437.5837,N,12402.8842,W,2,10,00.9,22.4,M,-22.1,M,11.0,0272*60
08/05/2019,21:44:44.611,$GPGGA,214444,4437.5837,N,12402.8842,W,2,10,00.9,22.4,M,-22.1,M,12.0,0272*64
08/05/2019,21:44:45.802,$GPGGA,214445,4437.5837,N,12402.8842,W,2,10,00.9,22.4,M,-22.1,M,13.0,0272*64
08/05/2019,21:44:46.616,$GPGGA,214446,4437.5837,N,12402.8842,W,2,10,00.9,22.4,M,-22.1,M,11.0,0272*65
08/05/2019,21:44:47.646,$GPGGA,214447,4437.5837,N,12402.8842,W,2,10,00.9,22.4,M,-22.1,M,12.0,0272*67
08/05/2019,21:44:48.699,$GPGGA,214448,4437.5837,N,12402.8842,W,2,10,00.9,22.4,M,-22.1,M,13.0,0272*69
08/05/2019,21:44:49.708,$GPGGA,214449,4437.5837,N,12402.8842,W,2,10,00.9,22.4,M,-22.1,M,11.0,0272*6A
08/05/2019,21:44:50.617,$GPGGA,214450,4437.5837,N,12402.8842,W,2,10,00.9,22.4,M,-22.1,M,12.0,0272*61
08/05/2019,21:44:51.633,$GPGGA,214451,4437.5837,N,12402.8842,W,2,10,00.9,22.4,M,-22.1,M,13.0,0272*61
08/05/2019,21:44:52.699,$GPGGA,214452,4437.5837,N,12402.8842,W,2,10,00.9,22.4,M,-22.1,M,13.0,0272*62
08/05/2019,21:44:53.720,$GPGGA,214453,4437.5837,N,12402.8842,W,2,10,00.9,22.4,M,-22.1,M,14.0,0272*64
08/05/2019,21:44:54.616,$GPGGA,214454,4437.5837,N,12402.8842,W,2,10,00.9,22.4,M,-22.1,M,15.0,0272*62
08/05/2019,21:44:55.719,$GPGGA,214455,4437.5837,N,12402.8842,W,2,10,00.9,22.4,M,-22.1,M,13.0,0272*65
08/05/2019,21:44:56.634,$GPGGA,214456,4437.5837,N,12402.8842,W,2,10,00.9,22.4,M,-22.1,M,14.0,0272*61
08/05/2019,21:44:57.757,$GPGGA,214457,4437.5837,N,12402.8842,W,2,10,00.9,22.4,M,-22.1,M,11.0,0272*65
08/05/2019,21:44:58.664,$GPGGA,214458,4437.5837,N,12402.8842,W,2,10,00.9,22.5,M,-22.1,M,12.0,0272*68
08/05/2019,21:44:59.678,$GPGGA,214459,4437.5837,N,12402.8842,W,2,10,00.9,22.5,M,-22.1,M,11.0,0272*6A
08/05/2019,21:45:00.658,$GPGGA,214500,4437.5837,N,12402.8842,W,2,10,00.9,22.5,M,-22.1,M,12.0,0272*64
08/05/2019,21:45:01.751,$GPGGA,214501,4437.5837,N,12402.8842,W,2,10,00.9,22.5,M,-22.1,M,10.0,0272*67
08/05/2019,21:45:02.700,$GPGGA,214502,4437.5837,N,12402.8842,W,2,10,00.9,22.5,M,-22.1,M,11.0,0272*65
08/05/2019,21:45:03.629,$GPGGA,214503,4437.5837,N,12402.8842,W,2,10,00.9,22.5,M,-22.1,M,12.0,0272*67
08/05/2019,21:45:04.615,$GPGGA,214504,4437.5837,N,12402.8842,W,2,10,00.9,22.5,M,-22.1,M,12.0,0272*60
08/05/2019,21:45:05.793,$GPGGA,214505,4437.5837,N,12402.8842,W,2,10,00.9,22.5,M,-22.1,M,13.0,0272*60
08/05/2019,21:45:06.705,$GPGGA,214506,4437.5837,N,12402.8842,W,2,10,00.9,22.5,M,-22.1,M,14.0,0272*64
08/05/2019,21:45:07.631,$GPGGA,214507,4437.5837,N,12402.8841,W,2,10,00.9,22.5,M,-22.1,M,11.0,0272*63
08/05/2019,21:45:08.710,$GPGGA,214508,4437.5837,N,12402.8841,W,2,10,00.9,22.5,M,-22.1,M,12.0,0272*6F
08/05/2019,21:45:09.703,$GPGGA,214509,4437.5837,N,12402.8841,W,2,10,00.9,22.5,M,-22.1,M,13.0,0272*6F
08/05/2019,21:45:10.629,$GPGGA,214510,4437.5837,N,12402.8841,W,2,10,00.9,22.5,M,-22.1,M,12.0,0272*66
08/05/2019,21:45:11.678,$GPGGA,214511,4437.5837,N,12402.8841,W,2,10,00.9,22.5,M,-22.1,M,13.0,0272*66
08/05/2019,21:45:12.694,$GPGGA,214512,4437.5837,N,12402.8841,W,2,10,00.9,22.5,M,-22.1,M,14.0,0272*62
08/05/2019,21:45:13.702,$GPGGA,214513,4437.5837,N,12402.8841,W,2,10,00.9,22.5,M,-22.1,M,12.0,0272*65
08/05/2019,21:45:14.615,$GPGGA,214514,4437.5837,N,12402.8841,W,2,10,00.9,22.4,M,-22.1,M,13.0,0272*62
08/05/2019,21:45:15.629,$GPGGA,214515,4437.5837,N,12402.8841,W,2,10,00.9,22.4,M,-22.1,M,14.0,0272*64
08/05/2019,21:45:16.629,$GPGGA,214516,4437.5837,N,12402.8841,W,2,10,00.9,22.4,M,-22.1,M,12.0,0272*61
08/05/2019,21:45:17.713,$GPGGA,214517,4437.5837,N,12402.8841,W,2,10,00.9,22.4,M,-22.1,M,13.0,0272*61
08/05/2019,21:45:18.703,$GPGGA,214518,4437.5837,N,12402.8841,W,2,10,00.9,22.4,M,-22.1,M,14.0,0272*69
08/05/2019,21:45:19.646,$GPGGA,214519,4437.5837,N,12402.8841,W,2,10,00.9,22.4,M,-22.1,M,12.0,0272*6E
08/05/2019,21:45:20.601,$GPGGA,214520,4437.5837,N,12402.8841,W,2,10,00.9,22.5,M,-22.1,M,13.0,0272*64
08/05/2019,21:45:21.793,$GPGGA,214521,4437.5837,N,12402.8841,W,2,10,00.9,22.4,M,-22.1,M,14.0,0272*63
08/05/2019,21:45:22.648,$GPGGA,214522,4437.5837,N,12402.8841,W,2,10,00.9,22.4,M,-22.1,M,12.0,0272*66
08/05/2019,21:45:23.692,$GPGGA,214523,4437.5837,N,12402.8841,W,2,10,00.9,22.4,M,-22.1,M,13.0,0272*66
08/05/2019,21:45:24.663,$GPGGA,214524,4437.5837,N,12402.8842,W,2,10,00.9,22.4,M,-22.1,M,14.0,0272*65
08/05/2019,21:45:25.749,$GPGGA,214525,4437.5837,N,12402.8842,W,2,10,00.9,22.4,M,-22.1,M,12.0,0272*62
08/05/2019,21:45:26.722,$GPGGA,214526,4437.5837,N,12402.8842,W,2,10,00.9,22.4,M,-22.1,M,13.0,0272*60
08/05/2019,21:45:27.643,$GPGGA,214527,4437.5837,N,12402.8842,W,2,10,00.9,22.4,M,-22.1,M,14.0,0272*66
08/05/2019,21:45:28.711,$GPGGA,214528,4437.5837,N,12402.8842,W,2,10,00.9,22.4,M,-22.1,M,13.0,0272*6E
08/05/2019,21:45:29.711,$GPGGA,214529,4437.5837,N,12402.8842,W,2,10,00.9,22.4,M,-22.1,M,14.0,0272*68
08/05/2019,21:45:30.619,$GPGGA,214530,4437.5837,N,12402.8842,W,2,10,00.9,22.4,M,-22.1,M,12.0,0272*66
08/05/2019,21:45:31.721,$GPGGA,214531,4437.5837,N,12402.8842,W,2,10,00.9,22.4,M,-22.1,M,13.0,0272*66
08/05/2019,21:45:32.657,$GPGGA,214532,4437.5837,N,12402.8842,W,2,10,00.9,22.4,M,-22.1,M,11.0,0272*67
08/05/2019,21:45:33.760,$GPGGA,214533,4437.5837,N,12402.8842,W,2,10,00.9,22.4,M,-22.1,M,12.0,0272*65
08/05/2019,21:45:34.630,$GPGGA,214534,4437.5837,N,12402.8842,W,2,10,00.9,22.4,M,-22.1,M,10.0,0272*60
08/05/2019,21:45:35.651,$GPGGA,214535,4437.5837,N,12402.8842,W,2,10,00.9,22.4,M,-22.1,M,11.0,0272*60
08/05/2019,21:45:36.612,$GPGGA,214536,4437.5837,N,12402.8842,W,2,10,00.9,22.4,M,-22.1,M,12.0,0272*60
08/05/2019,21:45:37.718,$GPGGA,214537,4437.5837,N,12402.8842,W,2,10,00.9,22.4,M,-22.1,M,13.0,0272*60
08/05/2019,21:45:38.618,$GPGGA,214538,4437.5837,N,12402.8842,W,2,10,00.9,22.4,M,-22.1,M,14.0,0272*68
08/05/2019,21:45:39.643,$GPGGA,214539,4437.5837,N,12402.8842,W,2,10,00.9,22.4,M,-22.1,M,11.0,0272*6C
08/05/2019,21:45:40.611,$GPGGA,214540,4437.5837,N,12402.8842,W,2,10,00.9,22.4,M,-22.1,M,12.0,0272*61
08/05/2019,21:45:41.706,$GPGGA,214541,4437.5837,N,12402.8842,W,2,09,00.9,22.4,M,-22.1,M,13.0,0272*69
08/05/2019,21:45:42.619,$GPGGA,214542,4437.5837,N,12402.8842,W,2,09,00.9,22.4,M,-22.1,M,13.0,0272*6A
08/05/2019,21:45:43.698,$GPGGA,214543,4437.5837,N,12402.8842,W,2,09,00.9,22.4,M,-22.1,M,14.0,0272*6C
08/05/2019,21:45:44.706,$GPGGA,214544,4437.5837,N,12402.8842,W,2,09,00.9,22.4,M,-22.1,M,15.0,0272*6A
08/05/2019,21:45:45.722,$GPGGA,214545,4437.5837,N,12402.8842,W,2,09,00.9,22.4,M,-22.1,M,12.0,0272*6C
08/05/2019,21:45:46.620,$GPGGA,214546,4437.5837,N,12402.8843,W,2,09,00.9,22.4,M,-22.1,M,13.0,0272*6F
08/05/2019,21:45:47.720,$GPGGA,214547,4437.5838,N,12402.8843,W,2,09,00.9,22.4,M,-22.1,M,14.0,0272*66
08/05/2019,21:45:48.666,$GPGGA,214548,4437.5838,N,12402.8843,W,2,09,00.9,22.4,M,-22.1,M,10.0,0272*6D
08/05/2019,21:45:49.753,$GPGGA,214549,4437.5838,N,12402.8843,W,2,09,00.9,22.4,M,-22.1,M,11.0,0272*6D
08/05/2019,21:45:50.687,$GPGGA,214550,4437.5838,N,12402.8843,W,2,09,00.9,22.4,M,-22.1,M,12.0,0272*66
08/05/2019,21:45:51.630,$GPGGA,214551,4437.5838,N,12402.8843,W,2,09,00.9,22.4,M,-22.1,M,13.0,0272*66
08/05/2019,21:45:52.649,$GPGGA,214552,4437.5838,N,12402.8843,W,2,09,00.9,22.4,M,-22.1,M,14.0,0272*62
08/05/2019,21:45:53.752,$GPGGA,214553,4437.5838,N,12402.8843,W,2,09,00.9,22.4,M,-22.1,M,15.0,0272*62
08/05/2019,21:45:54.682,$GPGGA,214554,4437.5838,N,12402.8843,W,2,09,00.9,22.4,M,-22.1,M,12.0,0272*62
08/05/2019,21:45:55.631,$GPGGA,214555,4437.5838,N,12402.8843,W,2,09,00.9,22.4,M,-22.1,M,13.0,0272*62
08/05/2019,21:45:56.617,$GPGGA,214556,4437.5838,N,12402.8843,W,2,09,00.9,22.4,M,-22.1,M,14.0,0272*66
08/05/2019,21:45:57.758,$GPGGA,214557,4437.5838,N,12402.8843,W,2,09,00.9,22.4,M,-22.1,M,13.0,0272*60
08/05/2019,21:45:58.715,$GPGGA,214558,4437.5838,N,12402.8843,W,2,09,00.9,22.4,M,-22.1,M,14.0,0272*68
08/05/2019,21:45:59.631,$GPGGA,214559,4437.5838,N,12402.8843,W,2,09,00.9,22.3,M,-22.1,M,11.0,0272*6B
08/05/2019,21:46:00.712,$GPGGA,214600,4437.5838,N,12402.8843,W,2,09,00.9,22.3,M,-22.1,M,12.0,0272*67
08/05/2019,21:46:01.704,$GPGGA,214601,4437.5837,N,12402.8843,W,2,09,00.9,22.3,M,-22.1,M,10.0,0272*6B
08/05/2019,21:46:02.642,$GPGGA,214602,4437.5837,N,12402.8843,W,2,09,00.9,22.3,M,-22.1,M,11.0,0272*69
08/05/2019,21:46:03.680,$GPGGA,214603,4437.5837,N,12402.8843,W,2,09,00.9,22.3,M,-22.1,M,12.0,0272*6B
08/05/2019,21:46:04.662,$GPGGA,214604,4437.5837,N,12402.8843,W,2,09,00.9,22.3,M,-22.1,M,11.0,0272*6F
08/05/2019,21:46:05.753,$GPGGA,214605,4437.5838,N,12402.8843,W,2,09,00.9,22.2,M,-22.1,M,12.0,0272*63
08/05/2019,21:46:06.699,$GPGGA,214606,4437.5838,N,12402.8844,W,2,10,00.9,22.2,M,-22.1,M,13.0,0272*6E
08/05/2019,21:46:07.721,$GPGGA,214607,4437.5838,N,12402.8844,W,2,10,00.9,22.2,M,-22.1,M,13.0,0272*6F
08/05/2019,21:46:08.635,$GPGGA,214608,4437.5838,N,12402.8844,W,2,10,00.9,22.2,M,-22.1,M,14.0,0272*67
08/05/2019,21:46:09.694,$GPGGA,214609,4437.5838,N,12402.8844,W,2,10,00.9,22.2,M,-22.1,M,11.0,0272*63
08/05/2019,21:46:10.666,$GPGGA,214610,4437.5838,N,12402.8844,W,2,10,00.9,22.2,M,-22.1,M,12.0,0272*68
08/05/2019,21:46:11.632,$GPGGA,214611,4437.5838,N,12402.8844,W,2,10,00.9,22.2,M,-22.1,M,11.0,0272*6A
08/05/2019,21:46:12.629,$GPGGA,214612,4437.5838,N,12402.8844,W,2,10,00.9,22.2,M,-22.1,M,12.0,0272*6A
08/05/2019,21:46:13.761,$GPGGA,214613,4437.5838,N,12402.8844,W,2,10,00.9,22.2,M,-22.1,M,13.0,0272*6A
08/05/2019,21:46:14.666,$GPGGA,214614,4437.5838,N,12402.8844,W,2,10,00.9,22.2,M,-22.1,M,11.0,0272*6F
08/05/2019,21:46:15.688,$GPGGA,214615,4437.5838,N,12402.8845,W,2,10,00.9,22.2,M,-22.1,M,12.0,0272*6C
08/05/2019,21:46:16.660,$GPGGA,214616,4437.5838,N,12402.8845,W,2,10,00.9,22.2,M,-22.1,M,12.0,0272*6F
08/05/2019,21:46:17.754,$GPGGA,214617,4437.5838,N,12402.8845,W,2,10,00.9,22.2,M,-22.1,M,13.0,0272*6F
08/05/2019,21:46:18.668,$GPGGA,214618,4437.5838,N,12402.8845,W,2,10,00.9,22.2,M,-22.1,M,14.0,0272*67
08/05/2019,21:46:19.687,$GPGGA,214619,4437.5838,N,12402.8845,W,2,10,00.9,22.2,M,-22.1,M,11.0,0272*63
08/05/2019,21:46:20.659,$GPGGA,214620,4437.5838,N,12402.8845,W,2,10,00.9,22.2,M,-22.1,M,12.0,0272*6A
08/05/2019,21:46:21.753,$GPGGA,214621,4437.5838,N,12402.8845,W,2,10,00.9,22.2,M,-22.1,M,10.0,0272*69
08/05/2019,21:46:22.669,$GPGGA,214622,4437.5838,N,12402.8845,W,2,10,00.9,22.2,M,-22.1,M,11.0,0272*6B
08/05/2019,21:46:23.729,$GPGGA,214623,4437.5838,N,12402.8845,W,2,10,00.9,22.3,M,-22.1,M,12.0,0272*68
08/05/2019,21:46:24.712,$GPGGA,214624,4437.5838,N,12402.8845,W,2,10,00.9,22.3,M,-22.1,M,13.0,0272*6E
08/05/2019,21:46:25.734,$GPGGA,214625,4437.5838,N,12402.8846,W,2,10,00.9,22.2,M,-22.1,M,14.0,0272*6A
08/05/2019,21:46:26.622,$GPGGA,214626,4437.5838,N,12402.8846,W,2,10,00.9,22.2,M,-22.1,M,15.0,0272*68
08/05/2019,21:46:27.688,$GPGGA,214627,4437.5838,N,12402.8846,W,2,10,00.9,22.2,M,-22.1,M,12.0,0272*6E
08/05/2019,21:46:28.678,$GPGGA,214628,4437.5838,N,12402.8846,W,2,10,00.9,22.2,M,-22.1,M,13.0,0272*60
08/05/2019,21:46:29.754,$GPGGA,214629,4437.5838,N,12402.8846,W,2,10,00.9,22.2,M,-22.1,M,14.0,0272*66
08/05/2019,21:46:30.670,$GPGGA,214630,4437.5838,N,12402.8846,W,2,10,00.9,22.2,M,-22.1,M,13.0,0272*69
08/05/2019,21:46:31.632,$GPGGA,214631,4437.5838,N,12402.8846,W,2,10,00.9,22.3,M,-22.1,M,14.0,0272*6E
08/05/2019,21:46:32.630,$GPGGA,214632,4437.5838,N,12402.8846,W,2,10,00.9,22.3,M,-22.1,M,15.0,0272*6C
08/05/2019,21:46:33.795,$GPGGA,214633,4437.5838,N,12402.8846,W,2,10,00.9,22.3,M,-22.1,M,16.0,0272*6E
08/05/2019,21:46:34.622,$GPGGA,214634,4437.5838,N,12402.8846,W,2,10,00.9,22.3,M,-22.1,M,17.0,0272*68
08/05/2019,21:46:35.653,$GPGGA,214635,4437.5838,N,12402.8846,W,2,10,00.9,22.2,M,-22.1,M,18.0,0272*67
08/05/2019,21:46:36.706,$GPGGA,214636,4437.5838,N,12402.8846,W,2,10,00.9,22.2,M,-22.1,M,16.0,0272*6A
08/05/2019,21:46:37.751,$GPGGA,214637,4437.5838,N,12402.8846,W,2,10,00.9,22.2,M,-22.1,M,17.0,0272*6A
08/05/2019,21:46:38.629,$GPGGA,214638,4437.5838,N,12402.8846,W,2,10,00.9,22.2,M,-22.1,M,18.0,0272*6A
08/05/2019,21:46:39.693,$GPGGA,214639,4437.5838,N,12402.8846,W,2,10,00.9,22.2,M,-22.1,M,16.0,0272*65
08/05/2019,21:46:40.661,$GPGGA,214640,4437.5838,N,12402.8846,W,2,10,00.9,22.2,M,-22.1,M,17.0,0272*6A
08/05/2019,21:46:41.761,$GPGGA,214641,4437.5838,N,12402.8846,W,2,10,00.9,22.2,M,-22.1,M,18.0,0272*64
08/05/2019,21:46:42.663,$GPGGA,214642,4437.5838,N,12402.8845,W,2,10,00.9,22.2,M,-22.1,M,16.0,0272*6A
08/05/2019,21:46:43.680,$GPGGA,214643,4437.5838,N,12402.8845,W,2,10,00.9,22.2,M,-22.1,M,17.0,0272*6A
08/05/2019,21:46:44.620,$GPGGA,214644,4437.5838,N,12402.8845,W,2,10,00.9,22.2,M,-22.1,M,12.0,0272*68
08/05/2019,21:46:45.754,$GPGGA,214645,4437.5838,N,12402.8845,W,2,10,00.9,22.2,M,-22.1,M,13.0,0272*68
08/05/2019,21:46:46.665,$GPGGA,214646,4437.5838,N,12402.8845,W,2,10,00.9,22.2,M,-22.1,M,10.0,0272*68
08/05/2019,21:46:47.681,$GPGGA,214647,4437.5838,N,12402.8845,W,2,10,00.9,22.2,M,-22.1,M,11.0,0272*68
08/05/2019,21:46:48.680,$GPGGA,214648,4437.5838,N,12402.8845,W,2,10,00.9,22.2,M,-22.1,M,12.0,0272*64
08/05/2019,21:46:49.704,$GPGGA,214649,4437.5838,N,12402.8844,W,2,10,00.9,22.2,M,-22.1,M,11.0,0272*67
08/05/2019,21:46:50.619,$GPGGA,214650,4437.5838,N,12402.8844,W,2,10,00.9,22.2,M,-22.1,M,12.0,0272*6C
08/05/2019,21:46:51.633,$GPGGA,214651,4437.5838,N,12402.8844,W,2,10,00.9,22.2,M,-22.1,M,13.0,0272*6C
08/05/2019,21:46:52.632,$GPGGA,214652,4437.5838,N,12402.8844,W,2,10,00.9,22.2,M,-22.1,M,13.0,0272*6F
08/05/2019,21:46:53.754,$GPGGA,214653,4437.5838,N,12402.8844,W,2,10,00.9,22.2,M,-22.1,M,14.0,0272*69
08/05/2019,21:46:54.670,$GPGGA,214654,4437.5838,N,12402.8844,W,2,10,00.9,22.2,M,-22.1,M,12.0,0272*68
08/05/2019,21:46:55.647,$GPGGA,214655,4437.5838,N,12402.8844,W,2,10,00.9,22.3,M,-22.1,M,13.0,0272*69
08/05/2019,21:46:56.703,$GPGGA,214656,4437.5838,N,12402.8844,W,2,10,00.9,22.2,M,-22.1,M,10.0,0272*68
08/05/2019,21:46:57.753,$GPGGA,214657,4437.5838,N,12402.8844,W,2,10,00.9,22.2,M,-22.1,M,11.0,0272*68
08/05/2019,21:46:58.704,$GPGGA,214658,4437.5838,N,12402.8844,W,2,10,00.9,22.3,M,-22.1,M,12.0,0272*65
08/05/2019,21:46:59.633,$GPGGA,214659,4437.5838,N,12402.8844,W,2,10,00.9,22.3,M,-22.1,M,11.0,0272*67
08/05/2019,21:47:00.624,$GPGGA,214700,4437.5838,N,12402.8844,W,2,10,00.9,22.3,M,-22.1,M,12.0,0272*69
08/05/2019,21:47:01.755,$GPGGA,214701,4437.5839,N,12402.8844,W,2,10,00.9,22.3,M,-22.1,M,13.0,0272*68
08/05/2019,21:47:02.658,$GPGGA,214702,4437.5838,N,12402.8844,W,2,10,00.9,22.3,M,-22.1,M,13.0,0272*6A
08/05/2019,21:47:03.694,$GPGGA,214703,4437.5838,N,12402.8844,W,2,10,00.9,22.3,M,-22.1,M,14.0,0272*6C
08/05/2019,21:47:04.662,$GPGGA,214704,4437.5838,N,12402.8844,W,2,10,00.9,22.3,M,-22.1,M,15.0,0272*6A
08/05/2019,21:47:05.755,$GPGGA,214705,4437.5838,N,12402.8843,W,2,10,00.9,22.2,M,-22.1,M,12.0,0272*6A
08/05/2019,21:47:06.671,$GPGGA,214706,4437.5838,N,12402.8843,W,2,10,00.9,22.2,M,-22.1,M,13.0,0272*68
08/05/2019,21:47:07.682,$GPGGA,214707,4437.5838,N,12402.8843,W,2,10,00.9,22.2,M,-22.1,M,14.0,0272*6E
08/05/2019,21:47:08.663,$GPGGA,214708,4437.5838,N,12402.8843,W,2,10,00.9,22.2,M,-22.1,M,12.0,0272*67
08/05/2019,21:47:09.756,$GPGGA,214709,4437.5839,N,12402.8843,W,2,10,00.9,22.2,M,-22.1,M,13.0,0272*66
08/05/2019,21:47:10.671,$GPGGA,214710,4437.5839,N,12402.8843,W,2,10,00.9,22.3,M,-22.1,M,14.0,0272*68
08/05/2019,21:47:11.699,$GPGGA,214711,4437.5839,N,12402.8843,W,2,10,00.9,22.3,M,-22.1,M,12.0,0272*6F
08/05/2019,21:47:12.679,$GPGGA,214712,4437.5839,N,12402.8843,W,2,10,00.9,22.3,M,-22.1,M,13.0,0272*6D
08/05/2019,21:47:13.761,$GPGGA,214713,4437.5839,N,12402.8843,W,2,10,00.9,22.3,M,-22.1,M,11.0,0272*6E
08/05/2019,21:47:14.673,$GPGGA,214714,4437.5839,N,12402.8843,W,2,10,00.9,22.3,M,-22.1,M,12.0,0272*6A
08/05/2019,21:47:15.687,$GPGGA,214715,4437.5839,N,12402.8843,W,2,10,00.9,22.3,M,-22.1,M,13.0,0272*6A
08/05/2019,21:47:16.663,$GPGGA,214716,4437.5839,N,12402.8843,W,2,10,00.9,22.3,M,-22.1,M,11.0,0272*6B
08/05/2019,21:47:17.792,$GPGGA,214717,4437.5839,N,12402.8843,W,2,10,00.9,22.4,M,-22.1,M,12.0,0272*6E
08/05/2019,21:47:18.622,$GPGGA,214718,4437.5839,N,12402.8842,W,2,10,00.9,22.4,M,-22.1,M,10.0,0272*62
08/05/2019,21:47:19.734,$GPGGA,214719,4437.5839,N,12402.8842,W,2,10,00.9,22.4,M,-22.1,M,11.0,0272*62
08/05/2019,21:47:20.613,$GPGGA,214720,4437.5839,N,12402.8842,W,2,10,00.9,22.5,M,-22.1,M,12.0,0272*6A
08/05/2019,21:47:21.721,$GPGGA,214721,4437.5839,N,12402.8842,W,2,10,00.9,22.5,M,-22.1,M,13.0,0272*6A
08/05/2019,21:47:22.662,$GPGGA,214722,4437.5839,N,12402.8842,W,2,10,00.9,22.5,M,-22.1,M,10.0,0272*6A
08/05/2019,21:47:23.686,$GPGGA,214723,4437.5839,N,12402.8841,W,2,10,00.9,22.5,M,-22.1,M,11.0,0272*69
08/05/2019,21:47:24.680,$GPGGA,214724,4437.5839,N,12402.8841,W,2,10,00.9,22.5,M,-22.1,M,12.0,0272*6D
08/05/2019,21:47:25.706,$GPGGA,214725,4437.5839,N,12402.8841,W,2,10,00.9,22.6,M,-22.1,M,13.0,0272*6E
08/05/2019,21:47:26.623,$GPGGA,214726,4437.5839,N,12402.8841,W,2,10,00.9,22.6,M,-22.1,M,14.0,0272*6A
08/05/2019,21:47:27.651,$GPGGA,214727,4437.5839,N,12402.8841,W,2,09,00.9,22.6,M,-22.1,M,15.0,0272*62
08/05/2019,21:47:28.614,$GPGGA,214728,4437.5839,N,12402.8840,W,2,09,00.9,22.6,M,-22.1,M,12.0,0272*6B
08/05/2019,21:47:29.706,$GPGGA,214729,4437.5839,N,12402.8840,W,2,09,00.9,22.7,M,-22.1,M,13.0,0272*6A
08/05/2019,21:47:30.648,$GPGGA,214730,4437.5839,N,12402.8840,W,2,09,00.9,22.7,M,-22.1,M,14.0,0272*65
08/05/2019,21:47:31.674,$GPGGA,214731,4437.5839,N,12402.8840,W,2,09,00.9,22.7,M,-22.1,M,10.0,0272*60
08/05/2019,21:47:32.687,$GPGGA,214732,4437.5839,N,12402.8840,W,2,09,00.9,22.8,M,-22.1,M,11.0,0272*6D
08/05/2019,21:47:33.771,$GPGGA,214733,4437.5839,N,12402.8839,W,2,09,00.9,22.8,M,-22.1,M,12.0,0272*61
08/05/2019,21:47:34.624,$GPGGA,214734,4437.5839,N,12402.8839,W,2,09,00.9,22.8,M,-22.1,M,13.0,0272*67
08/05/2019,21:47:35.737,$GPGGA,214735,4437.5839,N,12402.8839,W,2,09,00.9,22.8,M,-22.1,M,14.0,0272*61
08/05/2019,21:47:36.617,$GPGGA,214736,4437.5839,N,12402.8839,W,2,09,00.9,22.8,M,-22.1,M,15.0,0272*63
08/05/2019,21:47:37.766,$GPGGA,214737,4437.5839,N,12402.8839,W,2,09,00.9,22.9,M,-22.1,M,13.0,0272*65
08/05/2019,21:47:38.672,$GPGGA,214738,4437.5839,N,12402.8839,W,2,10,00.9,22.9,M,-22.1,M,14.0,0272*65
08/05/2019,21:47:39.687,$GPGGA,214739,4437.5839,N,12402.8840,W,2,10,00.9,22.9,M,-22.1,M,15.0,0272*6B
08/05/2019,21:47:40.667,$GPGGA,214740,4437.5839,N,12402.8840,W,2,10,00.9,22.9,M,-22.1,M,13.0,0272*63
08/05/2019,21:47:41.759,$GPGGA,214741,4437.5840,N,12402.8840,W,2,10,00.9,22.9,M,-22.1,M,14.0,0272*6B
08/05/2019,21:47:42.685,$GPGGA,214742,4437.5840,N,12402.8840,W,2,10,00.9,22.9,M,-22.1,M,15.0,0272*69
08/05/2019,21:47:43.637,$GPGGA,214743,4437.5840,N,12402.8840,W,2,10,00.9,23.0,M,-22.1,M,13.0,0272*66
08/05/2019,21:47:44.630,$GPGGA,214744,4437.5840,N,12402.8840,W,2,09,00.9,22.9,M,-22.1,M,14.0,0272*66
08/05/2019,21:47:45.802,$GPGGA,214745,4437.5840,N,12402.8841,W,2,09,00.9,22.9,M,-22.1,M,15.0,0272*67
08/05/2019,21:47:46.662,$GPGGA,214746,4437.5840,N,12402.8841,W,2,09,00.9,22.9,M,-22.1,M,13.0,0272*62
08/05/2019,21:47:47.680,$GPGGA,214747,4437.5840,N,12402.8841,W,2,09,00.9,22.9,M,-22.1,M,14.0,0272*64
08/05/2019,21:47:48.667,$GPGGA,214748,4437.5840,N,12402.8841,W,2,09,00.9,22.8,M,-22.1,M,15.0,0272*6B
08/05/2019,21:47:49.711,$GPGGA,214749,4437.5840,N,12402.8842,W,2,09,00.9,22.8,M,-22.1,M,13.0,0272*6F
08/05/2019,21:47:50.645,$GPGGA,214750,4437.5840,N,12402.8842,W,2,09,00.9,22.8,M,-22.1,M,14.0,0272*60
08/05/2019,21:47:51.687,$GPGGA,214751,4437.5841,N,12402.8842,W,2,09,00.9,22.7,M,-22.1,M,15.0,0272*6E
08/05/2019,21:47:52.679,$GPGGA,214752,4437.5841,N,12402.8842,W,2,09,00.9,22.7,M,-22.1,M,13.0,0272*6B
08/05/2019,21:47:53.711,$GPGGA,214753,4437.5841,N,12402.8842,W,2,09,00.9,22.6,M,-22.1,M,14.0,0272*6C
08/05/2019,21:47:54.636,$GPGGA,214754,4437.5841,N,12402.8842,W,2,09,00.9,22.6,M,-22.1,M,15.0,0272*6A
08/05/2019,21:47:55.680,$GPGGA,214755,4437.5841,N,12402.8843,W,2,09,00.9,22.6,M,-22.1,M,13.0,0272*6C
08/05/2019,21:47:56.676,$GPGGA,214756,4437.5841,N,12402.8843,W,2,10,00.9,22.5,M,-22.1,M,14.0,0272*63
08/05/2019,21:47:57.727,$GPGGA,214757,4437.5840,N,12402.8843,W,2,10,00.9,22.5,M,-22.1,M,15.0,0272*62
08/05/2019,21:47:58.758,$GPGGA,214758,4437.5840,N,12402.8843,W,2,10,00.9,22.5,M,-22.1,M,13.0,0272*6B
08/05/2019,21:47:59.638,$GPGGA,214759,4437.5840,N,12402.8843,W,2,10,00.9,22.5,M,-22.1,M,14.0,0272*6D
08/05/2019,21:48:00.637,$GPGGA,214800,4437.5840,N,12402.8843,W,2,10,00.9,22.5,M,-22.1,M,15.0,0272*6F
08/05/2019,21:48:01.759,$GPGGA,214801,4437.5840,N,12402.8843,W,2,09,00.9,22.4,M,-22.1,M,13.0,0272*61
08/05/2019,21:48:02.696,$GPGGA,214802,4437.5840,N,12402.8843,W,2,09,00.9,22.4,M,-22.1,M,14.0,0272*65
08/05/2019,21:48:03.639,$GPGGA,214803,4437.5840,N,12402.8843,W,2,09,00.9,22.4,M,-22.1,M,15.0,0272*65
08/05/2019,21:48:04.620,$GPGGA,214804,4437.5840,N,12402.8843,W,2,09,00.9,22.4,M,-22.1,M,13.0,0272*64
08/05/2019,21:48:05.710,$GPGGA,214805,4437.5840,N,12402.8842,W,2,09,00.9,22.4,M,-22.1,M,14.0,0272*63
08/05/2019,21:48:06.637,$GPGGA,214806,4437.5839,N,12402.8842,W,2,09,00.9,22.3,M,-22.1,M,15.0,0272*68
08/05/2019,21:48:07.646,$GPGGA,214807,4437.5839,N,12402.8842,W,2,08,01.1,22.3,M,-22.1,M,10.0,0272*64
08/05/2019,21:48:08.711,$GPGGA,214808,4437.5839,N,12402.8842,W,2,08,01.1,22.3,M,-22.1,M,11.0,0272*6A
08/05/2019,21:48:09.727,$GPGGA,214809,4437.5839,N,12402.8842,W,2,08,01.1,22.3,M,-22.1,M,12.0,0272*68
08/05/2019,21:48:10.612,$GPGGA,214810,4437.5838,N,12402.8842,W,2,08,01.1,22.3,M,-22.1,M,13.0,0272*60
08/05/2019,21:48:11.635,$GPGGA,214811,4437.5838,N,12402.8842,W,2,08,01.1,22.3,M,-22.1,M,14.0,0272*66
08/05/2019,21:48:12.635,$GPGGA,214812,4437.5838,N,12402.8842,W,2,08,01.1,22.3,M,-22.1,M,15.0,0272*64
08/05/2019,21:48:13.712,$GPGGA,214813,4437.5838,N,12402.8842,W,2,08,01.1,22.3,M,-22.1,M,13.0,0272*63
08/05/2019,21:48:14.650,$GPGGA,214814,4437.5837,N,12402.8842,W,2,09,00.9,22.3,M,-22.1,M,14.0,0272*64
