07/01/2019,18:55:56.640,$GPGGA,185556,3747.2007,N,12223.0588,W,2,07,01.5,19.6,M,-28.0,M,05.0,0211*6D
07/01/2019,18:55:57.760,$GPGGA,185557,3747.2007,N,12223.0588,W,2,07,01.5,19.6,M,-28.0,M,05.0,0211*6C
07/01/2019,18:55:58.683,$GPGGA,185558,3747.2007,N,12223.0589,W,2,07,01.5,19.6,M,-28.0,M,05.0,0211*62
07/01/2019,18:55:59.658,$GPGGA,185559,3747.2007,N,12223.0588,W,2,07,01.5,19.6,M,-28.0,M,06.0,0211*61
07/01/2019,18:56:00.627,$GPGGA,185600,3747.2007,N,12223.0588,W,2,07,01.5,19.6,M,-28.0,M,06.0,0211*6E
07/01/2019,18:56:01.730,$GPGGA,185601,3747.2007,N,12223.0589,W,2,07,01.5,19.6,M,-28.0,M,05.0,0211*6D
07/01/2019,18:56:02.646,$GPGGA,185602,3747.2007,N,12223.0589,W,2,07,01.5,19.6,M,-28.0,M,05.0,0211*6E
07/01/2019,18:56:03.699,$GPGGA,185603,3747.2007,N,12223.0589,W,2,07,01.5,19.6,M,-28.0,M,04.0,0211*6E
07/01/2019,18:56:04.628,$GPGGA,185604,3747.2007,N,12223.0589,W,2,07,01.5,19.6,M,-28.0,M,04.0,0211*69
07/01/2019,18:56:05.721,$GPGGA,185605,3747.2007,N,12223.0589,W,2,07,01.5,19.6,M,-28.0,M,05.0,0211*69
07/01/2019,18:56:06.648,$GPGGA,185606,3747.2008,N,12223.0588,W,2,07,01.5,19.7,M,-28.0,M,06.0,0211*66
07/01/2019,18:56:07.663,$GPGGA,185607,3747.2008,N,12223.0588,W,2,07,01.5,19.7,M,-28.0,M,05.0,0211*64
07/01/2019,18:56:08.628,$GPGGA,185608,3747.2008,N,12223.0589,W,2,07,01.5,19.7,M,-28.0,M,06.0,0211*69
07/01/2019,18:56:09.731,$GPGGA,185609,3747.2008,N,12223.0589,W,2,07,01.5,19.7,M,-28.0,M,06.0,0211*68
07/01/2019,18:56:10.646,$GPGGA,185610,3747.2008,N,12223.0589,W,2,07,01.5,19.7,M,-28.0,M,05.0,0211*63
07/01/2019,18:56:11.698,$GPGGA,185611,3747.2008,N,12223.0589,W,2,07,01.5,19.7,M,-28.0,M,05.0,0211*62
07/01/2019,18:56:12.699,$GPGGA,185612,3747.2008,N,12223.0589,W,2,07,01.5,19.7,M,-28.0,M,06.0,0211*62
07/01/2019,18:56:13.731,$GPGGA,185613,3747.2008,N,12223.0589,W,2,07,01.5,19.7,M,-28.0,M,05.0,0211*60
07/01/2019,18:56:14.631,$GPGGA,185614,3747.2008,N,12223.0589,W,2,07,01.5,19.7,M,-28.0,M,05.0,0211*67
07/01/2019,18:56:15.648,$GPGGA,185615,3747.2008,N,12223.0589,W,2,07,01.5,19.7,M,-28.0,M,06.0,0211*65
07/01/2019,18:56:16.638,$GPGGA,185616,3747.2008,N,12223.0589,W,2,07,01.5,19.7,M,-28.0,M,05.0,0211*65
07/01/2019,18:56:17.736,$GPGGA,185617,3747.2008,N,12223.0589,W,2,07,01.5,19.7,M,-28.0,M,05.0,0211*64
07/01/2019,18:56:18.632,$GPGGA,185618,3747.2008,N,12223.0589,W,2,07,01.5,19.7,M,-28.0,M,04.0,0211*6A
07/01/2019,18:56:19.658,$GPGGA,185619,3747.2008,N,12223.0589,W,2,07,01.5,19.7,M,-28.0,M,05.0,0211*6A
07/01/2019,18:56:20.635,$GPGGA,185620,3747.2008,N,12223.0589,W,2,07,01.5,19.7,M,-28.0,M,05.0,0211*60
07/01/2019,18:56:21.721,$GPGGA,185621,3747.2008,N,12223.0589,W,2,07,01.5,19.7,M,-28.0,M,05.0,0211*61
07/01/2019,18:56:22.642,$GPGGA,185622,3747.2008,N,12223.0589,W,2,07,01.5,19.7,M,-28.0,M,04.0,0211*63
07/01/2019,18:56:23.658,$GPGGA,185623,3747.2008,N,12223.0589,W,2,07,01.5,19.7,M,-28.0,M,05.0,0211*63
07/01/2019,18:56:24.628,$GPGGA,185624,3747.2008,N,12223.0589,W,2,07,01.5,19.7,M,-28.0,M,06.0,0211*67
07/01/2019,18:56:25.731,$GPGGA,185625,3747.2008,N,12223.0589,W,2,07,01.5,19.8,M,-28.0,M,05.0,0211*6A
07/01/2019,18:56:26.650,$GPGGA,185626,3747.2008,N,12223.0589,W,2,07,01.5,19.8,M,-28.0,M,05.0,0211*69
07/01/2019,18:56:27.663,$GPGGA,185627,3747.2008,N,12223.0589,W,2,07,01.5,19.8,M,-28.0,M,06.0,0211*6B
07/01/2019,18:56:28.639,$GPGGA,185628,3747.2008,N,12223.0589,W,2,07,01.5,19.8,M,-28.0,M,06.0,0211*64
07/01/2019,18:56:29.749,$GPGGA,185629,3747.2008,N,12223.0589,W,2,07,01.5,19.8,M,-28.0,M,07.0,0211*64
07/01/2019,18:56:30.633,$GPGGA,185630,3747.2008,N,12223.0589,W,2,07,01.5,19.8,M,-28.0,M,08.0,0211*63
07/01/2019,18:56:31.701,$GPGGA,185631,3747.2008,N,12223.0589,W,2,07,01.5,19.8,M,-28.0,M,07.0,0211*6D
07/01/2019,18:56:32.654,$GPGGA,185632,3747.2008,N,12223.0589,W,2,07,01.5,19.8,M,-28.0,M,07.0,0211*6E
07/01/2019,18:56:33.722,$GPGGA,185633,3747.2008,N,12223.0589,W,2,07,01.5,19.8,M,-28.0,M,08.0,0211*60
07/01/2019,18:56:34.648,$GPGGA,185634,3747.2008,N,12223.0589,W,2,07,01.5,19.8,M,-28.0,M,05.0,0211*6A
07/01/2019,18:56:35.659,$GPGGA,185635,3747.2008,N,12223.0589,W,2,07,01.5,19.8,M,-28.0,M,05.0,0211*6B
07/01/2019,18:56:36.628,$GPGGA,185636,3747.2008,N,12223.0589,W,2,07,01.5,19.8,M,-28.0,M,06.0,0211*6B
07/01/2019,18:56:37.737,$GPGGA,185637,3747.2008,N,12223.0589,W,2,07,01.5,19.8,M,-28.0,M,05.0,0211*69
07/01/2019,18:56:38.650,$GPGGA,185638,3747.2008,N,12223.0589,W,2,07,01.5,19.8,M,-28.0,M,05.0,0211*66
07/01/2019,18:56:39.700,$GPGGA,185639,3747.2008,N,12223.0589,W,2,07,01.5,19.8,M,-28.0,M,06.0,0211*64
07/01/2019,18:56:40.710,$GPGGA,185640,3747.2008,N,12223.0589,W,2,07,01.5,19.8,M,-28.0,M,05.0,0211*69
07/01/2019,18:56:41.778,$GPGGA,185641,3747.2008,N,12223.0589,W,2,07,01.5,19.8,M,-28.0,M,05.0,0211*68
07/01/2019,18:56:42.684,$GPGGA,185642,3747.2008,N,12223.0590,W,2,07,01.5,19.8,M,-28.0,M,06.0,0211*60
07/01/2019,18:56:43.710,$GPGGA,185643,3747.2008,N,12223.0590,W,2,07,01.5,19.8,M,-28.0,M,05.0,0211*62
07/01/2019,18:56:44.690,$GPGGA,185644,3747.2008,N,12223.0590,W,2,07,01.5,19.8,M,-28.0,M,05.0,0211*65
07/01/2019,18:56:45.777,$GPGGA,185645,3747.2008,N,12223.0589,W,2,07,01.5,19.8,M,-28.0,M,05.0,0211*6C
07/01/2019,18:56:46.685,$GPGGA,185646,3747.2008,N,12223.0589,W,2,07,01.5,19.8,M,-28.0,M,05.0,0211*6F
07/01/2019,18:56:47.711,$GPGGA,185647,3747.2008,N,12223.0590,W,2,07,01.5,19.8,M,-28.0,M,06.0,0211*65
07/01/2019,18:56:48.692,$GPGGA,185648,3747.2008,N,12223.0590,W,2,07,01.5,19.8,M,-28.0,M,06.0,0211*6A
07/01/2019,18:56:49.777,$GPGGA,185649,3747.2008,N,12223.0590,W,2,07,01.5,19.8,M,-28.0,M,05.0,0211*68
07/01/2019,18:56:50.679,$GPGGA,185650,3747.2008,N,12223.0590,W,2,07,01.5,19.8,M,-28.0,M,06.0,0211*63
07/01/2019,18:56:51.711,$GPGGA,185651,3747.2008,N,12223.0589,W,2,07,01.5,19.8,M,-28.0,M,06.0,0211*6A
07/01/2019,18:56:52.692,$GPGGA,185652,3747.2008,N,12223.0590,W,2,07,01.5,19.8,M,-28.0,M,05.0,0211*62
07/01/2019,18:56:53.784,$GPGGA,185653,3747.2008,N,12223.0590,W,2,07,01.5,19.8,M,-28.0,M,06.0,0211*60
07/01/2019,18:56:54.634,$GPGGA,185654,3747.2009,N,12223.0590,W,2,07,01.5,19.8,M,-28.0,M,06.0,0211*66
07/01/2019,18:56:55.659,$GPGGA,185655,3747.2008,N,12223.0590,W,2,07,01.5,19.8,M,-28.0,M,05.0,0211*65
07/01/2019,18:56:56.640,$GPGGA,185656,3747.2008,N,12223.0590,W,2,07,01.5,19.8,M,-28.0,M,06.0,0211*65
07/01/2019,18:56:57.732,$GPGGA,185657,3747.2009,N,12223.0590,W,2,07,01.5,19.8,M,-28.0,M,06.0,0211*65
07/01/2019,18:56:58.649,$GPGGA,185658,3747.2009,N,12223.0590,W,2,07,01.5,19.8,M,-28.0,M,05.0,0211*69
07/01/2019,18:56:59.661,$GPGGA,185659,3747.2009,N,12223.0590,W,2,07,01.5,19.8,M,-28.0,M,05.0,0211*68
07/01/2019,18:57:00.630,$GPGGA,185700,3747.2009,N,12223.0590,W,2,07,01.5,19.8,M,-28.0,M,06.0,0211*66
07/01/2019,18:57:01.734,$GPGGA,185701,3747.2009,N,12223.0590,W,2,07,01.5,19.8,M,-28.0,M,05.0,0211*64
07/01/2019,18:57:02.634,$GPGGA,185702,3747.2009,N,12223.0590,W,2,07,01.5,19.8,M,-28.0,M,05.0,0211*67
07/01/2019,18:57:03.701,$GPGGA,185703,3747.2009,N,12223.0590,W,2,07,01.5,19.8,M,-28.0,M,06.0,0211*65
07/01/2019,18:57:04.630,$GPGGA,185704,3747.2009,N,12223.0590,W,2,07,01.5,19.8,M,-28.0,M,05.0,0211*61
07/01/2019,18:57:05.732,$GPGGA,185705,3747.2009,N,12223.0590,W,2,07,01.5,19.8,M,-28.0,M,05.0,0211*60
07/01/2019,18:57:06.634,$GPGGA,185706,3747.2009,N,12223.0590,W,2,07,01.5,19.8,M,-28.0,M,06.0,0211*60
07/01/2019,18:57:07.653,$GPGGA,185707,3747.2009,N,12223.0590,W,2,07,01.5,19.8,M,-28.0,M,05.0,0211*62
07/01/2019,18:57:08.639,$GPGGA,185708,3747.2009,N,12223.0590,W,2,07,01.5,19.8,M,-28.0,M,05.0,0211*6D
07/01/2019,18:57:09.724,$GPGGA,185709,3747.2009,N,12223.0590,W,2,07,01.5,19.8,M,-28.0,M,06.0,0211*6F
07/01/2019,18:57:10.680,$GPGGA,185710,3747.2009,N,12223.0590,W,2,07,01.5,19.8,M,-28.0,M,05.0,0211*64
07/01/2019,18:57:11.712,$GPGGA,185711,3747.2009,N,12223.0590,W,2,07,01.5,19.8,M,-28.0,M,05.0,0211*65
07/01/2019,18:57:12.702,$GPGGA,185712,3747.2009,N,12223.0590,W,2,07,01.5,19.8,M,-28.0,M,04.0,0211*67
07/01/2019,18:57:13.774,$GPGGA,185713,3747.2009,N,12223.0590,W,2,07,01.5,19.8,M,-28.0,M,05.0,0211*67
07/01/2019,18:57:14.635,$GPGGA,185714,3747.2009,N,12223.0590,W,2,07,01.5,19.8,M,-28.0,M,06.0,0211*63
07/01/2019,18:57:15.705,$GPGGA,185715,3747.2009,N,12223.0590,W,2,07,01.5,19.8,M,-28.0,M,06.0,0211*62
07/01/2019,18:57:16.692,$GPGGA,185716,3747.2009,N,12223.0590,W,2,07,01.5,19.8,M,-28.0,M,05.0,0211*62
07/01/2019,18:57:17.778,$GPGGA,185717,3747.2009,N,12223.0590,W,2,07,01.5,19.9,M,-28.0,M,05.0,0211*62
07/01/2019,18:57:18.698,$GPGGA,185718,3747.2009,N,12223.0591,W,2,07,01.5,19.9,M,-28.0,M,06.0,0211*6F
07/01/2019,18:57:19.651,$GPGGA,185719,3747.2009,N,12223.0591,W,2,07,01.5,19.9,M,-28.0,M,06.0,0211*6E
07/01/2019,18:57:20.682,$GPGGA,185720,3747.2009,N,12223.0591,W,2,07,01.5,19.9,M,-28.0,M,05.0,0211*67
07/01/2019,18:57:21.724,$GPGGA,185721,3747.2009,N,12223.0590,W,2,07,01.5,19.9,M,-28.0,M,06.0,0211*64
07/01/2019,18:57:22.686,$GPGGA,185722,3747.2009,N,12223.0590,W,2,07,01.5,19.9,M,-28.0,M,06.0,0211*67
07/01/2019,18:57:23.712,$GPGGA,185723,3747.2009,N,12223.0590,W,2,07,01.5,19.9,M,-28.0,M,05.0,0211*65
07/01/2019,18:57:24.682,$GPGGA,185724,3747.2009,N,12223.0590,W,2,07,01.5,19.9,M,-28.0,M,06.0,0211*61
07/01/2019,18:57:25.785,$GPGGA,185725,3747.2009,N,12223.0590,W,2,07,01.5,19.9,M,-28.0,M,06.0,0211*60
07/01/2019,18:57:26.691,$GPGGA,185726,3747.2009,N,12223.0590,W,2,07,01.5,19.9,M,-28.0,M,05.0,0211*60
07/01/2019,18:57:27.708,$GPGGA,185727,3747.2009,N,12223.0590,W,2,07,01.5,19.9,M,-28.0,M,06.0,0211*62
07/01/2019,18:57:28.682,$GPGGA,185728,3747.2009,N,12223.0590,W,2,07,01.5,19.9,M,-28.0,M,06.0,0211*6D
07/01/2019,18:57:29.785,$GPGGA,185729,3747.2009,N,12223.0590,W,2,07,01.5,19.9,M,-28.0,M,05.0,0211*6F
07/01/2019,18:57:30.699,$GPGGA,185730,3747.2009,N,12223.0591,W,2,07,01.5,19.9,M,-28.0,M,06.0,0211*65
07/01/2019,18:57:31.708,$GPGGA,185731,3747.2009,N,12223.0591,W,2,07,01.5,19.9,M,-28.0,M,06.0,0211*64
07/01/2019,18:57:32.683,$GPGGA,185732,3747.2009,N,12223.0591,W,2,07,01.5,19.9,M,-28.0,M,05.0,0211*64
07/01/2019,18:57:33.786,$GPGGA,185733,3747.2009,N,12223.0591,W,2,07,01.5,19.9,M,-28.0,M,06.0,0211*66
07/01/2019,18:57:34.700,$GPGGA,185734,3747.2009,N,12223.0591,W,2,07,01.5,19.9,M,-28.0,M,06.0,0211*61
07/01/2019,18:57:35.702,$GPGGA,185735,3747.2009,N,12223.0591,W,2,07,01.5,19.9,M,-28.0,M,05.0,0211*63
07/01/2019,18:57:36.631,$GPGGA,185736,3747.2009,N,12223.0591,W,2,07,01.5,19.9,M,-28.0,M,05.0,0211*60
07/01/2019,18:57:37.738,$GPGGA,185737,3747.2009,N,12223.0591,W,2,07,01.5,19.9,M,-28.0,M,05.0,0211*61
07/01/2019,18:57:38.651,$GPGGA,185738,3747.2009,N,12223.0591,W,2,07,01.5,19.9,M,-28.0,M,05.0,0211*6E
07/01/2019,18:57:39.702,$GPGGA,185739,3747.2009,N,12223.0591,W,2,07,01.5,19.9,M,-28.0,M,06.0,0211*6C
07/01/2019,18:57:40.636,$GPGGA,185740,3747.2009,N,12223.0591,W,2,07,01.5,19.9,M,-28.0,M,05.0,0211*61
07/01/2019,18:57:41.785,$GPGGA,185741,3747.2009,N,12223.0591,W,2,07,01.5,19.9,M,-28.0,M,05.0,0211*60
07/01/2019,18:57:42.705,$GPGGA,185742,3747.2009,N,12223.0591,W,2,07,01.5,19.9,M,-28.0,M,05.0,0211*63
07/01/2019,18:57:43.651,$GPGGA,185743,3747.2009,N,12223.0591,W,2,07,01.5,19.9,M,-28.0,M,05.0,0211*62
07/01/2019,18:57:44.690,$GPGGA,185744,3747.2009,N,12223.0591,W,2,07,01.5,19.9,M,-28.0,M,05.0,0211*65
07/01/2019,18:57:45.786,$GPGGA,185745,3747.2009,N,12223.0591,W,2,07,01.5,19.9,M,-28.0,M,06.0,0211*67
07/01/2019,18:57:46.689,$GPGGA,185746,3747.2009,N,12223.0591,W,2,07,01.5,19.9,M,-28.0,M,05.0,0211*67
07/01/2019,18:57:47.703,$GPGGA,185747,3747.2009,N,12223.0591,W,2,07,01.5,19.9,M,-28.0,M,05.0,0211*66
07/01/2019,18:57:48.632,$GPGGA,185748,3747.2009,N,12223.0591,W,2,07,01.5,19.9,M,-28.0,M,06.0,0211*6A
07/01/2019,18:57:49.732,$GPGGA,185749,3747.2009,N,12223.0591,W,2,07,01.5,19.9,M,-28.0,M,05.0,0211*68
07/01/2019,18:57:50.681,$GPGGA,185750,3747.2009,N,12223.0591,W,2,07,01.5,19.9,M,-28.0,M,05.0,0211*60
07/01/2019,18:57:51.710,$GPGGA,185751,3747.2009,N,12223.0591,W,2,07,01.5,19.9,M,-28.0,M,06.0,0211*62
07/01/2019,18:57:52.694,$GPGGA,185752,3747.2009,N,12223.0591,W,2,07,01.5,19.9,M,-28.0,M,05.0,0211*62
07/01/2019,18:57:53.780,$GPGGA,185753,3747.2009,N,12223.0591,W,2,07,01.5,19.9,M,-28.0,M,05.0,0211*63
07/01/2019,18:57:54.689,$GPGGA,185754,3747.2009,N,12223.0591,W,2,07,01.5,19.9,M,-28.0,M,04.0,0211*65
07/01/2019,18:57:55.665,$GPGGA,185755,3747.2009,N,12223.0591,W,2,07,01.5,19.9,M,-28.0,M,04.0,0211*64
07/01/2019,18:57:56.644,$GPGGA,185756,3747.2009,N,12223.0591,W,2,07,01.5,19.9,M,-28.0,M,05.0,0211*66
07/01/2019,18:57:57.735,$GPGGA,185757,3747.2009,N,12223.0591,W,2,07,01.5,19.9,M,-28.0,M,06.0,0211*64
07/01/2019,18:57:58.653,$GPGGA,185758,3747.2009,N,12223.0591,W,2,07,01.5,19.9,M,-28.0,M,05.0,0211*68
07/01/2019,18:57:59.663,$GPGGA,185759,3747.2009,N,12223.0591,W,2,07,01.5,19.9,M,-28.0,M,06.0,0211*6A
07/01/2019,18:58:00.632,$GPGGA,185800,3747.2009,N,12223.0591,W,2,07,01.5,19.9,M,-28.0,M,06.0,0211*69
07/01/2019,18:58:01.792,$GPGGA,185801,3747.2009,N,12223.0591,W,2,07,01.5,19.9,M,-28.0,M,05.0,0211*6B
07/01/2019,18:58:02.702,$GPGGA,185802,3747.2009,N,12223.0591,W,2,07,01.5,20.0,M,-28.0,M,06.0,0211*68
07/01/2019,18:58:03.660,$GPGGA,185803,3747.2009,N,12223.0591,W,2,07,01.5,20.0,M,-28.0,M,06.0,0211*69
07/01/2019,18:58:04.632,$GPGGA,185804,3747.2008,N,12223.0591,W,2,07,01.5,20.0,M,-28.0,M,05.0,0211*6C
07/01/2019,18:58:05.735,$GPGGA,185805,3747.2008,N,12223.0591,W,2,07,01.5,20.0,M,-28.0,M,06.0,0211*6E
07/01/2019,18:58:06.637,$GPGGA,185806,3747.2009,N,12223.0591,W,2,07,01.5,20.0,M,-28.0,M,06.0,0211*6C
07/01/2019,18:58:07.655,$GPGGA,185807,3747.2009,N,12223.0591,W,2,07,01.5,20.0,M,-28.0,M,05.0,0211*6E
07/01/2019,18:58:08.644,$GPGGA,185808,3747.2009,N,12223.0591,W,2,07,01.5,20.0,M,-28.0,M,06.0,0211*62
07/01/2019,18:58:09.726,$GPGGA,185809,3747.2008,N,12223.0591,W,2,07,01.5,20.0,M,-28.0,M,06.0,0211*62
07/01/2019,18:58:10.650,$GPGGA,185810,3747.2009,N,12223.0591,W,2,07,01.5,20.0,M,-28.0,M,05.0,0211*68
07/01/2019,18:58:11.677,$GPGGA,185811,3747.2009,N,12223.0591,W,2,07,01.5,20.0,M,-28.0,M,06.0,0211*6A
07/01/2019,18:58:12.645,$GPGGA,185812,3747.2008,N,12223.0591,W,2,07,01.5,20.0,M,-28.0,M,06.0,0211*68
07/01/2019,18:58:13.726,$GPGGA,185813,3747.2008,N,12223.0592,W,2,07,01.5,20.0,M,-28.0,M,05.0,0211*69
07/01/2019,18:58:14.649,$GPGGA,185814,3747.2008,N,12223.0592,W,2,07,01.5,20.0,M,-28.0,M,05.0,0211*6E
07/01/2019,18:58:15.663,$GPGGA,185815,3747.2008,N,12223.0592,W,2,07,01.5,20.0,M,-28.0,M,06.0,0211*6C
07/01/2019,18:58:16.633,$GPGGA,185816,3747.2008,N,12223.0592,W,2,07,01.5,20.0,M,-28.0,M,06.0,0211*6F
07/01/2019,18:58:17.739,$GPGGA,185817,3747.2008,N,12223.0592,W,2,07,01.5,20.0,M,-28.0,M,05.0,0211*6D
07/01/2019,18:58:18.638,$GPGGA,185818,3747.2008,N,12223.0592,W,2,07,01.5,20.0,M,-28.0,M,06.0,0211*61
07/01/2019,18:58:19.664,$GPGGA,185819,3747.2008,N,12223.0591,W,2,07,01.5,20.0,M,-28.0,M,06.0,0211*63
07/01/2019,18:58:20.645,$GPGGA,185820,3747.2008,N,12223.0591,W,2,07,01.5,20.0,M,-28.0,M,05.0,0211*6A
07/01/2019,18:58:21.734,$GPGGA,185821,3747.2008,N,12223.0591,W,2,07,01.5,20.0,M,-28.0,M,05.0,0211*6B
07/01/2019,18:58:22.651,$GPGGA,185822,3747.2008,N,12223.0591,W,2,07,01.5,20.0,M,-28.0,M,05.0,0211*68
07/01/2019,18:58:23.664,$GPGGA,185823,3747.2009,N,12223.0591,W,2,07,01.5,20.0,M,-28.0,M,04.0,0211*69
07/01/2019,18:58:24.634,$GPGGA,185824,3747.2009,N,12223.0592,W,2,07,01.5,20.0,M,-28.0,M,04.0,0211*6D
07/01/2019,18:58:25.736,$GPGGA,185825,3747.2009,N,12223.0592,W,2,07,01.5,20.0,M,-28.0,M,05.0,0211*6D
07/01/2019,18:58:26.637,$GPGGA,185826,3747.2009,N,12223.0592,W,2,07,01.5,20.0,M,-28.0,M,06.0,0211*6D
07/01/2019,18:58:27.675,$GPGGA,185827,3747.2009,N,12223.0592,W,2,07,01.5,20.0,M,-28.0,M,05.0,0211*6F
07/01/2019,18:58:28.646,$GPGGA,185828,3747.2009,N,12223.0592,W,2,07,01.5,20.0,M,-28.0,M,05.0,0211*60
07/01/2019,18:58:29.778,$GPGGA,185829,3747.2009,N,12223.0592,W,2,07,01.5,20.0,M,-28.0,M,06.0,0211*62
07/01/2019,18:58:30.693,$GPGGA,185830,3747.2009,N,12223.0592,W,2,07,01.5,20.0,M,-28.0,M,05.0,0211*69
07/01/2019,18:58:31.605,$GPGGA,185831,3747.2009,N,12223.0592,W,2,07,01.5,20.0,M,-28.0,M,05.0,0211*68
07/01/2019,18:58:32.685,$GPGGA,185832,3747.2009,N,12223.0591,W,2,07,01.5,20.0,M,-28.0,M,05.0,0211*68
07/01/2019,18:58:33.778,$GPGGA,185833,3747.2009,N,12223.0591,W,2,07,01.5,20.0,M,-28.0,M,04.0,0211*68
07/01/2019,18:58:34.638,$GPGGA,185834,3747.2009,N,12223.0591,W,2,07,01.5,20.0,M,-28.0,M,05.0,0211*6E
07/01/2019,18:58:35.654,$GPGGA,185835,3747.2009,N,12223.0591,W,2,07,01.5,20.0,M,-28.0,M,06.0,0211*6C
07/01/2019,18:58:36.643,$GPGGA,185836,3747.2009,N,12223.0592,W,2,07,01.5,20.0,M,-28.0,M,05.0,0211*6F
07/01/2019,18:58:37.729,$GPGGA,185837,3747.2008,N,12223.0592,W,2,07,01.5,20.0,M,-28.0,M,05.0,0211*6F
07/01/2019,18:58:38.638,$GPGGA,185838,3747.2008,N,12223.0592,W,2,07,01.5,20.0,M,-28.0,M,06.0,0211*63
07/01/2019,18:58:39.666,$GPGGA,185839,3747.2008,N,12223.0592,W,2,07,01.5,20.0,M,-28.0,M,06.0,0211*62
07/01/2019,18:58:40.646,$GPGGA,185840,3747.2009,N,12223.0592,W,2,07,01.5,20.0,M,-28.0,M,05.0,0211*6E
07/01/2019,18:58:41.728,$GPGGA,185841,3747.2009,N,12223.0592,W,2,07,01.5,20.0,M,-28.0,M,05.0,0211*6F
07/01/2019,18:58:42.651,$GPGGA,185842,3747.2009,N,12223.0591,W,2,07,01.5,20.0,M,-28.0,M,06.0,0211*6C
07/01/2019,18:58:43.712,$GPGGA,185843,3747.2008,N,12223.0591,W,2,07,01.5,20.0,M,-28.0,M,06.0,0211*6C
07/01/2019,18:58:44.685,$GPGGA,185844,3747.2008,N,12223.0591,W,2,07,01.5,19.9,M,-28.0,M,05.0,0211*6B
07/01/2019,18:58:45.732,$GPGGA,185845,3747.2008,N,12223.0591,W,2,07,01.5,19.8,M,-28.0,M,06.0,0211*68
07/01/2019,18:58:46.655,$GPGGA,185846,3747.2008,N,12223.0591,W,2,07,01.5,19.9,M,-28.0,M,06.0,0211*6A
07/01/2019,18:58:47.691,$GPGGA,185847,3747.2008,N,12223.0591,W,2,07,01.5,19.9,M,-28.0,M,05.0,0211*68
07/01/2019,18:58:48.635,$GPGGA,185848,3747.2008,N,12223.0591,W,2,07,01.5,20.0,M,-28.0,M,05.0,0211*64
07/01/2019,18:58:49.739,$GPGGA,185849,3747.2008,N,12223.0591,W,2,07,01.5,20.1,M,-28.0,M,05.0,0211*64
07/01/2019,18:58:50.652,$GPGGA,185850,3747.2008,N,12223.0591,W,2,07,01.5,20.1,M,-28.0,M,05.0,0211*6C
07/01/2019,18:58:51.716,$GPGGA,185851,3747.2008,N,12223.0591,W,2,07,01.5,20.1,M,-28.0,M,06.0,0211*6E
07/01/2019,18:58:52.715,$GPGGA,185852,3747.2008,N,12223.0591,W,2,07,01.5,20.1,M,-28.0,M,05.0,0211*6E
07/01/2019,18:58:53.783,$GPGGA,185853,3747.2008,N,12223.0591,W,2,07,01.5,20.1,M,-28.0,M,05.0,0211*6F
07/01/2019,18:58:54.683,$GPGGA,185854,3747.2008,N,12223.0591,W,2,07,01.5,20.1,M,-28.0,M,05.0,0211*68
07/01/2019,18:58:55.716,$GPGGA,185855,3747.2008,N,12223.0591,W,2,07,01.5,20.1,M,-28.0,M,05.0,0211*69
07/01/2019,18:58:56.686,$GPGGA,185856,3747.2008,N,12223.0591,W,2,07,01.5,20.1,M,-28.0,M,05.0,0211*6A
07/01/2019,18:58:57.779,$GPGGA,185857,3747.2008,N,12223.0591,W,2,07,01.5,20.1,M,-28.0,M,04.0,0211*6A
07/01/2019,18:58:58.683,$GPGGA,185858,3747.2009,N,12223.0591,W,2,07,01.5,20.2,M,-28.0,M,05.0,0211*66
07/01/2019,18:58:59.717,$GPGGA,185859,3747.2009,N,12223.0592,W,2,07,01.5,20.1,M,-28.0,M,06.0,0211*64
07/01/2019,18:59:00.697,$GPGGA,185900,3747.2009,N,12223.0592,W,2,07,01.5,20.1,M,-28.0,M,05.0,0211*6A
07/01/2019,18:59:01.783,$GPGGA,185901,3747.2009,N,12223.0592,W,2,07,01.5,20.1,M,-28.0,M,06.0,0211*68
07/01/2019,18:59:02.690,$GPGGA,185902,3747.2009,N,12223.0592,W,2,07,01.5,20.1,M,-28.0,M,06.0,0211*6B
07/01/2019,18:59:03.666,$GPGGA,185903,3747.2009,N,12223.0591,W,2,07,01.5,20.1,M,-28.0,M,05.0,0211*6A
07/01/2019,18:59:04.647,$GPGGA,185904,3747.2009,N,12223.0591,W,2,07,01.5,20.1,M,-28.0,M,06.0,0211*6E
07/01/2019,18:59:05.729,$GPGGA,185905,3747.2009,N,12223.0592,W,2,07,01.5,20.1,M,-28.0,M,05.0,0211*6F
07/01/2019,18:59:06.652,$GPGGA,185906,3747.2009,N,12223.0592,W,2,07,01.5,20.1,M,-28.0,M,05.0,0211*6C
07/01/2019,18:59:07.657,$GPGGA,185907,3747.2009,N,12223.0592,W,2,07,01.5,20.1,M,-28.0,M,06.0,0211*6E
07/01/2019,18:59:08.645,$GPGGA,185908,3747.2009,N,12223.0592,W,2,07,01.5,20.1,M,-28.0,M,05.0,0211*62
07/01/2019,18:59:09.729,$GPGGA,185909,3747.2009,N,12223.0592,W,2,07,01.5,20.1,M,-28.0,M,05.0,0211*63
07/01/2019,18:59:10.652,$GPGGA,185910,3747.2009,N,12223.0592,W,2,07,01.5,20.1,M,-28.0,M,04.0,0211*6A
07/01/2019,18:59:11.691,$GPGGA,185911,3747.2009,N,12223.0592,W,2,07,01.5,20.1,M,-28.0,M,05.0,0211*6A
07/01/2019,18:59:12.648,$GPGGA,185912,3747.2009,N,12223.0592,W,2,07,01.5,20.1,M,-28.0,M,06.0,0211*6A
07/01/2019,18:59:13.740,$GPGGA,185913,3747.2009,N,12223.0592,W,2,07,01.5,20.1,M,-28.0,M,05.0,0211*68
07/01/2019,18:59:14.640,$GPGGA,185914,3747.2009,N,12223.0592,W,2,07,01.5,20.1,M,-28.0,M,06.0,0211*6C
07/01/2019,18:59:15.707,$GPGGA,185915,3747.2009,N,12223.0592,W,2,07,01.5,20.1,M,-28.0,M,06.0,0211*6D
07/01/2019,18:59:16.647,$GPGGA,185916,3747.2009,N,12223.0592,W,2,07,01.5,20.1,M,-28.0,M,05.0,0211*6D
07/01/2019,18:59:17.742,$GPGGA,185917,3747.2009,N,12223.0592,W,2,07,01.5,20.1,M,-28.0,M,06.0,0211*6F
07/01/2019,18:59:18.640,$GPGGA,185918,3747.2009,N,12223.0593,W,2,07,01.5,20.1,M,-28.0,M,06.0,0211*61
07/01/2019,18:59:19.667,$GPGGA,185919,3747.2009,N,12223.0593,W,2,07,01.5,20.1,M,-28.0,M,05.0,0211*63
07/01/2019,18:59:20.648,$GPGGA,185920,3747.2009,N,12223.0593,W,2,07,01.5,20.1,M,-28.0,M,06.0,0211*6A
07/01/2019,18:59:21.737,$GPGGA,185921,3747.2010,N,12223.0593,W,2,07,01.5,20.1,M,-28.0,M,06.0,0211*63
07/01/2019,18:59:22.654,$GPGGA,185922,3747.2010,N,12223.0593,W,2,07,01.5,20.1,M,-28.0,M,05.0,0211*63
07/01/2019,18:59:23.718,$GPGGA,185923,3747.2010,N,12223.0593,W,2,07,01.5,20.1,M,-28.0,M,06.0,0211*61
07/01/2019,18:59:24.711,$GPGGA,185924,3747.2010,N,12223.0592,W,2,07,01.5,20.1,M,-28.0,M,06.0,0211*67
07/01/2019,18:59:25.739,$GPGGA,185925,3747.2010,N,12223.0592,W,2,07,01.5,20.1,M,-28.0,M,05.0,0211*65
07/01/2019,18:59:26.641,$GPGGA,185926,3747.2010,N,12223.0592,W,2,07,01.5,20.1,M,-28.0,M,06.0,0211*65
07/01/2019,18:59:27.665,$GPGGA,185927,3747.2010,N,12223.0592,W,2,07,01.5,20.1,M,-28.0,M,06.0,0211*64
07/01/2019,18:59:28.637,$GPGGA,185928,3747.2010,N,12223.0592,W,2,07,01.5,20.1,M,-28.0,M,05.0,0211*68
07/01/2019,18:59:29.740,$GPGGA,185929,3747.2010,N,12223.0592,W,2,07,01.5,20.1,M,-28.0,M,06.0,0211*6A
07/01/2019,18:59:30.656,$GPGGA,185930,3747.2010,N,12223.0593,W,2,07,01.5,20.1,M,-28.0,M,06.0,0211*63
07/01/2019,18:59:31.661,$GPGGA,185931,3747.2010,N,12223.0593,W,2,07,01.5,20.1,M,-28.0,M,05.0,0211*61
07/01/2019,18:59:32.648,$GPGGA,185932,3747.2010,N,12223.0593,W,2,07,01.5,20.1,M,-28.0,M,06.0,0211*61
07/01/2019,18:59:33.740,$GPGGA,185933,3747.2010,N,12223.0593,W,2,07,01.5,20.1,M,-28.0,M,06.0,0211*60
07/01/2019,18:59:34.656,$GPGGA,185934,3747.2010,N,12223.0592,W,2,07,01.5,20.1,M,-28.0,M,05.0,0211*65
07/01/2019,18:59:35.657,$GPGGA,185935,3747.2010,N,12223.0592,W,2,07,01.5,20.1,M,-28.0,M,05.0,0211*64
07/01/2019,18:59:36.694,$GPGGA,185936,3747.2010,N,12223.0592,W,2,07,01.5,20.1,M,-28.0,M,05.0,0211*67
07/01/2019,18:59:37.781,$GPGGA,185937,3747.2010,N,12223.0592,W,2,07,01.5,20.1,M,-28.0,M,06.0,0211*65
07/01/2019,18:59:38.694,$GPGGA,185938,3747.2010,N,12223.0592,W,2,07,01.5,20.1,M,-28.0,M,05.0,0211*69
07/01/2019,18:59:39.718,$GPGGA,185939,3747.2010,N,12223.0592,W,2,07,01.5,20.1,M,-28.0,M,05.0,0211*68
07/01/2019,18:59:40.695,$GPGGA,185940,3747.2009,N,12223.0592,W,2,07,01.5,20.1,M,-28.0,M,05.0,0211*6E
07/01/2019,18:59:41.791,$GPGGA,185941,3747.2009,N,12223.0592,W,2,07,01.5,20.1,M,-28.0,M,05.0,0211*6F
07/01/2019,18:59:42.707,$GPGGA,185942,3747.2009,N,12223.0592,W,2,07,01.5,20.1,M,-28.0,M,05.0,0211*6C
07/01/2019,18:59:43.657,$GPGGA,185943,3747.2009,N,12223.0592,W,2,07,01.5,20.1,M,-28.0,M,06.0,0211*6E
07/01/2019,18:59:44.688,$GPGGA,185944,3747.2009,N,12223.0592,W,2,07,01.5,20.1,M,-28.0,M,05.0,0211*6A
07/01/2019,18:59:45.792,$GPGGA,185945,3747.2009,N,12223.0592,W,2,07,01.5,20.1,M,-28.0,M,05.0,0211*6B
07/01/2019,18:59:46.695,$GPGGA,185946,3747.2009,N,12223.0592,W,2,07,01.5,20.1,M,-28.0,M,06.0,0211*6B
07/01/2019,18:59:47.711,$GPGGA,185947,3747.2009,N,12223.0592,W,2,07,01.5,20.1,M,-28.0,M,06.0,0211*6A
07/01/2019,18:59:48.689,$GPGGA,185948,3747.2009,N,12223.0592,W,2,07,01.5,20.1,M,-28.0,M,05.0,0211*66
07/01/2019,18:59:49.791,$GPGGA,185949,3747.2009,N,12223.0592,W,2,07,01.5,20.1,M,-28.0,M,05.0,0211*67
07/01/2019,18:59:50.695,$GPGGA,185950,3747.2009,N,12223.0592,W,2,07,01.5,20.1,M,-28.0,M,05.0,0211*6F
07/01/2019,18:59:51.714,$GPGGA,185951,3747.2009,N,12223.0592,W,2,07,01.5,20.1,M,-28.0,M,06.0,0211*6D
07/01/2019,18:59:52.688,$GPGGA,185952,3747.2009,N,12223.0592,W,2,07,01.5,20.1,M,-28.0,M,06.0,0211*6E
07/01/2019,18:59:53.735,$GPGGA,185953,3747.2010,N,12223.0592,W,2,07,01.5,20.1,M,-28.0,M,05.0,0211*64
07/01/2019,18:59:54.641,$GPGGA,185954,3747.2010,N,12223.0592,W,2,07,01.5,20.1,M,-28.0,M,06.0,0211*60
07/01/2019,18:59:55.668,$GPGGA,185955,3747.2010,N,12223.0592,W,2,07,01.5,20.1,M,-28.0,M,05.0,0211*62
07/01/2019,18:59:56.666,$GPGGA,185956,3747.2010,N,12223.0592,W,2,07,01.5,20.1,M,-28.0,M,05.0,0211*61
07/01/2019,18:59:57.743,$GPGGA,185957,3747.2010,N,12223.0593,W,2,07,01.5,20.1,M,-28.0,M,04.0,0211*60
07/01/2019,18:59:58.658,$GPGGA,185958,3747.2010,N,12223.0593,W,2,07,01.5,20.1,M,-28.0,M,04.0,0211*6F
07/01/2019,18:59:59.682,$GPGGA,185959,3747.2010,N,12223.0593,W,2,07,01.5,20.1,M,-28.0,M,05.0,0211*6F
07/01/2019,19:00:00.638,$GPGGA,190000,3747.2010,N,12223.0592,W,2,07,01.5,20.1,M,-28.0,M,06.0,0211*6C
07/01/2019,19:00:01.782,$GPGGA,190001,3747.2010,N,12223.0592,W,2,07,01.5,20.1,M,-28.0,M,05.0,0211*6E
07/01/2019,19:00:02.642,$GPGGA,190002,3747.2010,N,12223.0592,W,2,07,01.5,20.2,M,-28.0,M,06.0,0211*6D
07/01/2019,19:00:03.658,$GPGGA,190003,3747.2010,N,12223.0592,W,2,07,01.5,20.2,M,-28.0,M,06.0,0211*6C
07/01/2019,19:00:04.696,$GPGGA,190004,3747.2010,N,12223.0592,W,2,07,01.5,20.2,M,-28.0,M,05.0,0211*68
07/01/2019,19:00:05.782,$GPGGA,190005,3747.2010,N,12223.0593,W,2,07,01.5,20.2,M,-28.0,M,05.0,0211*68
07/01/2019,19:00:06.641,$GPGGA,190006,3747.2010,N,12223.0593,W,2,08,01.5,20.2,M,-28.0,M,05.0,0211*64
07/01/2019,19:00:07.659,$GPGGA,190007,3747.2010,N,12223.0593,W,2,08,01.3,20.2,M,-28.0,M,05.0,0211*63
07/01/2019,19:00:08.695,$GPGGA,190008,3747.2010,N,12223.0593,W,2,08,01.3,20.2,M,-28.0,M,05.0,0211*6C
07/01/2019,19:00:09.782,$GPGGA,190009,3747.2010,N,12223.0593,W,2,08,01.3,20.2,M,-28.0,M,04.0,0211*6C
07/01/2019,19:00:10.642,$GPGGA,190010,3747.2010,N,12223.0593,W,2,08,01.3,20.1,M,-28.0,M,05.0,0211*66
07/01/2019,19:00:11.659,$GPGGA,190011,3747.2011,N,12223.0593,W,2,08,01.3,20.1,M,-28.0,M,06.0,0211*65
07/01/2019,19:00:12.696,$GPGGA,190012,3747.2011,N,12223.0593,W,2,08,01.3,20.1,M,-28.0,M,07.0,0211*67
07/01/2019,19:00:13.731,$GPGGA,190013,3747.2011,N,12223.0593,W,2,08,01.3,20.1,M,-28.0,M,05.0,0211*64
07/01/2019,19:00:14.686,$GPGGA,190014,3747.2011,N,12223.0593,W,2,08,01.3,20.1,M,-28.0,M,05.0,0211*63
07/01/2019,19:00:15.709,$GPGGA,190015,3747.2011,N,12223.0593,W,2,08,01.3,20.1,M,-28.0,M,04.0,0211*63
07/01/2019,19:00:16.638,$GPGGA,190016,3747.2011,N,12223.0593,W,2,08,01.3,20.1,M,-28.0,M,04.0,0211*60
07/01/2019,19:00:17.749,$GPGGA,190017,3747.2011,N,12223.0594,W,2,08,01.3,20.1,M,-28.0,M,05.0,0211*67
07/01/2019,19:00:18.657,$GPGGA,190018,3747.2011,N,12223.0594,W,2,08,01.3,20.1,M,-28.0,M,06.0,0211*6B
07/01/2019,19:00:19.659,$GPGGA,190019,3747.2011,N,12223.0594,W,2,08,01.3,20.1,M,-28.0,M,05.0,0211*69
07/01/2019,19:00:20.639,$GPGGA,190020,3747.2011,N,12223.0594,W,2,08,01.3,20.1,M,-28.0,M,05.0,0211*63
07/01/2019,19:00:21.783,$GPGGA,190021,3747.2011,N,12223.0594,W,2,08,01.3,20.1,M,-28.0,M,04.0,0211*63
07/01/2019,19:00:22.643,$GPGGA,190022,3747.2011,N,12223.0594,W,2,08,01.3,20.1,M,-28.0,M,05.0,0211*61
07/01/2019,19:00:23.710,$GPGGA,190023,3747.2011,N,12223.0594,W,2,08,01.3,20.1,M,-28.0,M,06.0,0211*63
07/01/2019,19:00:24.660,$GPGGA,190024,3747.2011,N,12223.0594,W,2,08,01.3,20.1,M,-28.0,M,05.0,0211*67
07/01/2019,19:00:25.743,$GPGGA,190025,3747.2011,N,12223.0594,W,2,08,01.3,20.1,M,-28.0,M,05.0,0211*66
07/01/2019,19:00:26.643,$GPGGA,190026,3747.2011,N,12223.0594,W,2,08,01.3,20.1,M,-28.0,M,06.0,0211*66
07/01/2019,19:00:27.672,$GPGGA,190027,3747.2011,N,12223.0594,W,2,08,01.3,20.1,M,-28.0,M,06.0,0211*67
07/01/2019,19:00:28.639,$GPGGA,190028,3747.2011,N,12223.0594,W,2,08,01.3,20.1,M,-28.0,M,05.0,0211*6B
07/01/2019,19:00:29.744,$GPGGA,190029,3747.2011,N,12223.0594,W,2,08,01.3,20.1,M,-28.0,M,06.0,0211*69
07/01/2019,19:00:30.658,$GPGGA,190030,3747.2011,N,12223.0594,W,2,08,01.3,20.1,M,-28.0,M,06.0,0211*61
07/01/2019,19:00:31.664,$GPGGA,190031,3747.2011,N,12223.0594,W,2,08,01.3,20.1,M,-28.0,M,05.0,0211*63
07/01/2019,19:00:32.652,$GPGGA,190032,3747.2011,N,12223.0594,W,2,08,01.3,20.1,M,-28.0,M,06.0,0211*63
07/01/2019,19:00:33.743,$GPGGA,190033,3747.2011,N,12223.0594,W,2,08,01.3,20.1,M,-28.0,M,06.0,0211*62
07/01/2019,19:00:34.659,$GPGGA,190034,3747.2011,N,12223.0594,W,2,08,01.3,20.1,M,-28.0,M,05.0,0211*66
07/01/2019,19:00:35.659,$GPGGA,190035,3747.2011,N,12223.0594,W,2,08,01.3,20.1,M,-28.0,M,05.0,0211*67
07/01/2019,19:00:36.639,$GPGGA,190036,3747.2011,N,12223.0594,W,2,08,01.3,20.1,M,-28.0,M,06.0,0211*67
07/01/2019,19:00:37.745,$GPGGA,190037,3747.2011,N,12223.0594,W,2,08,01.3,20.1,M,-28.0,M,05.0,0211*65
07/01/2019,19:00:38.667,$GPGGA,190038,3747.2011,N,12223.0594,W,2,08,01.3,20.1,M,-28.0,M,05.0,0211*6A
07/01/2019,19:00:39.659,$GPGGA,190039,3747.2011,N,12223.0594,W,2,08,01.3,20.1,M,-28.0,M,05.0,0211*6B
07/01/2019,19:00:40.639,$GPGGA,190040,3747.2010,N,12223.0594,W,2,08,01.3,20.1,M,-28.0,M,05.0,0211*64
07/01/2019,19:00:41.744,$GPGGA,190041,3747.2010,N,12223.0594,W,2,08,01.3,20.1,M,-28.0,M,06.0,0211*66
07/01/2019,19:00:42.660,$GPGGA,190042,3747.2010,N,12223.0594,W,2,08,01.3,20.1,M,-28.0,M,07.0,0211*64
07/01/2019,19:00:43.711,$GPGGA,190043,3747.2010,N,12223.0594,W,2,08,01.3,20.1,M,-28.0,M,08.0,0211*6A
07/01/2019,19:00:44.691,$GPGGA,190044,3747.2010,N,12223.0594,W,2,08,01.3,20.1,M,-28.0,M,05.0,0211*60
07/01/2019,19:00:45.743,$GPGGA,190045,3747.2010,N,12223.0594,W,2,08,01.3,20.1,M,-28.0,M,06.0,0211*62
07/01/2019,19:00:46.644,$GPGGA,190046,3747.2010,N,12223.0594,W,2,08,01.3,20.1,M,-28.0,M,05.0,0211*62
07/01/2019,19:00:47.666,$GPGGA,190047,3747.2010,N,12223.0594,W,2,08,01.3,20.1,M,-28.0,M,05.0,0211*63
07/01/2019,19:00:48.651,$GPGGA,190048,3747.2010,N,12223.0594,W,2,08,01.3,20.1,M,-28.0,M,06.0,0211*6F
07/01/2019,19:00:49.744,$GPGGA,190049,3747.2010,N,12223.0594,W,2,07,01.5,20.2,M,-28.0,M,05.0,0211*67
07/01/2019,19:00:50.644,$GPGGA,190050,3747.2010,N,12223.0594,W,2,07,01.5,20.2,M,-28.0,M,05.0,0211*6F
07/01/2019,19:00:51.670,$GPGGA,190051,3747.2010,N,12223.0594,W,2,07,01.5,20.2,M,-28.0,M,04.0,0211*6F
07/01/2019,19:00:52.664,$GPGGA,190052,3747.2010,N,12223.0594,W,2,07,01.5,20.2,M,-28.0,M,04.0,0211*6C
07/01/2019,19:00:53.786,$GPGGA,190053,3747.2011,N,12223.0594,W,2,07,01.5,20.2,M,-28.0,M,05.0,0211*6D
07/01/2019,19:00:54.697,$GPGGA,190054,3747.2011,N,12223.0594,W,2,07,01.5,20.2,M,-28.0,M,06.0,0211*69
07/01/2019,19:00:55.722,$GPGGA,190055,3747.2010,N,12223.0594,W,2,07,01.5,20.2,M,-28.0,M,05.0,0211*6A
07/01/2019,19:00:56.691,$GPGGA,190056,3747.2011,N,12223.0594,W,2,07,01.5,20.2,M,-28.0,M,06.0,0211*6B
07/01/2019,19:00:57.746,$GPGGA,190057,3747.2011,N,12223.0594,W,2,07,01.5,20.2,M,-28.0,M,06.0,0211*6A
07/01/2019,19:00:58.644,$GPGGA,190058,3747.2011,N,12223.0593,W,2,07,01.5,20.3,M,-28.0,M,05.0,0211*60
07/01/2019,19:00:59.671,$GPGGA,190059,3747.2011,N,12223.0593,W,2,07,01.5,20.3,M,-28.0,M,06.0,0211*62
07/01/2019,19:01:00.649,$GPGGA,190100,3747.2011,N,12223.0593,W,2,07,01.5,20.3,M,-28.0,M,06.0,0211*6F
07/01/2019,19:01:01.733,$GPGGA,190101,3747.2011,N,12223.0593,W,2,07,01.5,20.3,M,-28.0,M,05.0,0211*6D
07/01/2019,19:01:02.660,$GPGGA,190102,3747.2011,N,12223.0593,W,2,07,01.5,20.3,M,-28.0,M,06.0,0211*6D
07/01/2019,19:01:03.715,$GPGGA,190103,3747.2011,N,12223.0593,W,2,07,01.5,20.3,M,-28.0,M,06.0,0211*6C
07/01/2019,19:01:04.692,$GPGGA,190104,3747.2011,N,12223.0593,W,2,08,01.5,20.3,M,-28.0,M,05.0,0211*67
07/01/2019,19:01:05.795,$GPGGA,190105,3747.2011,N,12223.0593,W,2,08,01.3,20.3,M,-28.0,M,06.0,0211*63
07/01/2019,19:01:06.699,$GPGGA,190106,3747.2011,N,12223.0593,W,2,08,01.3,20.3,M,-28.0,M,06.0,0211*60
07/01/2019,19:01:07.715,$GPGGA,190107,3747.2011,N,12223.0593,W,2,08,01.3,20.3,M,-28.0,M,05.0,0211*62
07/01/2019,19:01:08.691,$GPGGA,190108,3747.2011,N,12223.0593,W,2,08,01.3,20.3,M,-28.0,M,05.0,0211*6D
07/01/2019,19:01:09.794,$GPGGA,190109,3747.2011,N,12223.0593,W,2,08,01.3,20.3,M,-28.0,M,06.0,0211*6F
07/01/2019,19:01:10.721,$GPGGA,190110,3747.2011,N,12223.0593,W,2,08,01.3,20.3,M,-28.0,M,05.0,0211*64
07/01/2019,19:01:11.660,$GPGGA,190111,3747.2010,N,12223.0593,W,2,08,01.3,20.3,M,-28.0,M,05.0,0211*64
07/01/2019,19:01:12.698,$GPGGA,190112,3747.2010,N,12223.0593,W,2,08,01.3,20.2,M,-28.0,M,05.0,0211*66
07/01/2019,19:01:13.784,$GPGGA,190113,3747.2010,N,12223.0593,W,2,08,01.3,20.2,M,-28.0,M,05.0,0211*67
07/01/2019,19:01:14.645,$GPGGA,190114,3747.2010,N,12223.0592,W,2,08,01.3,20.2,M,-28.0,M,05.0,0211*61
07/01/2019,19:01:15.672,$GPGGA,190115,3747.2010,N,12223.0592,W,2,08,01.3,20.2,M,-28.0,M,06.0,0211*63
07/01/2019,19:01:16.653,$GPGGA,190116,3747.2010,N,12223.0592,W,2,08,01.3,20.2,M,-28.0,M,05.0,0211*63
07/01/2019,19:01:17.785,$GPGGA,190117,3747.2010,N,12223.0593,W,2,08,01.3,20.2,M,-28.0,M,05.0,0211*63
07/01/2019,19:01:18.698,$GPGGA,190118,3747.2010,N,12223.0593,W,2,08,01.3,20.2,M,-28.0,M,05.0,0211*6C
07/01/2019,19:01:19.714,$GPGGA,190119,3747.2010,N,12223.0593,W,2,08,01.3,20.2,M,-28.0,M,06.0,0211*6E
07/01/2019,19:01:20.692,$GPGGA,190120,3747.2010,N,12223.0593,W,2,08,01.3,20.2,M,-28.0,M,06.0,0211*64
07/01/2019,19:01:21.795,$GPGGA,190121,3747.2010,N,12223.0593,W,2,08,01.3,20.2,M,-28.0,M,05.0,0211*66
07/01/2019,19:01:22.711,$GPGGA,190122,3747.2010,N,12223.0593,W,2,08,01.3,20.2,M,-28.0,M,06.0,0211*66
07/01/2019,19:01:23.712,$GPGGA,190123,3747.2010,N,12223.0593,W,2,08,01.3,20.2,M,-28.0,M,06.0,0211*67
07/01/2019,19:01:24.702,$GPGGA,190124,3747.2010,N,12223.0593,W,2,08,01.3,20.2,M,-28.0,M,05.0,0211*63
07/01/2019,19:01:25.788,$GPGGA,190125,3747.2010,N,12223.0593,W,2,08,01.3,20.2,M,-28.0,M,06.0,0211*61
07/01/2019,19:01:26.699,$GPGGA,190126,3747.2010,N,12223.0593,W,2,08,01.3,20.2,M,-28.0,M,06.0,0211*62
07/01/2019,19:01:27.671,$GPGGA,190127,3747.2010,N,12223.0593,W,2,08,01.3,20.2,M,-28.0,M,05.0,0211*60
07/01/2019,19:01:28.704,$GPGGA,190128,3747.2010,N,12223.0593,W,2,08,01.3,20.2,M,-28.0,M,05.0,0211*6F
07/01/2019,19:01:29.735,$GPGGA,190129,3747.2010,N,12223.0593,W,2,08,01.3,20.2,M,-28.0,M,06.0,0211*6D
07/01/2019,19:01:30.662,$GPGGA,190130,3747.2010,N,12223.0593,W,2,08,01.3,20.2,M,-28.0,M,06.0,0211*65
07/01/2019,19:01:31.672,$GPGGA,190131,3747.2010,N,12223.0593,W,2,08,01.3,20.2,M,-28.0,M,05.0,0211*67
07/01/2019,19:01:32.665,$GPGGA,190132,3747.2010,N,12223.0593,W,2,08,01.3,20.2,M,-28.0,M,05.0,0211*64
07/01/2019,19:01:33.785,$GPGGA,190133,3747.2010,N,12223.0593,W,2,08,01.3,20.2,M,-28.0,M,06.0,0211*66
07/01/2019,19:01:34.646,$GPGGA,190134,3747.2011,N,12223.0593,W,2,08,01.3,20.2,M,-28.0,M,05.0,0211*63
07/01/2019,19:01:35.722,$GPGGA,190135,3747.2011,N,12223.0593,W,2,08,01.3,20.2,M,-28.0,M,05.0,0211*62
07/01/2019,19:01:36.705,$GPGGA,190136,3747.2011,N,12223.0593,W,2,08,01.3,20.2,M,-28.0,M,06.0,0211*62
07/01/2019,19:01:37.748,$GPGGA,190137,3747.2011,N,12223.0593,W,2,08,01.3,20.2,M,-28.0,M,05.0,0211*60
07/01/2019,19:01:38.662,$GPGGA,190138,3747.2011,N,12223.0593,W,2,08,01.3,20.2,M,-28.0,M,05.0,0211*6F
07/01/2019,19:01:39.713,$GPGGA,190139,3747.2011,N,12223.0593,W,2,08,01.3,20.2,M,-28.0,M,05.0,0211*6E
07/01/2019,19:01:40.654,$GPGGA,190140,3747.2011,N,12223.0593,W,2,08,01.3,20.2,M,-28.0,M,05.0,0211*60
07/01/2019,19:01:41.735,$GPGGA,190141,3747.2010,N,12223.0593,W,2,08,01.3,20.2,M,-28.0,M,06.0,0211*63
07/01/2019,19:01:42.697,$GPGGA,190142,3747.2010,N,12223.0593,W,2,08,01.3,20.3,M,-28.0,M,06.0,0211*61
07/01/2019,19:01:43.723,$GPGGA,190143,3747.2010,N,12223.0593,W,2,08,01.3,20.3,M,-28.0,M,05.0,0211*63
07/01/2019,19:01:44.695,$GPGGA,190144,3747.2010,N,12223.0593,W,2,08,01.3,20.3,M,-28.0,M,05.0,0211*64
07/01/2019,19:01:45.790,$GPGGA,190145,3747.2010,N,12223.0593,W,2,07,01.5,20.3,M,-28.0,M,06.0,0211*6F
07/01/2019,19:01:46.707,$GPGGA,190146,3747.2010,N,12223.0593,W,2,07,01.5,20.3,M,-28.0,M,06.0,0211*6C
07/01/2019,19:01:47.726,$GPGGA,190147,3747.2010,N,12223.0592,W,2,07,01.5,20.3,M,-28.0,M,05.0,0211*6F
07/01/2019,19:01:48.693,$GPGGA,190148,3747.2010,N,12223.0592,W,2,07,01.5,20.3,M,-28.0,M,05.0,0211*60
07/01/2019,19:01:49.796,$GPGGA,190149,3747.2010,N,12223.0593,W,2,08,01.3,20.3,M,-28.0,M,05.0,0211*69
07/01/2019,19:01:50.690,$GPGGA,190150,3747.2010,N,12223.0593,W,2,07,01.5,20.3,M,-28.0,M,05.0,0211*68
07/01/2019,19:01:51.720,$GPGGA,190151,3747.2010,N,12223.0593,W,2,07,01.5,20.3,M,-28.0,M,06.0,0211*6A
07/01/2019,19:01:52.704,$GPGGA,190152,3747.2011,N,12223.0593,W,2,07,01.5,20.3,M,-28.0,M,05.0,0211*6B
07/01/2019,19:01:53.789,$GPGGA,190153,3747.2011,N,12223.0592,W,2,07,01.5,20.3,M,-28.0,M,05.0,0211*6B
07/01/2019,19:01:54.697,$GPGGA,190154,3747.2011,N,12223.0592,W,2,07,01.5,20.4,M,-28.0,M,05.0,0211*6B
07/01/2019,19:01:55.713,$GPGGA,190155,3747.2010,N,12223.0592,W,2,07,01.5,20.4,M,-28.0,M,05.0,0211*6B
07/01/2019,19:01:56.646,$GPGGA,190156,3747.2010,N,12223.0592,W,2,07,01.5,20.4,M,-28.0,M,05.0,0211*68
07/01/2019,19:01:57.755,$GPGGA,190157,3747.2010,N,12223.0592,W,2,07,01.5,20.4,M,-28.0,M,04.0,0211*68
07/01/2019,19:01:58.662,$GPGGA,190158,3747.2010,N,12223.0592,W,2,07,01.5,20.4,M,-28.0,M,05.0,0211*66
07/01/2019,19:01:59.664,$GPGGA,190159,3747.2010,N,12223.0592,W,2,07,01.5,20.4,M,-28.0,M,06.0,0211*64
07/01/2019,19:02:00.694,$GPGGA,190200,3747.2010,N,12223.0592,W,2,07,01.5,20.4,M,-28.0,M,05.0,0211*68
07/01/2019,19:02:01.787,$GPGGA,190201,3747.2010,N,12223.0592,W,2,08,01.3,20.4,M,-28.0,M,06.0,0211*63
07/01/2019,19:02:02.714,$GPGGA,190202,3747.2010,N,12223.0592,W,2,08,01.3,20.4,M,-28.0,M,05.0,0211*63
07/01/2019,19:02:03.724,$GPGGA,190203,3747.2010,N,12223.0592,W,2,08,01.3,20.4,M,-28.0,M,05.0,0211*62
07/01/2019,19:02:04.664,$GPGGA,190204,3747.2010,N,12223.0592,W,2,08,01.3,20.4,M,-28.0,M,05.0,0211*65
07/01/2019,19:02:05.736,$GPGGA,190205,3747.2010,N,12223.0592,W,2,08,01.3,20.4,M,-28.0,M,06.0,0211*67
07/01/2019,19:02:06.663,$GPGGA,190206,3747.2010,N,12223.0592,W,2,08,01.3,20.4,M,-28.0,M,07.0,0211*65
07/01/2019,19:02:07.676,$GPGGA,190207,3747.2010,N,12223.0592,W,2,08,01.3,20.3,M,-28.0,M,08.0,0211*6C
07/01/2019,19:02:08.643,$GPGGA,190208,3747.2010,N,12223.0592,W,2,08,01.3,20.3,M,-28.0,M,09.0,0211*62
07/01/2019,19:02:09.796,$GPGGA,190209,3747.2010,N,12223.0592,W,2,08,01.3,20.3,M,-28.0,M,10.0,0211*6B
07/01/2019,19:02:10.648,$GPGGA,190210,3747.2010,N,12223.0592,W,2,07,01.5,20.3,M,-28.0,M,05.0,0211*6E
07/01/2019,19:02:11.664,$GPGGA,190211,3747.2010,N,12223.0592,W,2,07,01.5,20.3,M,-28.0,M,06.0,0211*6C
07/01/2019,19:02:12.673,$GPGGA,190212,3747.2010,N,12223.0592,W,2,07,01.5,20.3,M,-28.0,M,06.0,0211*6F
07/01/2019,19:02:13.798,$GPGGA,190213,3747.2010,N,12223.0592,W,2,08,01.3,20.3,M,-28.0,M,05.0,0211*64
07/01/2019,19:02:14.691,$GPGGA,190214,3747.2010,N,12223.0592,W,2,08,01.3,20.3,M,-28.0,M,05.0,0211*63
07/01/2019,19:02:15.725,$GPGGA,190215,3747.2010,N,12223.0592,W,2,08,01.3,20.3,M,-28.0,M,06.0,0211*61
07/01/2019,19:02:16.696,$GPGGA,190216,3747.2010,N,12223.0592,W,2,08,01.3,20.3,M,-28.0,M,07.0,0211*63
07/01/2019,19:02:17.790,$GPGGA,190217,3747.2010,N,12223.0592,W,2,08,01.3,20.2,M,-28.0,M,06.0,0211*62
07/01/2019,19:02:18.690,$GPGGA,190218,3747.2010,N,12223.0592,W,2,08,01.3,20.2,M,-28.0,M,05.0,0211*6E
07/01/2019,19:02:19.725,$GPGGA,190219,3747.2010,N,12223.0592,W,2,08,01.3,20.2,M,-28.0,M,05.0,0211*6F
07/01/2019,19:02:20.706,$GPGGA,190220,3747.2010,N,12223.0592,W,2,08,01.3,20.2,M,-28.0,M,05.0,0211*65
07/01/2019,19:02:21.792,$GPGGA,190221,3747.2010,N,12223.0592,W,2,08,01.3,20.2,M,-28.0,M,04.0,0211*65
07/01/2019,19:02:22.699,$GPGGA,190222,3747.2010,N,12223.0592,W,2,08,01.3,20.2,M,-28.0,M,05.0,0211*67
07/01/2019,19:02:23.726,$GPGGA,190223,3747.2010,N,12223.0592,W,2,08,01.3,20.2,M,-28.0,M,06.0,0211*65
07/01/2019,19:02:24.645,$GPGGA,190224,3747.2010,N,12223.0592,W,2,08,01.3,20.2,M,-28.0,M,05.0,0211*61
07/01/2019,19:02:25.749,$GPGGA,190225,3747.2010,N,12223.0592,W,2,08,01.3,20.2,M,-28.0,M,05.0,0211*60
07/01/2019,19:02:26.664,$GPGGA,190226,3747.2010,N,12223.0592,W,2,08,01.3,20.2,M,-28.0,M,06.0,0211*60
07/01/2019,19:02:27.673,$GPGGA,190227,3747.2010,N,12223.0592,W,2,08,01.3,20.2,M,-28.0,M,07.0,0211*60
07/01/2019,19:02:28.655,$GPGGA,190228,3747.2010,N,12223.0592,W,2,08,01.3,20.2,M,-28.0,M,08.0,0211*60
07/01/2019,19:02:29.749,$GPGGA,190229,3747.2010,N,12223.0592,W,2,08,01.3,20.2,M,-28.0,M,09.0,0211*60
07/01/2019,19:02:30.648,$GPGGA,190230,3747.2010,N,12223.0592,W,2,07,01.5,20.2,M,-28.0,M,06.0,0211*6E
07/01/2019,19:02:31.675,$GPGGA,190231,3747.2010,N,12223.0592,W,2,08,01.3,20.2,M,-28.0,M,05.0,0211*65
07/01/2019,19:02:32.675,$GPGGA,190232,3747.2010,N,12223.0592,W,2,08,01.3,20.2,M,-28.0,M,06.0,0211*65
07/01/2019,19:02:33.789,$GPGGA,190233,3747.2010,N,12223.0592,W,2,08,01.3,20.2,M,-28.0,M,06.0,0211*64
07/01/2019,19:02:34.711,$GPGGA,190234,3747.2010,N,12223.0592,W,2,08,01.3,20.2,M,-28.0,M,05.0,0211*60
07/01/2019,19:02:35.726,$GPGGA,190235,3747.2010,N,12223.0592,W,2,08,01.3,20.2,M,-28.0,M,05.0,0211*61
07/01/2019,19:02:36.696,$GPGGA,190236,3747.2010,N,12223.0592,W,2,08,01.3,20.2,M,-28.0,M,06.0,0211*61
07/01/2019,19:02:37.751,$GPGGA,190237,3747.2010,N,12223.0592,W,2,08,01.3,20.2,M,-28.0,M,07.0,0211*61
07/01/2019,19:02:38.649,$GPGGA,190238,3747.2010,N,12223.0592,W,2,08,01.3,20.2,M,-28.0,M,06.0,0211*6F
07/01/2019,19:02:39.676,$GPGGA,190239,3747.2010,N,12223.0592,W,2,08,01.3,20.2,M,-28.0,M,07.0,0211*6F
07/01/2019,19:02:40.656,$GPGGA,190240,3747.2010,N,12223.0592,W,2,08,01.3,20.3,M,-28.0,M,08.0,0211*6F
07/01/2019,19:02:41.738,$GPGGA,190241,3747.2010,N,12223.0591,W,2,08,01.3,20.3,M,-28.0,M,09.0,0211*6C
07/01/2019,19:02:42.700,$GPGGA,190242,3747.2010,N,12223.0591,W,2,08,01.3,20.3,M,-28.0,M,10.0,0211*67
07/01/2019,19:02:43.665,$GPGGA,190243,3747.2010,N,12223.0591,W,2,07,01.5,20.3,M,-28.0,M,05.0,0211*6B
07/01/2019,19:02:44.646,$GPGGA,190244,3747.2010,N,12223.0591,W,2,07,01.5,20.3,M,-28.0,M,06.0,0211*6F
07/01/2019,19:02:45.749,$GPGGA,190245,3747.2010,N,12223.0591,W,2,07,01.5,20.3,M,-28.0,M,06.0,0211*6E
07/01/2019,19:02:46.664,$GPGGA,190246,3747.2010,N,12223.0592,W,2,07,01.5,20.3,M,-28.0,M,05.0,0211*6D
07/01/2019,19:02:47.677,$GPGGA,190247,3747.2010,N,12223.0592,W,2,07,01.5,20.3,M,-28.0,M,06.0,0211*6F
07/01/2019,19:02:48.646,$GPGGA,190248,3747.2010,N,12223.0592,W,2,07,01.5,20.3,M,-28.0,M,06.0,0211*60
07/01/2019,19:02:49.749,$GPGGA,190249,3747.2010,N,12223.0592,W,2,07,01.5,20.3,M,-28.0,M,05.0,0211*62
07/01/2019,19:02:50.666,$GPGGA,190250,3747.2010,N,12223.0592,W,2,07,01.5,20.3,M,-28.0,M,06.0,0211*69
07/01/2019,19:02:51.665,$GPGGA,190251,3747.2010,N,12223.0591,W,2,07,01.5,20.4,M,-28.0,M,06.0,0211*6C
07/01/2019,19:02:52.654,$GPGGA,190252,3747.2010,N,12223.0591,W,2,07,01.5,20.4,M,-28.0,M,05.0,0211*6C
07/01/2019,19:02:53.749,$GPGGA,190253,3747.2010,N,12223.0591,W,2,07,01.5,20.4,M,-28.0,M,05.0,0211*6D
07/01/2019,19:02:54.663,$GPGGA,190254,3747.2010,N,12223.0591,W,2,08,01.3,20.3,M,-28.0,M,06.0,0211*67
07/01/2019,19:02:55.666,$GPGGA,190255,3747.2010,N,12223.0591,W,2,08,01.3,20.4,M,-28.0,M,05.0,0211*62
07/01/2019,19:02:56.646,$GPGGA,190256,3747.2010,N,12223.0591,W,2,08,01.3,20.4,M,-28.0,M,05.0,0211*61
07/01/2019,19:02:57.790,$GPGGA,190257,3747.2010,N,12223.0591,W,2,08,01.3,20.4,M,-28.0,M,06.0,0211*63
07/01/2019,19:02:58.662,$GPGGA,190258,3747.2010,N,12223.0591,W,2,08,01.3,20.4,M,-28.0,M,05.0,0211*6F
07/01/2019,19:02:59.726,$GPGGA,190259,3747.2010,N,12223.0591,W,2,08,01.3,20.4,M,-28.0,M,05.0,0211*6E
07/01/2019,19:03:00.707,$GPGGA,190300,3747.2010,N,12223.0591,W,2,08,01.3,20.4,M,-28.0,M,05.0,0211*63
07/01/2019,19:03:01.793,$GPGGA,190301,3747.2010,N,12223.0591,W,2,08,01.3,20.4,M,-28.0,M,05.0,0211*62
07/01/2019,19:03:02.701,$GPGGA,190302,3747.2010,N,12223.0590,W,2,08,01.3,20.3,M,-28.0,M,06.0,0211*64
07/01/2019,19:03:03.717,$GPGGA,190303,3747.2010,N,12223.0590,W,2,08,01.3,20.3,M,-28.0,M,07.0,0211*64
07/01/2019,19:03:04.696,$GPGGA,190304,3747.2010,N,12223.0590,W,2,08,01.3,20.3,M,-28.0,M,08.0,0211*6C
07/01/2019,19:03:05.790,$GPGGA,190305,3747.2010,N,12223.0590,W,2,08,01.3,20.4,M,-28.0,M,09.0,0211*6B
07/01/2019,19:03:06.651,$GPGGA,190306,3747.2010,N,12223.0591,W,2,08,01.3,20.4,M,-28.0,M,10.0,0211*61
07/01/2019,19:03:07.678,$GPGGA,190307,3747.2010,N,12223.0591,W,2,07,01.5,20.4,M,-28.0,M,05.0,0211*6D
07/01/2019,19:03:08.646,$GPGGA,190308,3747.2010,N,12223.0591,W,2,07,01.5,20.3,M,-28.0,M,05.0,0211*65
07/01/2019,19:03:09.750,$GPGGA,190309,3747.2010,N,12223.0591,W,2,07,01.5,20.3,M,-28.0,M,04.0,0211*65
07/01/2019,19:03:10.663,$GPGGA,190310,3747.2010,N,12223.0591,W,2,07,01.5,20.3,M,-28.0,M,05.0,0211*6C
07/01/2019,19:03:11.666,$GPGGA,190311,3747.2010,N,12223.0591,W,2,07,01.5,20.3,M,-28.0,M,06.0,0211*6E
07/01/2019,19:03:12.702,$GPGGA,190312,3747.2010,N,12223.0591,W,2,07,01.5,20.3,M,-28.0,M,05.0,0211*6E
07/01/2019,19:03:13.790,$GPGGA,190313,3747.2010,N,12223.0590,W,2,07,01.5,20.3,M,-28.0,M,05.0,0211*6E
07/01/2019,19:03:14.650,$GPGGA,190314,3747.2010,N,12223.0590,W,2,07,01.5,20.3,M,-28.0,M,06.0,0211*6A
07/01/2019,19:03:15.666,$GPGGA,190315,3747.2010,N,12223.0590,W,2,08,01.3,20.3,M,-28.0,M,06.0,0211*62
07/01/2019,19:03:16.706,$GPGGA,190316,3747.2010,N,12223.0590,W,2,08,01.3,20.3,M,-28.0,M,05.0,0211*62
07/01/2019,19:03:17.793,$GPGGA,190317,3747.2010,N,12223.0591,W,2,08,01.3,20.3,M,-28.0,M,06.0,0211*61
07/01/2019,19:03:18.703,$GPGGA,190318,3747.2010,N,12223.0591,W,2,08,01.3,20.3,M,-28.0,M,06.0,0211*6E
07/01/2019,19:03:19.728,$GPGGA,190319,3747.2010,N,12223.0591,W,2,08,01.3,20.3,M,-28.0,M,07.0,0211*6E
07/01/2019,19:03:20.697,$GPGGA,190320,3747.2010,N,12223.0591,W,2,08,01.3,20.3,M,-28.0,M,08.0,0211*6B
07/01/2019,19:03:21.749,$GPGGA,190321,3747.2010,N,12223.0591,W,2,08,01.3,20.3,M,-28.0,M,09.0,0211*6B
07/01/2019,19:03:22.651,$GPGGA,190322,3747.2010,N,12223.0590,W,2,08,01.3,20.3,M,-28.0,M,10.0,0211*61
07/01/2019,19:03:23.678,$GPGGA,190323,3747.2010,N,12223.0590,W,2,08,01.3,20.3,M,-28.0,M,11.0,0211*61
07/01/2019,19:03:24.658,$GPGGA,190324,3747.2010,N,12223.0590,W,2,07,01.5,20.3,M,-28.0,M,06.0,0211*69
07/01/2019,19:03:25.740,$GPGGA,190325,3747.2010,N,12223.0590,W,2,07,01.5,20.4,M,-28.0,M,05.0,0211*6C
07/01/2019,19:03:26.700,$GPGGA,190326,3747.2010,N,12223.0590,W,2,07,01.5,20.4,M,-28.0,M,06.0,0211*6C
07/01/2019,19:03:27.718,$GPGGA,190327,3747.2010,N,12223.0590,W,2,07,01.5,20.4,M,-28.0,M,06.0,0211*6D
07/01/2019,19:03:28.658,$GPGGA,190328,3747.2010,N,12223.0590,W,2,07,01.5,20.4,M,-28.0,M,05.0,0211*61
07/01/2019,19:03:29.751,$GPGGA,190329,3747.2010,N,12223.0590,W,2,07,01.5,20.4,M,-28.0,M,06.0,0211*63
07/01/2019,19:03:30.651,$GPGGA,190330,3747.2010,N,12223.0590,W,2,07,01.5,20.4,M,-28.0,M,06.0,0211*6B
07/01/2019,19:03:31.678,$GPGGA,190331,3747.2010,N,12223.0590,W,2,07,01.5,20.4,M,-28.0,M,05.0,0211*69
07/01/2019,19:03:32.675,$GPGGA,190332,3747.2009,N,12223.0591,W,2,07,01.5,20.4,M,-28.0,M,06.0,0211*60
07/01/2019,19:03:33.740,$GPGGA,190333,3747.2010,N,12223.0590,W,2,07,01.5,20.4,M,-28.0,M,06.0,0211*68
07/01/2019,19:03:34.693,$GPGGA,190334,3747.2010,N,12223.0590,W,2,07,01.5,20.4,M,-28.0,M,05.0,0211*6C
07/01/2019,19:03:35.723,$GPGGA,190335,3747.2010,N,12223.0590,W,2,07,01.5,20.4,M,-28.0,M,06.0,0211*6E
07/01/2019,19:03:36.709,$GPGGA,190336,3747.2010,N,12223.0590,W,2,07,01.5,20.4,M,-28.0,M,06.0,0211*6D
07/01/2019,19:03:37.801,$GPGGA,190337,3747.2010,N,12223.0590,W,2,07,01.5,20.4,M,-28.0,M,05.0,0211*6F
07/01/2019,19:03:38.693,$GPGGA,190338,3747.2010,N,12223.0590,W,2,07,01.5,20.4,M,-28.0,M,05.0,0211*60
07/01/2019,19:03:39.728,$GPGGA,190339,3747.2010,N,12223.0590,W,2,07,01.5,20.4,M,-28.0,M,06.0,0211*62
07/01/2019,19:03:40.708,$GPGGA,190340,3747.2010,N,12223.0590,W,2,07,01.4,20.4,M,-28.0,M,05.0,0211*6E
07/01/2019,19:03:41.792,$GPGGA,190341,3747.2010,N,12223.0590,W,2,07,01.4,20.4,M,-28.0,M,06.0,0211*6C
07/01/2019,19:03:42.701,$GPGGA,190342,3747.2010,N,12223.0590,W,2,07,01.4,20.4,M,-28.0,M,06.0,0211*6F
07/01/2019,19:03:43.677,$GPGGA,190343,3747.2010,N,12223.0590,W,2,07,01.4,20.4,M,-28.0,M,05.0,0211*6D
07/01/2019,19:03:44.658,$GPGGA,190344,3747.2010,N,12223.0590,W,2,07,01.4,20.4,M,-28.0,M,05.0,0211*6A
07/01/2019,19:03:45.739,$GPGGA,190345,3747.2010,N,12223.0590,W,2,07,01.4,20.4,M,-28.0,M,06.0,0211*68
07/01/2019,19:03:46.692,$GPGGA,190346,3747.2010,N,12223.0590,W,2,07,01.4,20.4,M,-28.0,M,05.0,0211*68
07/01/2019,19:03:47.717,$GPGGA,190347,3747.2010,N,12223.0590,W,2,08,01.3,20.4,M,-28.0,M,06.0,0211*62
07/01/2019,19:03:48.658,$GPGGA,190348,3747.2010,N,12223.0590,W,2,08,01.3,20.4,M,-28.0,M,07.0,0211*6C
07/01/2019,19:03:49.751,$GPGGA,190349,3747.2010,N,12223.0590,W,2,08,01.3,20.4,M,-28.0,M,08.0,0211*62
07/01/2019,19:03:50.651,$GPGGA,190350,3747.2010,N,12223.0590,W,2,08,01.3,20.4,M,-28.0,M,09.0,0211*6B
07/01/2019,19:03:51.678,$GPGGA,190351,3747.2010,N,12223.0590,W,2,08,01.3,20.5,M,-28.0,M,10.0,0211*63
07/01/2019,19:03:52.668,$GPGGA,190352,3747.2010,N,12223.0590,W,2,07,01.4,20.4,M,-28.0,M,06.0,0211*6E
07/01/2019,19:03:53.740,$GPGGA,190353,3747.2010,N,12223.0590,W,2,07,01.4,20.4,M,-28.0,M,05.0,0211*6C
07/01/2019,19:03:54.693,$GPGGA,190354,3747.2010,N,12223.0590,W,2,07,01.4,20.4,M,-28.0,M,05.0,0211*6B
07/01/2019,19:03:55.726,$GPGGA,190355,3747.2010,N,12223.0590,W,2,07,01.4,20.4,M,-28.0,M,06.0,0211*69
07/01/2019,19:03:56.709,$GPGGA,190356,3747.2010,N,12223.0590,W,2,07,01.4,20.4,M,-28.0,M,05.0,0211*69
07/01/2019,19:03:57.801,$GPGGA,190357,3747.2010,N,12223.0590,W,2,08,01.3,20.4,M,-28.0,M,05.0,0211*60
07/01/2019,19:03:58.693,$GPGGA,190358,3747.2010,N,12223.0590,W,2,08,01.3,20.4,M,-28.0,M,06.0,0211*6C
07/01/2019,19:03:59.727,$GPGGA,190359,3747.2010,N,12223.0590,W,2,08,01.3,20.4,M,-28.0,M,05.0,0211*6E
07/01/2019,19:04:00.699,$GPGGA,190400,3747.2010,N,12223.0590,W,2,08,01.3,20.4,M,-28.0,M,05.0,0211*65
07/01/2019,19:04:01.790,$GPGGA,190401,3747.2010,N,12223.0590,W,2,08,01.3,20.4,M,-28.0,M,06.0,0211*67
07/01/2019,19:04:02.719,$GPGGA,190402,3747.2010,N,12223.0590,W,2,08,01.3,20.4,M,-28.0,M,07.0,0211*65
07/01/2019,19:04:03.729,$GPGGA,190403,3747.2010,N,12223.0590,W,2,08,01.3,20.4,M,-28.0,M,08.0,0211*6B
07/01/2019,19:04:04.707,$GPGGA,190404,3747.2010,N,12223.0590,W,2,08,01.3,20.4,M,-28.0,M,05.0,0211*61
07/01/2019,19:04:05.743,$GPGGA,190405,3747.2010,N,12223.0590,W,2,08,01.3,20.4,M,-28.0,M,05.0,0211*60
07/01/2019,19:04:06.664,$GPGGA,190406,3747.2010,N,12223.0590,W,2,08,01.3,20.4,M,-28.0,M,04.0,0211*62
07/01/2019,19:04:07.679,$GPGGA,190407,3747.2010,N,12223.0590,W,2,08,01.3,20.4,M,-28.0,M,04.0,0211*63
07/01/2019,19:04:08.648,$GPGGA,190408,3747.2010,N,12223.0589,W,2,08,01.3,20.4,M,-28.0,M,05.0,0211*65
07/01/2019,19:04:09.791,$GPGGA,190409,3747.2010,N,12223.0590,W,2,08,01.3,20.4,M,-28.0,M,06.0,0211*6F
07/01/2019,19:04:10.653,$GPGGA,190410,3747.2010,N,12223.0590,W,2,08,01.3,20.4,M,-28.0,M,05.0,0211*64
07/01/2019,19:04:11.668,$GPGGA,190411,3747.2010,N,12223.0590,W,2,08,01.3,20.4,M,-28.0,M,06.0,0211*66
07/01/2019,19:04:12.703,$GPGGA,190412,3747.2010,N,12223.0590,W,2,08,01.3,20.4,M,-28.0,M,06.0,0211*65
07/01/2019,19:04:13.791,$GPGGA,190413,3747.2010,N,12223.0590,W,2,08,01.3,20.4,M,-28.0,M,05.0,0211*67
07/01/2019,19:04:14.653,$GPGGA,190414,3747.2009,N,12223.0590,W,2,08,01.3,20.4,M,-28.0,M,06.0,0211*6B
07/01/2019,19:04:15.668,$GPGGA,190415,3747.2010,N,12223.0590,W,2,08,01.3,20.4,M,-28.0,M,06.0,0211*62
07/01/2019,19:04:16.708,$GPGGA,190416,3747.2010,N,12223.0589,W,2,08,01.3,20.4,M,-28.0,M,05.0,0211*6A
07/01/2019,19:04:17.753,$GPGGA,190417,3747.2010,N,12223.0589,W,2,08,01.3,20.4,M,-28.0,M,06.0,0211*68
07/01/2019,19:04:18.653,$GPGGA,190418,3747.2010,N,12223.0589,W,2,08,01.3,20.4,M,-28.0,M,06.0,0211*67
07/01/2019,19:04:19.692,$GPGGA,190419,3747.2010,N,12223.0589,W,2,08,01.3,20.4,M,-28.0,M,05.0,0211*65
07/01/2019,19:04:20.660,$GPGGA,190420,3747.2010,N,12223.0589,W,2,08,01.3,20.4,M,-28.0,M,05.0,0211*6F
07/01/2019,19:04:21.741,$GPGGA,190421,3747.2010,N,12223.0589,W,2,08,01.3,20.4,M,-28.0,M,06.0,0211*6D
07/01/2019,19:04:22.668,$GPGGA,190422,3747.2010,N,12223.0589,W,2,08,01.3,20.4,M,-28.0,M,05.0,0211*6D
07/01/2019,19:04:23.728,$GPGGA,190423,3747.2010,N,12223.0589,W,2,08,01.3,20.4,M,-28.0,M,05.0,0211*6C
07/01/2019,19:04:24.675,$GPGGA,190424,3747.2010,N,12223.0589,W,2,08,01.3,20.4,M,-28.0,M,05.0,0211*6B
07/01/2019,19:04:25.742,$GPGGA,190425,3747.2010,N,12223.0589,W,2,08,01.3,20.4,M,-28.0,M,06.0,0211*69
07/01/2019,19:04:26.665,$GPGGA,190426,3747.2010,N,12223.0589,W,2,08,01.3,20.4,M,-28.0,M,07.0,0211*6B
07/01/2019,19:04:27.686,$GPGGA,190427,3747.2010,N,12223.0589,W,2,08,01.3,20.4,M,-28.0,M,08.0,0211*65
07/01/2019,19:04:28.649,$GPGGA,190428,3747.2010,N,12223.0589,W,2,08,01.3,20.4,M,-28.0,M,05.0,0211*67
07/01/2019,19:04:29.742,$GPGGA,190429,3747.2010,N,12223.0589,W,2,08,01.3,20.4,M,-28.0,M,05.0,0211*66
07/01/2019,19:04:30.666,$GPGGA,190430,3747.2009,N,12223.0589,W,2,08,01.3,20.4,M,-28.0,M,04.0,0211*67
07/01/2019,19:04:31.680,$GPGGA,190431,3747.2009,N,12223.0589,W,2,08,01.3,20.4,M,-28.0,M,05.0,0211*67
07/01/2019,19:04:32.658,$GPGGA,190432,3747.2009,N,12223.0589,W,2,08,01.3,20.4,M,-28.0,M,06.0,0211*67
07/01/2019,19:04:33.752,$GPGGA,190433,3747.2009,N,12223.0589,W,2,07,01.4,20.4,M,-28.0,M,05.0,0211*6D
07/01/2019,19:04:34.665,$GPGGA,190434,3747.2009,N,12223.0589,W,2,07,01.4,20.4,M,-28.0,M,06.0,0211*69
07/01/2019,19:04:35.680,$GPGGA,190435,3747.2009,N,12223.0589,W,2,07,01.4,20.4,M,-28.0,M,06.0,0211*68
07/01/2019,19:04:36.649,$GPGGA,190436,3747.2009,N,12223.0589,W,2,07,01.4,20.4,M,-28.0,M,05.0,0211*68
07/01/2019,19:04:37.795,$GPGGA,190437,3747.2009,N,12223.0589,W,2,07,01.4,20.4,M,-28.0,M,05.0,0211*69
07/01/2019,19:04:38.694,$GPGGA,190438,3747.2009,N,12223.0588,W,2,08,01.3,20.4,M,-28.0,M,06.0,0211*6C
07/01/2019,19:04:39.730,$GPGGA,190439,3747.2009,N,12223.0588,W,2,08,01.3,20.4,M,-28.0,M,06.0,0211*6D
07/01/2019,19:04:40.710,$GPGGA,190440,3747.2009,N,12223.0588,W,2,08,01.3,20.4,M,-28.0,M,05.0,0211*60
07/01/2019,19:04:41.792,$GPGGA,190441,3747.2009,N,12223.0588,W,2,08,01.3,20.4,M,-28.0,M,06.0,0211*62
07/01/2019,19:04:42.654,$GPGGA,190442,3747.2009,N,12223.0588,W,2,08,01.3,20.4,M,-28.0,M,06.0,0211*61
07/01/2019,19:04:43.729,$GPGGA,190443,3747.2009,N,12223.0589,W,2,08,01.3,20.4,M,-28.0,M,05.0,0211*62
07/01/2019,19:04:44.708,$GPGGA,190444,3747.2009,N,12223.0589,W,2,08,01.3,20.4,M,-28.0,M,06.0,0211*66
07/01/2019,19:04:45.742,$GPGGA,190445,3747.2009,N,12223.0589,W,2,08,01.3,20.4,M,-28.0,M,06.0,0211*67
07/01/2019,19:04:46.666,$GPGGA,190446,3747.2009,N,12223.0589,W,2,08,01.3,20.4,M,-28.0,M,05.0,0211*67
07/01/2019,19:04:47.685,$GPGGA,190447,3747.2009,N,12223.0589,W,2,08,01.3,20.4,M,-28.0,M,05.0,0211*66
07/01/2019,19:04:48.700,$GPGGA,190448,3747.2009,N,12223.0589,W,2,08,01.3,20.4,M,-28.0,M,05.0,0211*69
07/01/2019,19:04:49.702,$GPGGA,190449,3747.2009,N,12223.0588,W,2,08,01.3,20.4,M,-28.0,M,05.0,0211*69
07/01/2019,19:04:50.704,$GPGGA,190450,3747.2009,N,12223.0588,W,2,08,01.3,20.4,M,-28.0,M,06.0,0211*62
07/01/2019,19:04:51.670,$GPGGA,190451,3747.2010,N,12223.0588,W,2,08,01.3,20.4,M,-28.0,M,06.0,0211*6B
07/01/2019,19:04:52.700,$GPGGA,190452,3747.2010,N,12223.0588,W,2,08,01.3,20.4,M,-28.0,M,05.0,0211*6B
07/01/2019,19:04:53.804,$GPGGA,190453,3747.2010,N,12223.0588,W,2,08,01.3,20.4,M,-28.0,M,06.0,0211*69
07/01/2019,19:04:54.703,$GPGGA,190454,3747.2010,N,12223.0588,W,2,08,01.3,20.4,M,-28.0,M,06.0,0211*6E
07/01/2019,19:04:55.730,$GPGGA,190455,3747.2009,N,12223.0589,W,2,08,01.3,20.4,M,-28.0,M,05.0,0211*65
07/01/2019,19:04:56.700,$GPGGA,190456,3747.2010,N,12223.0589,W,2,08,01.3,20.4,M,-28.0,M,06.0,0211*6D
07/01/2019,19:04:57.807,$GPGGA,190457,3747.2010,N,12223.0589,W,2,08,01.3,20.4,M,-28.0,M,06.0,0211*6C
07/01/2019,19:04:58.667,$GPGGA,190458,3747.2010,N,12223.0588,W,2,08,01.3,20.4,M,-28.0,M,07.0,0211*63
07/01/2019,19:04:59.681,$GPGGA,190459,3747.2010,N,12223.0588,W,2,08,01.3,20.4,M,-28.0,M,08.0,0211*6D
07/01/2019,19:05:00.650,$GPGGA,190500,3747.2010,N,12223.0588,W,2,08,01.3,20.4,M,-28.0,M,09.0,0211*61
07/01/2019,19:05:01.754,$GPGGA,190501,3747.2010,N,12223.0588,W,2,08,01.3,20.4,M,-28.0,M,10.0,0211*68
07/01/2019,19:05:02.671,$GPGGA,190502,3747.2010,N,12223.0588,W,2,07,01.4,20.4,M,-28.0,M,05.0,0211*67
07/01/2019,19:05:03.670,$GPGGA,190503,3747.2009,N,12223.0588,W,2,07,01.4,20.4,M,-28.0,M,05.0,0211*6E
07/01/2019,19:05:04.650,$GPGGA,190504,3747.2009,N,12223.0588,W,2,07,01.4,20.4,M,-28.0,M,06.0,0211*6A
07/01/2019,19:05:05.793,$GPGGA,190505,3747.2009,N,12223.0589,W,2,07,01.4,20.4,M,-28.0,M,06.0,0211*6A
07/01/2019,19:05:06.658,$GPGGA,190506,3747.2009,N,12223.0589,W,2,07,01.4,20.4,M,-28.0,M,05.0,0211*6A
07/01/2019,19:05:07.722,$GPGGA,190507,3747.2009,N,12223.0588,W,2,07,01.4,20.4,M,-28.0,M,06.0,0211*69
07/01/2019,19:05:08.711,$GPGGA,190508,3747.2009,N,12223.0588,W,2,07,01.4,20.4,M,-28.0,M,06.0,0211*66
07/01/2019,19:05:09.804,$GPGGA,190509,3747.2009,N,12223.0588,W,2,07,01.4,20.4,M,-28.0,M,05.0,0211*64
07/01/2019,19:05:10.696,$GPGGA,190510,3747.2009,N,12223.0588,W,2,08,01.3,20.4,M,-28.0,M,05.0,0211*64
07/01/2019,19:05:11.680,$GPGGA,190511,3747.2009,N,12223.0588,W,2,08,01.3,20.4,M,-28.0,M,05.0,0211*65
07/01/2019,19:05:12.663,$GPGGA,190512,3747.2009,N,12223.0588,W,2,08,01.3,20.4,M,-28.0,M,06.0,0211*65
07/01/2019,19:05:13.755,$GPGGA,190513,3747.2009,N,12223.0588,W,2,08,01.3,20.4,M,-28.0,M,06.0,0211*64
07/01/2019,19:05:14.668,$GPGGA,190514,3747.2009,N,12223.0588,W,2,09,00.9,20.4,M,-28.0,M,05.0,0211*6A
07/01/2019,19:05:15.670,$GPGGA,190515,3747.2009,N,12223.0588,W,2,09,00.9,20.4,M,-28.0,M,06.0,0211*68
07/01/2019,19:05:16.651,$GPGGA,190516,3747.2009,N,12223.0588,W,2,09,00.9,20.4,M,-28.0,M,05.0,0211*68
07/01/2019,19:05:17.759,$GPGGA,190517,3747.2009,N,12223.0588,W,2,09,00.9,20.4,M,-28.0,M,05.0,0211*69
07/01/2019,19:05:18.667,$GPGGA,190518,3747.2009,N,12223.0589,W,2,09,00.9,20.4,M,-28.0,M,05.0,0211*67
07/01/2019,19:05:19.670,$GPGGA,190519,3747.2009,N,12223.0589,W,2,09,00.9,20.4,M,-28.0,M,05.0,0211*66
07/01/2019,19:05:20.706,$GPGGA,190520,3747.2009,N,12223.0589,W,2,09,00.9,20.4,M,-28.0,M,05.0,0211*6C
07/01/2019,19:05:21.794,$GPGGA,190521,3747.2009,N,12223.0588,W,2,09,00.9,20.4,M,-28.0,M,04.0,0211*6D
07/01/2019,19:05:22.657,$GPGGA,190522,3747.2009,N,12223.0588,W,2,09,00.9,20.4,M,-28.0,M,05.0,0211*6F
07/01/2019,19:05:23.671,$GPGGA,190523,3747.2009,N,12223.0588,W,2,09,00.9,20.4,M,-28.0,M,06.0,0211*6D
07/01/2019,19:05:24.711,$GPGGA,190524,3747.2009,N,12223.0588,W,2,09,00.9,20.4,M,-28.0,M,05.0,0211*69
07/01/2019,19:05:25.794,$GPGGA,190525,3747.2009,N,12223.0588,W,2,09,00.9,20.4,M,-28.0,M,04.0,0211*69
07/01/2019,19:05:26.656,$GPGGA,190526,3747.2009,N,12223.0588,W,2,09,00.9,20.3,M,-28.0,M,05.0,0211*6C
07/01/2019,19:05:27.689,$GPGGA,190527,3747.2009,N,12223.0588,W,2,09,00.9,20.3,M,-28.0,M,06.0,0211*6E
07/01/2019,19:05:28.662,$GPGGA,190528,3747.2009,N,12223.0588,W,2,09,00.9,20.3,M,-28.0,M,05.0,0211*62
07/01/2019,19:05:29.744,$GPGGA,190529,3747.2009,N,12223.0589,W,2,09,00.9,20.3,M,-28.0,M,05.0,0211*62
07/01/2019,19:05:30.681,$GPGGA,190530,3747.2009,N,12223.0589,W,2,09,00.9,20.3,M,-28.0,M,05.0,0211*6A
07/01/2019,19:05:31.683,$GPGGA,190531,3747.2009,N,12223.0589,W,2,09,00.9,20.3,M,-28.0,M,06.0,0211*68
07/01/2019,19:05:32.660,$GPGGA,190532,3747.2009,N,12223.0589,W,2,09,00.9,20.3,M,-28.0,M,07.0,0211*6A
07/01/2019,19:05:33.755,$GPGGA,190533,3747.2009,N,12223.0588,W,2,09,00.9,20.3,M,-28.0,M,08.0,0211*65
07/01/2019,19:05:34.667,$GPGGA,190534,3747.2009,N,12223.0588,W,2,09,00.9,20.3,M,-28.0,M,09.0,0211*63
07/01/2019,19:05:35.722,$GPGGA,190535,3747.2009,N,12223.0588,W,2,08,01.0,20.3,M,-28.0,M,05.0,0211*67
07/01/2019,19:05:36.713,$GPGGA,190536,3747.2009,N,12223.0588,W,2,08,01.0,20.3,M,-28.0,M,05.0,0211*64
07/01/2019,19:05:37.805,$GPGGA,190537,3747.2009,N,12223.0588,W,2,08,01.0,20.3,M,-28.0,M,05.0,0211*65
07/01/2019,19:05:38.696,$GPGGA,190538,3747.2009,N,12223.0589,W,2,08,01.0,20.3,M,-28.0,M,06.0,0211*68
07/01/2019,19:05:39.732,$GPGGA,190539,3747.2009,N,12223.0589,W,2,08,01.0,20.3,M,-28.0,M,06.0,0211*69
07/01/2019,19:05:40.713,$GPGGA,190540,3747.2009,N,12223.0589,W,2,08,01.0,20.3,M,-28.0,M,05.0,0211*64
07/01/2019,19:05:41.794,$GPGGA,190541,3747.2009,N,12223.0589,W,2,08,01.0,20.3,M,-28.0,M,05.0,0211*65
07/01/2019,19:05:42.706,$GPGGA,190542,3747.2009,N,12223.0589,W,2,08,01.0,20.3,M,-28.0,M,04.0,0211*67
07/01/2019,19:05:43.672,$GPGGA,190543,3747.2009,N,12223.0589,W,2,08,01.0,20.3,M,-28.0,M,05.0,0211*67
07/01/2019,19:05:44.664,$GPGGA,190544,3747.2009,N,12223.0589,W,2,09,00.9,20.3,M,-28.0,M,06.0,0211*6A
07/01/2019,19:05:45.757,$GPGGA,190545,3747.2009,N,12223.0589,W,2,09,00.9,20.3,M,-28.0,M,05.0,0211*68
07/01/2019,19:05:46.657,$GPGGA,190546,3747.2009,N,12223.0589,W,2,09,00.9,20.3,M,-28.0,M,05.0,0211*6B
07/01/2019,19:05:47.693,$GPGGA,190547,3747.2009,N,12223.0589,W,2,09,00.9,20.3,M,-28.0,M,06.0,0211*69
07/01/2019,19:05:48.663,$GPGGA,190548,3747.2009,N,12223.0589,W,2,09,00.9,20.3,M,-28.0,M,06.0,0211*66
07/01/2019,19:05:49.745,$GPGGA,190549,3747.2009,N,12223.0589,W,2,09,00.9,20.3,M,-28.0,M,07.0,0211*66
