06/13/2019,00:00:01.454,$GPGGA,000000,4437.5829,N,12402.9432,W,2,09,00.9,19.0,M,-22.1,M,12.0,0302*60
06/13/2019,00:00:02.750,$GPGGA,000001,4437.5829,N,12402.9432,W,2,09,00.9,19.0,M,-22.1,M,10.0,0302*63
06/13/2019,00:00:03.466,$GPGGA,000002,4437.5829,N,12402.9432,W,2,09,00.9,19.0,M,-22.1,M,11.0,0302*61
06/13/2019,00:00:04.445,$GPGGA,000003,4437.5829,N,12402.9432,W,2,09,00.9,19.0,M,-22.1,M,12.0,0302*63
06/13/2019,00:00:05.339,$GPGGA,000004,4437.5829,N,12402.9432,W,2,09,00.9,19.0,M,-22.1,M,10.0,0302*66
06/13/2019,00:00:06.391,$GPGGA,000005,4437.5829,N,12402.9432,W,2,09,00.9,19.0,M,-22.1,M,11.0,0302*66
06/13/2019,00:00:07.460,$GPGGA,000006,4437.5829,N,12402.9432,W,2,09,00.9,19.0,M,-22.1,M,12.0,0302*66
06/13/2019,00:00:08.404,$GPGGA,000007,4437.5829,N,12402.9432,W,2,09,00.9,19.0,M,-22.1,M,10.0,0302*65
06/13/2019,00:00:09.489,$GPGGA,000008,4437.5829,N,12402.9432,W,2,09,00.9,19.0,M,-22.1,M,11.0,0302*6B
06/13/2019,00:00:10.900,$GPGGA,000009,4437.5829,N,12402.9432,W,2,09,00.9,19.0,M,-22.1,M,12.0,0302*69
06/13/2019,00:00:11.629,$GPGGA,000010,4437.5829,N,12402.9432,W,2,09,00.9,19.0,M,-22.1,M,10.0,0302*63
06/13/2019,00:00:12.720,$GPGGA,000011,4437.5829,N,12402.9432,W,2,09,00.9,19.0,M,-22.1,M,11.0,0302*63
06/13/2019,00:00:13.490,$GPGGA,000012,4437.5829,N,12402.9432,W,2,09,00.9,19.0,M,-22.1,M,12.0,0302*63
06/13/2019,00:00:14.520,$GPGGA,000013,4437.5829,N,12402.9432,W,2,09,00.9,19.0,M,-22.1,M,13.0,0302*63
06/13/2019,00:00:15.928,$GPGGA,000014,4437.5829,N,12402.9432,W,2,09,00.9,19.0,M,-22.1,M,14.0,0302*63
06/13/2019,00:00:16.610,$GPGGA,000015,4437.5829,N,12402.9432,W,2,09,00.9,19.0,M,-22.1,M,15.0,0302*63
06/13/2019,00:00:17.790,$GPGGA,000016,4437.5829,N,12402.9432,W,2,09,00.9,19.0,M,-22.1,M,13.0,0302*66
06/13/2019,00:00:18.343,$GPGGA,000017,4437.5829,N,12402.9432,W,2,09,00.9,19.0,M,-22.1,M,14.0,0302*60
06/13/2019,00:00:19.666,$GPGGA,000018,4437.5829,N,12402.9432,W,2,09,00.9,19.0,M,-22.1,M,15.0,0302*6E
06/13/2019,00:00:20.404,$GPGGA,000019,4437.5829,N,12402.9432,W,2,09,00.9,19.0,M,-22.1,M,13.0,0302*69
06/13/2019,00:00:21.549,$GPGGA,000020,4437.5829,N,12402.9432,W,2,09,00.9,18.9,M,-22.1,M,14.0,0302*6C
06/13/2019,00:00:22.902,$GPGGA,000021,4437.5829,N,12402.9432,W,2,09,00.9,18.9,M,-22.1,M,15.0,0302*6C
06/13/2019,00:00:23.855,$GPGGA,000022,4437.5829,N,12402.9432,W,2,09,00.9,18.9,M,-22.1,M,10.0,0302*6A
06/13/2019,00:00:25.297,$GPGGA,000024,4437.5830,N,12402.9432,W,2,09,00.9,18.9,M,-22.1,M,12.0,0302*66
06/13/2019,00:00:26.539,$GPGGA,000025,4437.5830,N,12402.9432,W,2,09,00.9,18.9,M,-22.1,M,10.0,0302*65
06/13/2019,00:00:27.392,$GPGGA,000026,4437.5830,N,12402.9432,W,2,09,00.9,18.9,M,-22.1,M,11.0,0302*67
06/13/2019,00:00:28.481,$GPGGA,000027,4437.5830,N,12402.9432,W,2,09,00.9,18.9,M,-22.1,M,09.0,0302*6F
06/13/2019,00:00:29.801,$GPGGA,000028,4437.5830,N,12402.9432,W,2,09,00.9,18.9,M,-22.1,M,10.0,0302*68
06/13/2019,00:00:30.616,$GPGGA,000029,4437.5830,N,12402.9432,W,2,09,00.9,18.9,M,-22.1,M,11.0,0302*68
06/13/2019,00:00:32.661,$GPGGA,000031,4437.5830,N,12402.9432,W,2,09,00.9,18.9,M,-22.1,M,10.0,0302*60
06/13/2019,00:00:33.821,$GPGGA,000032,4437.5830,N,12402.9432,W,2,09,00.9,18.9,M,-22.1,M,11.0,0302*62
06/13/2019,00:00:35.198,$GPGGA,000034,4437.5830,N,12402.9432,W,2,09,00.9,18.9,M,-22.1,M,10.0,0302*65
06/13/2019,00:00:36.549,$GPGGA,000035,4437.5830,N,12402.9432,W,2,09,00.9,18.9,M,-22.1,M,11.0,0302*65
06/13/2019,00:00:37.742,$GPGGA,000036,4437.5830,N,12402.9432,W,2,09,00.9,18.9,M,-22.1,M,10.0,0302*67
06/13/2019,00:00:38.468,$GPGGA,000037,4437.5830,N,12402.9432,W,2,09,00.9,18.9,M,-22.1,M,11.0,0302*67
06/13/2019,00:00:39.310,$GPGGA,000038,4437.5830,N,12402.9432,W,2,09,00.9,18.9,M,-22.1,M,09.0,0302*61
06/13/2019,00:00:40.550,$GPGGA,000039,4437.5830,N,12402.9432,W,2,09,00.9,18.9,M,-22.1,M,10.0,0302*68
06/13/2019,00:00:41.742,$GPGGA,000040,4437.5830,N,12402.9432,W,2,09,00.9,18.9,M,-22.1,M,08.0,0302*6F
06/13/2019,00:00:42.467,$GPGGA,000041,4437.5830,N,12402.9432,W,2,09,00.9,18.9,M,-22.1,M,09.0,0302*6F
06/13/2019,00:00:43.597,$GPGGA,000042,4437.5830,N,12402.9432,W,2,09,00.9,18.9,M,-22.1,M,09.0,0302*6C
06/13/2019,00:00:44.627,$GPGGA,000043,4437.5830,N,12402.9432,W,2,09,00.9,18.9,M,-22.1,M,10.0,0302*65
06/13/2019,00:00:45.485,$GPGGA,000044,4437.5830,N,12402.9432,W,2,09,00.9,18.9,M,-22.1,M,08.0,0302*6B
06/13/2019,00:00:47.591,$GPGGA,000045,4437.5830,N,12402.9432,W,2,09,00.9,18.9,M,-22.1,M,09.0,0302*6B
06/13/2019,00:00:47.591,$GPGGA,000046,4437.5830,N,12402.9432,W,2,09,00.9,18.9,M,-22.1,M,10.0,0302*60
06/13/2019,00:00:48.491,$GPGGA,000047,4437.5830,N,12402.9432,W,2,09,00.9,18.9,M,-22.1,M,10.0,0302*61
06/13/2019,00:00:49.800,$GPGGA,000048,4437.5830,N,12402.9432,W,2,09,00.9,18.9,M,-22.1,M,11.0,0302*6F
06/13/2019,00:00:50.530,$GPGGA,000049,4437.5830,N,12402.9432,W,2,09,00.9,18.9,M,-22.1,M,08.0,0302*66
06/13/2019,00:00:51.497,$GPGGA,000050,4437.5830,N,12402.9432,W,2,09,00.9,18.9,M,-22.1,M,09.0,0302*6F
06/13/2019,00:00:52.552,$GPGGA,000051,4437.5830,N,12402.9432,W,2,09,00.9,18.9,M,-22.1,M,10.0,0302*66
06/13/2019,00:00:53.798,$GPGGA,000052,4437.5830,N,12402.9432,W,2,09,00.9,18.9,M,-22.1,M,11.0,0302*64
06/13/2019,00:00:54.529,$GPGGA,000053,4437.5830,N,12402.9432,W,2,09,00.9,18.9,M,-22.1,M,08.0,0302*6D
06/13/2019,00:00:55.347,$GPGGA,000054,4437.5830,N,12402.9432,W,2,09,00.9,18.9,M,-22.1,M,09.0,0302*6B
06/13/2019,00:00:56.552,$GPGGA,000055,4437.5830,N,12402.9432,W,2,09,00.9,19.0,M,-22.1,M,10.0,0302*6A
06/13/2019,00:00:57.850,$GPGGA,000056,4437.5830,N,12402.9432,W,2,09,00.9,19.0,M,-22.1,M,11.0,0302*68
06/13/2019,00:00:58.579,$GPGGA,000057,4437.5830,N,12402.9432,W,2,09,00.9,19.0,M,-22.1,M,12.0,0302*6A
06/13/2019,00:01:00.458,$GPGGA,000059,4437.5830,N,12402.9432,W,2,09,00.9,19.0,M,-22.1,M,10.0,0302*66
06/13/2019,00:01:01.841,$GPGGA,000100,4437.5830,N,12402.9432,W,2,09,00.9,19.0,M,-22.1,M,11.0,0302*6A
06/13/2019,00:01:02.454,$GPGGA,000101,4437.5830,N,12402.9431,W,2,09,00.9,19.0,M,-22.1,M,08.0,0302*60
06/13/2019,00:01:03.787,$GPGGA,000102,4437.5830,N,12402.9431,W,2,09,00.9,19.0,M,-22.1,M,09.0,0302*62
06/13/2019,00:01:04.349,$GPGGA,000103,4437.5830,N,12402.9431,W,2,09,00.9,19.0,M,-22.1,M,08.0,0302*62
06/13/2019,00:01:05.947,$GPGGA,000104,4437.5830,N,12402.9431,W,2,09,00.9,19.0,M,-22.1,M,09.0,0302*64
06/13/2019,00:01:06.573,$GPGGA,000105,4437.5830,N,12402.9431,W,2,09,00.9,19.0,M,-22.1,M,10.0,0302*6D
06/13/2019,00:01:07.718,$GPGGA,000106,4437.5830,N,12402.9431,W,2,09,00.9,19.0,M,-22.1,M,10.0,0302*6E
06/13/2019,00:01:08.351,$GPGGA,000107,4437.5830,N,12402.9431,W,2,09,00.9,19.0,M,-22.1,M,11.0,0302*6E
06/13/2019,00:01:09.547,$GPGGA,000108,4437.5830,N,12402.9431,W,2,09,00.9,19.0,M,-22.1,M,12.0,0302*62
06/13/2019,00:01:10.852,$GPGGA,000109,4437.5830,N,12402.9431,W,2,09,00.9,19.0,M,-22.1,M,13.0,0302*62
06/13/2019,00:01:11.584,$GPGGA,000110,4437.5830,N,12402.9431,W,2,09,00.9,19.0,M,-22.1,M,14.0,0302*6D
06/13/2019,00:01:12.451,$GPGGA,000111,4437.5830,N,12402.9431,W,2,09,00.9,19.0,M,-22.1,M,15.0,0302*6D
06/13/2019,00:01:13.900,$GPGGA,000112,4437.5830,N,12402.9431,W,2,09,00.9,19.0,M,-22.1,M,12.0,0302*69
06/13/2019,00:01:14.505,$GPGGA,000113,4437.5830,N,12402.9431,W,2,09,00.9,19.0,M,-22.1,M,13.0,0302*69
06/13/2019,00:01:15.368,$GPGGA,000114,4437.5830,N,12402.9431,W,2,09,00.9,19.0,M,-22.1,M,11.0,0302*6C
06/13/2019,00:01:16.573,$GPGGA,000115,4437.5830,N,12402.9431,W,2,09,00.9,19.0,M,-22.1,M,12.0,0302*6E
06/13/2019,00:01:17.892,$GPGGA,000116,4437.5830,N,12402.9431,W,2,09,00.9,19.0,M,-22.1,M,08.0,0302*66
06/13/2019,00:01:18.519,$GPGGA,000117,4437.5830,N,12402.9431,W,2,09,00.9,19.0,M,-22.1,M,09.0,0302*66
06/13/2019,00:01:19.369,$GPGGA,000118,4437.5830,N,12402.9431,W,2,09,00.9,19.0,M,-22.1,M,10.0,0302*61
06/13/2019,00:01:20.574,$GPGGA,000119,4437.5830,N,12402.9431,W,2,09,00.9,19.0,M,-22.1,M,10.0,0302*60
06/13/2019,00:01:21.528,$GPGGA,000120,4437.5830,N,12402.9431,W,2,09,00.9,19.0,M,-22.1,M,11.0,0302*6B
06/13/2019,00:01:22.565,$GPGGA,000121,4437.5830,N,12402.9431,W,2,09,00.9,19.0,M,-22.1,M,12.0,0302*69
06/13/2019,00:01:23.419,$GPGGA,000122,4437.5830,N,12402.9431,W,2,09,00.9,19.0,M,-22.1,M,09.0,0302*60
06/13/2019,00:01:24.302,$GPGGA,000123,4437.5830,N,12402.9431,W,2,09,00.9,19.0,M,-22.1,M,10.0,0302*69
06/13/2019,00:01:25.881,$GPGGA,000124,4437.5830,N,12402.9431,W,2,09,00.9,19.0,M,-22.1,M,11.0,0302*6F
06/13/2019,00:01:26.297,$GPGGA,000125,4437.5830,N,12402.9431,W,2,09,00.9,19.0,M,-22.1,M,10.0,0302*6F
06/13/2019,00:01:27.640,$GPGGA,000126,4437.5830,N,12402.9431,W,2,09,00.9,19.0,M,-22.1,M,11.0,0302*6D
06/13/2019,00:01:28.913,$GPGGA,000127,4437.5830,N,12402.9431,W,2,09,00.9,19.0,M,-22.1,M,12.0,0302*6F
06/13/2019,00:01:29.252,$GPGGA,000128,4437.5830,N,12402.9431,W,2,09,00.9,19.0,M,-22.1,M,10.0,0302*62
06/13/2019,00:01:30.346,$GPGGA,000129,4437.5830,N,12402.9431,W,2,09,00.9,19.0,M,-22.1,M,11.0,0302*62
06/13/2019,00:01:31.581,$GPGGA,000130,4437.5830,N,12402.9431,W,2,09,00.9,19.0,M,-22.1,M,08.0,0302*62
06/13/2019,00:01:32.399,$GPGGA,000131,4437.5830,N,12402.9431,W,2,09,00.9,19.0,M,-22.1,M,09.0,0302*62
06/13/2019,00:01:33.892,$GPGGA,000132,4437.5830,N,12402.9431,W,2,09,00.9,19.0,M,-22.1,M,10.0,0302*69
06/13/2019,00:01:34.533,$GPGGA,000133,4437.5830,N,12402.9431,W,2,09,00.9,19.0,M,-22.1,M,11.0,0302*69
06/13/2019,00:01:35.590,$GPGGA,000134,4437.5830,N,12402.9431,W,2,09,00.9,19.0,M,-22.1,M,12.0,0302*6D
06/13/2019,00:01:36.969,$GPGGA,000135,4437.5830,N,12402.9431,W,2,09,00.9,19.0,M,-22.1,M,11.0,0302*6F
06/13/2019,00:01:37.616,$GPGGA,000136,4437.5830,N,12402.9431,W,2,09,00.9,19.0,M,-22.1,M,12.0,0302*6F
06/13/2019,00:01:38.393,$GPGGA,000137,4437.5830,N,12402.9431,W,2,09,00.9,19.0,M,-22.1,M,12.0,0302*6E
06/13/2019,00:01:39.930,$GPGGA,000138,4437.5830,N,12402.9431,W,2,09,00.9,19.0,M,-22.1,M,13.0,0302*60
06/13/2019,00:01:40.611,$GPGGA,000139,4437.5830,N,12402.9431,W,2,09,00.9,19.0,M,-22.1,M,10.0,0302*62
06/13/2019,00:01:41.793,$GPGGA,000140,4437.5830,N,12402.9431,W,2,09,00.9,19.0,M,-22.1,M,11.0,0302*6D
06/13/2019,00:01:42.363,$GPGGA,000141,4437.5830,N,12402.9432,W,2,09,00.9,19.0,M,-22.1,M,12.0,0302*6C
06/13/2019,00:01:43.779,$GPGGA,000142,4437.5830,N,12402.9432,W,2,09,00.9,19.0,M,-22.1,M,13.0,0302*6E
06/13/2019,00:01:44.915,$GPGGA,000143,4437.5830,N,12402.9432,W,2,09,00.9,19.0,M,-22.1,M,14.0,0302*68
06/13/2019,00:01:45.681,$GPGGA,000144,4437.5830,N,12402.9432,W,2,09,00.9,19.0,M,-22.1,M,15.0,0302*6E
06/13/2019,00:01:46.394,$GPGGA,000145,4437.5830,N,12402.9432,W,2,09,00.9,18.9,M,-22.1,M,12.0,0302*60
06/13/2019,00:01:47.930,$GPGGA,000146,4437.5830,N,12402.9432,W,2,09,00.9,19.0,M,-22.1,M,13.0,0302*6A
06/13/2019,00:01:48.611,$GPGGA,000147,4437.5830,N,12402.9432,W,2,09,00.9,19.0,M,-22.1,M,14.0,0302*6C
06/13/2019,00:01:49.792,$GPGGA,000148,4437.5830,N,12402.9431,W,2,09,00.9,19.0,M,-22.1,M,13.0,0302*67
06/13/2019,00:01:50.395,$GPGGA,000149,4437.5830,N,12402.9432,W,2,09,00.9,19.0,M,-22.1,M,14.0,0302*62
06/13/2019,00:01:51.434,$GPGGA,000150,4437.5830,N,12402.9432,W,2,09,00.9,19.0,M,-22.1,M,12.0,0302*6C
06/13/2019,00:01:52.577,$GPGGA,000151,4437.5830,N,12402.9432,W,2,09,00.9,19.0,M,-22.1,M,13.0,0302*6C
06/13/2019,00:01:53.443,$GPGGA,000152,4437.5830,N,12402.9432,W,2,09,00.9,19.0,M,-22.1,M,14.0,0302*68
06/13/2019,00:01:54.570,$GPGGA,000153,4437.5830,N,12402.9432,W,2,09,00.9,19.0,M,-22.1,M,12.0,0302*6F
06/13/2019,00:01:55.370,$GPGGA,000154,4437.5830,N,12402.9432,W,2,09,00.9,19.0,M,-22.1,M,13.0,0302*69
06/13/2019,00:01:56.574,$GPGGA,000155,4437.5830,N,12402.9432,W,2,09,00.9,19.0,M,-22.1,M,11.0,0302*6A
06/13/2019,00:01:57.342,$GPGGA,000156,4437.5830,N,12402.9432,W,2,09,00.9,19.0,M,-22.1,M,12.0,0302*6A
06/13/2019,00:01:58.405,$GPGGA,000157,4437.5830,N,12402.9432,W,2,09,00.9,19.0,M,-22.1,M,11.0,0302*68
06/13/2019,00:01:59.820,$GPGGA,000158,4437.5830,N,12402.9432,W,2,09,00.9,19.0,M,-22.1,M,12.0,0302*64
06/13/2019,00:02:00.548,$GPGGA,000159,4437.5830,N,12402.9432,W,2,09,00.9,19.0,M,-22.1,M,13.0,0302*64
06/13/2019,00:02:01.743,$GPGGA,000200,4437.5830,N,12402.9432,W,2,09,00.9,19.0,M,-22.1,M,11.0,0302*69
06/13/2019,00:02:02.204,$GPGGA,000201,4437.5830,N,12402.9432,W,2,09,00.9,19.0,M,-22.1,M,12.0,0302*6B
06/13/2019,00:02:03.659,$GPGGA,000202,4437.5830,N,12402.9432,W,2,09,00.9,18.9,M,-22.1,M,13.0,0302*61
06/13/2019,00:02:04.867,$GPGGA,000203,4437.5830,N,12402.9432,W,2,09,00.9,18.9,M,-22.1,M,13.0,0302*60
06/13/2019,00:02:05.659,$GPGGA,000204,4437.5830,N,12402.9432,W,2,09,00.9,18.9,M,-22.1,M,14.0,0302*60
06/13/2019,00:02:06.565,$GPGGA,000205,4437.5830,N,12402.9432,W,2,09,00.9,18.9,M,-22.1,M,11.0,0302*64
06/13/2019,00:02:07.770,$GPGGA,000206,4437.5830,N,12402.9432,W,2,09,00.9,18.9,M,-22.1,M,12.0,0302*64
06/13/2019,00:02:08.452,$GPGGA,000207,4437.5830,N,12402.9432,W,2,09,00.9,18.9,M,-22.1,M,10.0,0302*67
06/13/2019,00:02:09.443,$GPGGA,000208,4437.5830,N,12402.9432,W,2,09,00.9,18.9,M,-22.1,M,11.0,0302*69
06/13/2019,00:02:10.257,$GPGGA,000209,4437.5830,N,12402.9432,W,2,09,00.9,18.9,M,-22.1,M,10.0,0302*69
06/13/2019,00:02:11.589,$GPGGA,000210,4437.5830,N,12402.9432,W,2,09,00.9,18.9,M,-22.1,M,11.0,0302*60
06/13/2019,00:02:12.957,$GPGGA,000211,4437.5830,N,12402.9432,W,2,09,00.9,18.9,M,-22.1,M,11.0,0302*61
06/13/2019,00:02:13.457,$GPGGA,000212,4437.5830,N,12402.9432,W,2,09,00.9,18.9,M,-22.1,M,12.0,0302*61
06/13/2019,00:02:14.699,$GPGGA,000213,4437.5830,N,12402.9432,W,2,09,00.9,18.9,M,-22.1,M,13.0,0302*61
06/13/2019,00:02:15.432,$GPGGA,000214,4437.5830,N,12402.9432,W,2,09,00.9,18.9,M,-22.1,M,11.0,0302*64
06/13/2019,00:02:16.576,$GPGGA,000215,4437.5830,N,12402.9432,W,2,09,00.9,18.9,M,-22.1,M,12.0,0302*66
06/13/2019,00:02:17.444,$GPGGA,000216,4437.5830,N,12402.9432,W,2,09,00.9,18.9,M,-22.1,M,13.0,0302*64
06/13/2019,00:02:18.569,$GPGGA,000217,4437.5830,N,12402.9432,W,2,09,00.9,18.9,M,-22.1,M,13.0,0302*65
06/13/2019,00:02:19.874,$GPGGA,000218,4437.5830,N,12402.9432,W,2,09,00.9,18.9,M,-22.1,M,14.0,0302*6D
06/13/2019,00:02:20.569,$GPGGA,000219,4437.5830,N,12402.9432,W,2,09,00.9,18.9,M,-22.1,M,15.0,0302*6D
06/13/2019,00:02:21.443,$GPGGA,000220,4437.5830,N,12402.9432,W,2,09,00.9,18.9,M,-22.1,M,12.0,0302*60
06/13/2019,00:02:22.562,$GPGGA,000221,4437.5830,N,12402.9432,W,2,09,00.9,18.9,M,-22.1,M,13.0,0302*60
06/13/2019,00:02:23.770,$GPGGA,000222,4437.5830,N,12402.9432,W,2,09,00.9,18.9,M,-22.1,M,11.0,0302*61
06/13/2019,00:02:24.687,$GPGGA,000223,4437.5830,N,12402.9432,W,2,09,00.9,18.9,M,-22.1,M,12.0,0302*63
06/13/2019,00:02:25.444,$GPGGA,000224,4437.5830,N,12402.9432,W,2,09,00.9,18.9,M,-22.1,M,13.0,0302*65
06/13/2019,00:02:26.366,$GPGGA,000225,4437.5830,N,12402.9432,W,2,09,00.9,18.9,M,-22.1,M,11.0,0302*66
06/13/2019,00:02:27.599,$GPGGA,000226,4437.5830,N,12402.9432,W,2,09,00.9,18.9,M,-22.1,M,12.0,0302*66
06/13/2019,00:02:28.913,$GPGGA,000227,4437.5830,N,12402.9432,W,2,09,00.9,18.9,M,-22.1,M,13.0,0302*66
06/13/2019,00:02:29.695,$GPGGA,000228,4437.5830,N,12402.9432,W,2,09,00.9,18.9,M,-22.1,M,14.0,0302*6E
06/13/2019,00:02:30.349,$GPGGA,000229,4437.5830,N,12402.9432,W,2,09,00.9,18.9,M,-22.1,M,15.0,0302*6E
06/13/2019,00:02:31.881,$GPGGA,000230,4437.5830,N,12402.9432,W,2,09,00.9,18.9,M,-22.1,M,12.0,0302*61
06/13/2019,00:02:32.604,$GPGGA,000231,4437.5830,N,12402.9432,W,2,09,00.9,18.9,M,-22.1,M,13.0,0302*61
06/13/2019,00:02:33.708,$GPGGA,000232,4437.5830,N,12402.9431,W,2,09,00.9,18.9,M,-22.1,M,11.0,0302*63
06/13/2019,00:02:34.299,$GPGGA,000233,4437.5830,N,12402.9431,W,2,09,00.9,18.9,M,-22.1,M,12.0,0302*61
06/13/2019,00:02:35.722,$GPGGA,000234,4437.5830,N,12402.9431,W,2,09,00.9,18.9,M,-22.1,M,13.0,0302*67
06/13/2019,00:02:36.651,$GPGGA,000235,4437.5830,N,12402.9432,W,2,09,00.9,18.9,M,-22.1,M,11.0,0302*67
06/13/2019,00:02:37.455,$GPGGA,000236,4437.5830,N,12402.9431,W,2,09,00.9,18.9,M,-22.1,M,12.0,0302*64
06/13/2019,00:02:38.396,$GPGGA,000237,4437.5830,N,12402.9431,W,2,09,00.9,18.9,M,-22.1,M,13.0,0302*64
06/13/2019,00:02:39.933,$GPGGA,000238,4437.5830,N,12402.9431,W,2,09,00.9,18.9,M,-22.1,M,14.0,0302*6C
06/13/2019,00:02:40.488,$GPGGA,000239,4437.5830,N,12402.9431,W,2,09,00.9,18.9,M,-22.1,M,15.0,0302*6C
06/13/2019,00:02:41.649,$GPGGA,000240,4437.5830,N,12402.9431,W,2,09,00.9,18.9,M,-22.1,M,12.0,0302*65
06/13/2019,00:02:42.703,$GPGGA,000241,4437.5830,N,12402.9431,W,2,09,00.9,18.9,M,-22.1,M,13.0,0302*65
06/13/2019,00:02:43.920,$GPGGA,000242,4437.5830,N,12402.9432,W,2,09,00.9,18.9,M,-22.1,M,14.0,0302*62
06/13/2019,00:02:44.569,$GPGGA,000243,4437.5830,N,12402.9432,W,2,09,00.9,18.9,M,-22.1,M,12.0,0302*65
06/13/2019,00:02:45.444,$GPGGA,000244,4437.5830,N,12402.9432,W,2,09,00.9,18.9,M,-22.1,M,13.0,0302*63
06/13/2019,00:02:46.347,$GPGGA,000245,4437.5830,N,12402.9432,W,2,09,00.9,18.9,M,-22.1,M,14.0,0302*65
06/13/2019,00:02:47.907,$GPGGA,000246,4437.5830,N,12402.9432,W,2,09,00.9,18.9,M,-22.1,M,13.0,0302*61
06/13/2019,00:02:48.606,$GPGGA,000247,4437.5830,N,12402.9432,W,2,09,00.9,18.9,M,-22.1,M,14.0,0302*67
06/13/2019,00:02:49.708,$GPGGA,000248,4437.5830,N,12402.9432,W,2,09,00.9,18.9,M,-22.1,M,15.0,0302*69
06/13/2019,00:02:50.300,$GPGGA,000249,4437.5830,N,12402.9432,W,2,09,00.9,18.9,M,-22.1,M,13.0,0302*6E
06/13/2019,00:02:51.632,$GPGGA,000250,4437.5830,N,12402.9432,W,2,09,00.9,18.9,M,-22.1,M,14.0,0302*61
06/13/2019,00:02:53.158,$GPGGA,000251,4437.5830,N,12402.9432,W,2,09,00.9,18.9,M,-22.1,M,15.0,0302*61
06/13/2019,00:02:53.459,$GPGGA,000252,4437.5830,N,12402.9432,W,2,09,00.9,18.9,M,-22.1,M,13.0,0302*64
06/13/2019,00:02:54.397,$GPGGA,000253,4437.5831,N,12402.9432,W,2,09,00.9,18.9,M,-22.1,M,14.0,0302*63
06/13/2019,00:02:55.822,$GPGGA,000254,4437.5831,N,12402.9432,W,2,09,00.9,18.9,M,-22.1,M,15.0,0302*65
06/13/2019,00:02:56.533,$GPGGA,000255,4437.5831,N,12402.9432,W,2,09,00.9,18.9,M,-22.1,M,13.0,0302*62
06/13/2019,00:02:57.521,$GPGGA,000256,4437.5831,N,12402.9432,W,2,09,00.9,18.9,M,-22.1,M,14.0,0302*66
06/13/2019,00:02:58.562,$GPGGA,000257,4437.5831,N,12402.9432,W,2,09,00.9,18.9,M,-22.1,M,15.0,0302*66
06/13/2019,00:02:59.830,$GPGGA,000258,4437.5831,N,12402.9432,W,2,09,00.9,18.9,M,-22.1,M,13.0,0302*6F
06/13/2019,00:03:00.516,$GPGGA,000259,4437.5831,N,12402.9432,W,2,09,00.9,18.9,M,-22.1,M,14.0,0302*69
06/13/2019,00:03:01.496,$GPGGA,000300,4437.5831,N,12402.9432,W,2,09,00.9,18.9,M,-22.1,M,15.0,0302*65
06/13/2019,00:03:02.926,$GPGGA,000301,4437.5831,N,12402.9432,W,2,09,00.9,18.9,M,-22.1,M,13.0,0302*62
06/13/2019,00:03:04.087,$GPGGA,000302,4437.5831,N,12402.9432,W,2,09,00.9,18.8,M,-22.1,M,14.0,0302*67
06/13/2019,00:03:04.403,$GPGGA,000303,4437.5831,N,12402.9432,W,2,09,00.9,18.8,M,-22.1,M,15.0,0302*67
06/13/2019,00:03:05.903,$GPGGA,000304,4437.5831,N,12402.9432,W,2,09,00.9,18.8,M,-22.1,M,10.0,0302*65
06/13/2019,00:03:06.515,$GPGGA,000305,4437.5831,N,12402.9432,W,2,09,00.9,18.8,M,-22.1,M,11.0,0302*65
06/13/2019,00:03:07.672,$GPGGA,000306,4437.5831,N,12402.9432,W,2,09,00.9,18.8,M,-22.1,M,12.0,0302*65
06/13/2019,00:03:08.403,$GPGGA,000307,4437.5831,N,12402.9432,W,2,09,00.9,18.8,M,-22.1,M,13.0,0302*65
06/13/2019,00:03:09.522,$GPGGA,000308,4437.5831,N,12402.9432,W,2,09,00.9,18.8,M,-22.1,M,14.0,0302*6D
06/13/2019,00:03:10.919,$GPGGA,000309,4437.5831,N,12402.9432,W,2,09,00.9,18.8,M,-22.1,M,15.0,0302*6D
06/13/2019,00:03:11.624,$GPGGA,000310,4437.5831,N,12402.9432,W,2,09,00.9,18.8,M,-22.1,M,13.0,0302*63
06/13/2019,00:03:12.355,$GPGGA,000311,4437.5831,N,12402.9432,W,2,09,00.9,18.8,M,-22.1,M,14.0,0302*65
06/13/2019,00:03:13.446,$GPGGA,000312,4437.5831,N,12402.9432,W,2,09,00.9,18.8,M,-22.1,M,15.0,0302*67
06/13/2019,00:03:14.260,$GPGGA,000313,4437.5831,N,12402.9432,W,2,09,00.9,18.8,M,-22.1,M,13.0,0302*60
06/13/2019,00:03:15.592,$GPGGA,000314,4437.5831,N,12402.9432,W,2,09,00.9,18.7,M,-22.1,M,14.0,0302*6F
06/13/2019,00:03:16.354,$GPGGA,000315,4437.5831,N,12402.9432,W,2,09,00.9,18.7,M,-22.1,M,15.0,0302*6F
06/13/2019,00:03:17.674,$GPGGA,000316,4437.5831,N,12402.9432,W,2,09,00.9,18.7,M,-22.1,M,16.0,0302*6F
06/13/2019,00:03:18.348,$GPGGA,000317,4437.5831,N,12402.9432,W,2,09,00.9,18.7,M,-22.1,M,14.0,0302*6C
06/13/2019,00:03:19.630,$GPGGA,000318,4437.5831,N,12402.9432,W,2,09,00.9,18.7,M,-22.1,M,15.0,0302*62
06/13/2019,00:03:20.354,$GPGGA,000319,4437.5831,N,12402.9432,W,2,09,00.9,18.7,M,-22.1,M,16.0,0302*60
06/13/2019,00:03:21.665,$GPGGA,000320,4437.5831,N,12402.9432,W,2,09,00.9,18.7,M,-22.1,M,14.0,0302*68
06/13/2019,00:03:22.350,$GPGGA,000321,4437.5831,N,12402.9432,W,2,09,00.9,18.7,M,-22.1,M,15.0,0302*68
06/13/2019,00:03:23.591,$GPGGA,000322,4437.5831,N,12402.9432,W,2,09,00.9,18.7,M,-22.1,M,16.0,0302*68
06/13/2019,00:03:24.355,$GPGGA,000323,4437.5831,N,12402.9432,W,2,09,00.9,18.7,M,-22.1,M,14.0,0302*6B
06/13/2019,00:03:25.247,$GPGGA,000324,4437.5831,N,12402.9432,W,2,09,00.9,18.7,M,-22.1,M,15.0,0302*6D
06/13/2019,00:03:26.399,$GPGGA,000325,4437.5831,N,12402.9432,W,2,09,00.9,18.7,M,-22.1,M,16.0,0302*6F
06/13/2019,00:03:27.925,$GPGGA,000326,4437.5831,N,12402.9433,W,2,09,00.9,18.7,M,-22.1,M,10.0,0302*6B
06/13/2019,00:03:29.404,$GPGGA,000328,4437.5831,N,12402.9433,W,2,09,00.9,18.7,M,-22.1,M,12.0,0302*67
06/13/2019,00:03:30.799,$GPGGA,000329,4437.5832,N,12402.9433,W,2,09,00.9,18.7,M,-22.1,M,13.0,0302*64
06/13/2019,00:03:31.409,$GPGGA,000330,4437.5832,N,12402.9433,W,2,09,00.9,18.7,M,-22.1,M,10.0,0302*6F
06/13/2019,00:03:32.377,$GPGGA,000331,4437.5832,N,12402.9433,W,2,09,00.9,18.7,M,-22.1,M,11.0,0302*6F
06/13/2019,00:03:33.854,$GPGGA,000332,4437.5832,N,12402.9433,W,2,09,00.9,18.7,M,-22.1,M,10.0,0302*6D
06/13/2019,00:03:34.687,$GPGGA,000333,4437.5832,N,12402.9433,W,2,09,00.9,18.7,M,-22.1,M,11.0,0302*6D
06/13/2019,00:03:35.811,$GPGGA,000334,4437.5832,N,12402.9433,W,2,09,00.9,18.7,M,-22.1,M,12.0,0302*69
06/13/2019,00:03:37.374,$GPGGA,000336,4437.5832,N,12402.9433,W,2,09,00.9,18.7,M,-22.1,M,13.0,0302*6A
06/13/2019,00:03:38.585,$GPGGA,000337,4437.5832,N,12402.9433,W,2,09,00.9,18.7,M,-22.1,M,14.0,0302*6C
06/13/2019,00:03:39.525,$GPGGA,000338,4437.5832,N,12402.9433,W,2,09,00.9,18.7,M,-22.1,M,11.0,0302*66
06/13/2019,00:03:40.568,$GPGGA,000339,4437.5832,N,12402.9433,W,2,09,00.9,18.7,M,-22.1,M,12.0,0302*64
06/13/2019,00:03:41.274,$GPGGA,000340,4437.5832,N,12402.9433,W,2,09,00.9,18.7,M,-22.1,M,13.0,0302*6B
06/13/2019,00:03:42.716,$GPGGA,000341,4437.5832,N,12402.9433,W,2,09,00.9,18.7,M,-22.1,M,12.0,0302*6B
06/13/2019,00:03:43.799,$GPGGA,000342,4437.5832,N,12402.9433,W,2,09,00.9,18.7,M,-22.1,M,13.0,0302*69
06/13/2019,00:03:45.564,$GPGGA,000344,4437.5832,N,12402.9433,W,2,09,00.9,18.7,M,-22.1,M,09.0,0302*64
06/13/2019,00:03:46.887,$GPGGA,000345,4437.5832,N,12402.9433,W,2,09,00.9,18.7,M,-22.1,M,10.0,0302*6D
06/13/2019,00:03:47.651,$GPGGA,000346,4437.5832,N,12402.9433,W,2,09,00.9,18.7,M,-22.1,M,11.0,0302*6F
06/13/2019,00:03:48.847,$GPGGA,000347,4437.5832,N,12402.9433,W,2,09,00.9,18.7,M,-22.1,M,12.0,0302*6D
06/13/2019,00:03:50.702,$GPGGA,000349,4437.5832,N,12402.9433,W,2,09,00.9,18.7,M,-22.1,M,14.0,0302*65
06/13/2019,00:03:51.374,$GPGGA,000350,4437.5832,N,12402.9433,W,2,09,00.9,18.7,M,-22.1,M,12.0,0302*6B
06/13/2019,00:03:52.585,$GPGGA,000351,4437.5832,N,12402.9433,W,2,09,00.9,18.7,M,-22.1,M,13.0,0302*6B
06/13/2019,00:03:53.608,$GPGGA,000352,4437.5832,N,12402.9433,W,2,09,00.9,18.7,M,-22.1,M,11.0,0302*6A
06/13/2019,00:03:54.859,$GPGGA,000353,4437.5832,N,12402.9433,W,2,09,00.9,18.7,M,-22.1,M,12.0,0302*68
06/13/2019,00:03:55.580,$GPGGA,000354,4437.5832,N,12402.9433,W,2,09,00.9,18.6,M,-22.1,M,10.0,0302*6C
06/13/2019,00:03:56.416,$GPGGA,000355,4437.5832,N,12402.9433,W,2,09,00.9,18.6,M,-22.1,M,11.0,0302*6C
06/13/2019,00:03:57.399,$GPGGA,000356,4437.5832,N,12402.9433,W,2,09,00.9,18.6,M,-22.1,M,12.0,0302*6C
06/13/2019,00:03:58.603,$GPGGA,000357,4437.5832,N,12402.9433,W,2,09,00.9,18.6,M,-22.1,M,11.0,0302*6E
06/13/2019,00:03:59.832,$GPGGA,000358,4437.5832,N,12402.9433,W,2,09,00.9,18.6,M,-22.1,M,12.0,0302*62
06/13/2019,00:04:00.518,$GPGGA,000359,4437.5832,N,12402.9433,W,2,09,00.9,18.6,M,-22.1,M,13.0,0302*62
06/13/2019,00:04:02.498,$GPGGA,000401,4437.5832,N,12402.9433,W,2,09,00.9,18.6,M,-22.1,M,14.0,0302*6F
06/13/2019,00:04:04.387,$GPGGA,000402,4437.5832,N,12402.9433,W,2,09,00.9,18.6,M,-22.1,M,15.0,0302*6D
06/13/2019,00:04:04.654,$GPGGA,000403,4437.5832,N,12402.9433,W,2,09,00.9,18.6,M,-22.1,M,09.0,0302*61
06/13/2019,00:04:05.367,$GPGGA,000404,4437.5832,N,12402.9433,W,2,09,00.9,18.6,M,-22.1,M,10.0,0302*6E
06/13/2019,00:04:06.669,$GPGGA,000405,4437.5832,N,12402.9433,W,2,09,00.9,18.6,M,-22.1,M,08.0,0302*66
06/13/2019,00:04:07.401,$GPGGA,000406,4437.5832,N,12402.9433,W,2,09,00.9,18.6,M,-22.1,M,09.0,0302*64
06/13/2019,00:04:08.426,$GPGGA,000407,4437.5832,N,12402.9433,W,2,09,00.9,18.6,M,-22.1,M,10.0,0302*6D
06/13/2019,00:04:09.807,$GPGGA,000408,4437.5832,N,12402.9433,W,2,09,00.9,18.6,M,-22.1,M,09.0,0302*6A
06/13/2019,00:04:10.641,$GPGGA,000409,4437.5832,N,12402.9433,W,2,09,00.9,18.6,M,-22.1,M,10.0,0302*63
06/13/2019,00:04:11.566,$GPGGA,000410,4437.5832,N,12402.9433,W,2,09,00.9,18.6,M,-22.1,M,11.0,0302*6A
06/13/2019,00:04:12.377,$GPGGA,000411,4437.5832,N,12402.9433,W,2,09,00.9,18.6,M,-22.1,M,12.0,0302*68
06/13/2019,00:04:13.860,$GPGGA,000412,4437.5832,N,12402.9433,W,2,09,00.9,18.6,M,-22.1,M,13.0,0302*6A
06/13/2019,00:04:14.685,$GPGGA,000413,4437.5833,N,12402.9433,W,2,09,00.9,18.6,M,-22.1,M,14.0,0302*6D
06/13/2019,00:04:15.700,$GPGGA,000414,4437.5833,N,12402.9433,W,2,09,00.9,18.6,M,-22.1,M,14.0,0302*6A
06/13/2019,00:04:16.426,$GPGGA,000415,4437.5833,N,12402.9433,W,2,09,00.9,18.6,M,-22.1,M,15.0,0302*6A
06/13/2019,00:04:17.307,$GPGGA,000416,4437.5833,N,12402.9433,W,2,09,00.9,18.6,M,-22.1,M,16.0,0302*6A
06/13/2019,00:04:18.677,$GPGGA,000417,4437.5833,N,12402.9433,W,2,09,00.9,18.6,M,-22.1,M,13.0,0302*6E
06/13/2019,00:04:19.709,$GPGGA,000418,4437.5833,N,12402.9433,W,2,09,00.9,18.6,M,-22.1,M,14.0,0302*66
06/13/2019,00:04:20.325,$GPGGA,000419,4437.5833,N,12402.9433,W,2,09,00.9,18.6,M,-22.1,M,15.0,0302*66
06/13/2019,00:04:21.355,$GPGGA,000420,4437.5833,N,12402.9433,W,2,09,00.9,18.6,M,-22.1,M,10.0,0302*69
06/13/2019,00:04:22.679,$GPGGA,000421,4437.5833,N,12402.9433,W,2,09,00.9,18.6,M,-22.1,M,11.0,0302*69
06/13/2019,00:04:23.401,$GPGGA,000422,4437.5833,N,12402.9433,W,2,09,00.9,18.7,M,-22.1,M,12.0,0302*68
06/13/2019,00:04:24.426,$GPGGA,000423,4437.5833,N,12402.9433,W,2,09,00.9,18.7,M,-22.1,M,10.0,0302*6B
06/13/2019,00:04:26.020,$GPGGA,000424,4437.5833,N,12402.9433,W,2,09,00.9,18.7,M,-22.1,M,11.0,0302*6D
06/13/2019,00:04:26.360,$GPGGA,000425,4437.5833,N,12402.9433,W,2,10,00.8,18.7,M,-22.1,M,18.0,0302*6C
06/13/2019,00:04:27.352,$GPGGA,000426,4437.5833,N,12402.9433,W,2,10,00.8,18.7,M,-22.1,M,19.0,0302*6E
06/13/2019,00:04:28.378,$GPGGA,000427,4437.5833,N,12402.9433,W,2,10,00.8,18.6,M,-22.1,M,20.0,0302*64
06/13/2019,00:04:29.877,$GPGGA,000428,4437.5833,N,12402.9433,W,2,10,00.8,18.6,M,-22.1,M,21.0,0302*6A
06/13/2019,00:04:30.784,$GPGGA,000429,4437.5833,N,12402.9433,W,2,09,00.9,18.6,M,-22.1,M,10.0,0302*60
06/13/2019,00:04:31.701,$GPGGA,000430,4437.5833,N,12402.9433,W,2,09,00.9,18.6,M,-22.1,M,11.0,0302*69
06/13/2019,00:04:33.758,$GPGGA,000432,4437.5833,N,12402.9433,W,2,09,00.9,18.6,M,-22.1,M,10.0,0302*6A
06/13/2019,00:04:34.709,$GPGGA,000433,4437.5833,N,12402.9432,W,2,09,00.9,18.6,M,-22.1,M,11.0,0302*6B
06/13/2019,00:04:35.510,$GPGGA,000434,4437.5833,N,12402.9432,W,2,09,00.9,18.5,M,-22.1,M,12.0,0302*6C
06/13/2019,00:04:36.566,$GPGGA,000435,4437.5833,N,12402.9432,W,2,09,00.9,18.5,M,-22.1,M,10.0,0302*6F
06/13/2019,00:04:37.776,$GPGGA,000436,4437.5833,N,12402.9432,W,2,09,00.9,18.4,M,-22.1,M,11.0,0302*6C
06/13/2019,00:04:38.459,$GPGGA,000437,4437.5833,N,12402.9432,W,2,09,00.9,18.4,M,-22.1,M,12.0,0302*6E
06/13/2019,00:04:39.504,$GPGGA,000438,4437.5833,N,12402.9432,W,2,09,00.9,18.4,M,-22.1,M,10.0,0302*63
06/13/2019,00:04:40.402,$GPGGA,000439,4437.5833,N,12402.9432,W,2,09,00.9,18.4,M,-22.1,M,11.0,0302*63
06/13/2019,00:04:41.886,$GPGGA,000440,4437.5833,N,12402.9432,W,2,09,00.9,18.5,M,-22.1,M,12.0,0302*6F
06/13/2019,00:04:42.541,$GPGGA,000441,4437.5833,N,12402.9432,W,2,09,00.9,18.5,M,-22.1,M,10.0,0302*6C
06/13/2019,00:04:43.800,$GPGGA,000442,4437.5833,N,12402.9432,W,2,09,00.9,18.5,M,-22.1,M,11.0,0302*6E
06/13/2019,00:04:44.403,$GPGGA,000443,4437.5833,N,12402.9432,W,2,09,00.9,18.5,M,-22.1,M,12.0,0302*6C
06/13/2019,00:04:45.444,$GPGGA,000444,4437.5833,N,12402.9432,W,2,09,00.9,18.6,M,-22.1,M,10.0,0302*6A
06/13/2019,00:04:46.424,$GPGGA,000445,4437.5833,N,12402.9432,W,2,09,00.9,18.6,M,-22.1,M,11.0,0302*6A
06/13/2019,00:04:48.270,$GPGGA,000446,4437.5833,N,12402.9432,W,2,09,00.9,18.6,M,-22.1,M,12.0,0302*6A
06/13/2019,00:04:48.845,$GPGGA,000447,4437.5833,N,12402.9432,W,2,09,00.9,18.6,M,-22.1,M,10.0,0302*69
06/13/2019,00:04:49.628,$GPGGA,000448,4437.5833,N,12402.9432,W,2,09,00.9,18.6,M,-22.1,M,11.0,0302*67
06/13/2019,00:04:50.359,$GPGGA,000449,4437.5833,N,12402.9432,W,2,09,00.9,18.6,M,-22.1,M,09.0,0302*6F
06/13/2019,00:04:52.033,$GPGGA,000450,4437.5833,N,12402.9432,W,2,09,00.9,18.6,M,-22.1,M,10.0,0302*6F
06/13/2019,00:04:53.562,$GPGGA,000452,4437.5833,N,12402.9432,W,2,09,00.9,18.7,M,-22.1,M,09.0,0302*64
06/13/2019,00:04:54.783,$GPGGA,000453,4437.5833,N,12402.9432,W,2,09,00.9,18.7,M,-22.1,M,08.0,0302*64
06/13/2019,00:04:55.460,$GPGGA,000454,4437.5833,N,12402.9432,W,2,09,00.9,18.7,M,-22.1,M,09.0,0302*62
06/13/2019,00:04:56.451,$GPGGA,000455,4437.5833,N,12402.9432,W,2,09,00.9,18.7,M,-22.1,M,10.0,0302*6B
06/13/2019,00:04:57.577,$GPGGA,000456,4437.5833,N,12402.9432,W,2,09,00.9,18.7,M,-22.1,M,11.0,0302*69
06/13/2019,00:04:58.461,$GPGGA,000457,4437.5833,N,12402.9432,W,2,09,00.9,18.7,M,-22.1,M,08.0,0302*60
06/13/2019,00:04:59.575,$GPGGA,000458,4437.5832,N,12402.9432,W,2,09,00.9,18.7,M,-22.1,M,09.0,0302*6F
06/13/2019,00:05:00.451,$GPGGA,000459,4437.5832,N,12402.9432,W,2,09,00.9,18.7,M,-22.1,M,10.0,0302*66
06/13/2019,00:05:01.853,$GPGGA,000500,4437.5832,N,12402.9432,W,2,09,00.9,18.7,M,-22.1,M,10.0,0302*6B
06/13/2019,00:05:02.590,$GPGGA,000501,4437.5832,N,12402.9432,W,2,09,00.9,18.7,M,-22.1,M,11.0,0302*6B
06/13/2019,00:05:03.574,$GPGGA,000502,4437.5832,N,12402.9432,W,2,09,00.9,18.7,M,-22.1,M,12.0,0302*6B
06/13/2019,00:05:04.353,$GPGGA,000503,4437.5831,N,12402.9432,W,2,09,00.9,18.7,M,-22.1,M,10.0,0302*6B
06/13/2019,00:05:05.567,$GPGGA,000504,4437.5831,N,12402.9432,W,2,09,00.9,18.7,M,-22.1,M,11.0,0302*6D
06/13/2019,00:05:06.784,$GPGGA,000505,4437.5832,N,12402.9432,W,2,09,00.9,18.7,M,-22.1,M,12.0,0302*6C
06/13/2019,00:05:07.461,$GPGGA,000506,4437.5832,N,12402.9432,W,2,09,00.9,18.7,M,-22.1,M,10.0,0302*6D
06/13/2019,00:05:08.502,$GPGGA,000507,4437.5832,N,12402.9432,W,2,09,00.9,18.6,M,-22.1,M,11.0,0302*6C
06/13/2019,00:05:09.810,$GPGGA,000508,4437.5832,N,12402.9432,W,2,09,00.9,18.6,M,-22.1,M,12.0,0302*60
06/13/2019,00:05:10.567,$GPGGA,000509,4437.5832,N,12402.9432,W,2,09,00.9,18.6,M,-22.1,M,09.0,0302*6B
06/13/2019,00:05:11.574,$GPGGA,000510,4437.5832,N,12402.9432,W,2,09,00.9,18.6,M,-22.1,M,10.0,0302*6B
06/13/2019,00:05:12.453,$GPGGA,000511,4437.5832,N,12402.9432,W,2,10,00.8,18.6,M,-22.1,M,11.0,0302*62
06/13/2019,00:05:13.568,$GPGGA,000512,4437.5833,N,12402.9432,W,2,10,00.8,18.6,M,-22.1,M,12.0,0302*63
06/13/2019,00:05:15.655,$GPGGA,000514,4437.5833,N,12402.9432,W,2,10,00.8,18.6,M,-22.1,M,12.0,0302*65
06/13/2019,00:05:16.359,$GPGGA,000515,4437.5833,N,12402.9432,W,2,10,00.8,18.6,M,-22.1,M,10.0,0302*66
06/13/2019,00:05:17.961,$GPGGA,000516,4437.5833,N,12402.9432,W,2,10,00.8,18.6,M,-22.1,M,11.0,0302*64
06/13/2019,00:05:18.591,$GPGGA,000517,4437.5833,N,12402.9432,W,2,10,00.8,18.6,M,-22.1,M,12.0,0302*66
06/13/2019,00:05:19.633,$GPGGA,000518,4437.5833,N,12402.9432,W,2,10,00.8,18.6,M,-22.1,M,12.0,0302*69
06/13/2019,00:05:20.359,$GPGGA,000519,4437.5833,N,12402.9432,W,2,10,00.8,18.6,M,-22.1,M,13.0,0302*69
06/13/2019,00:05:21.963,$GPGGA,000520,4437.5833,N,12402.9432,W,2,10,00.8,18.6,M,-22.1,M,14.0,0302*64
06/13/2019,00:05:22.725,$GPGGA,000521,4437.5833,N,12402.9432,W,2,10,00.8,18.6,M,-22.1,M,12.0,0302*63
06/13/2019,00:05:23.812,$GPGGA,000522,4437.5833,N,12402.9432,W,2,10,00.8,18.6,M,-22.1,M,13.0,0302*61
06/13/2019,00:05:24.360,$GPGGA,000523,4437.5833,N,12402.9432,W,2,10,00.8,18.6,M,-22.1,M,14.0,0302*67
06/13/2019,00:05:25.963,$GPGGA,000524,4437.5833,N,12402.9432,W,2,10,00.8,18.6,M,-22.1,M,12.0,0302*66
06/13/2019,00:05:27.574,$GPGGA,000526,4437.5833,N,12402.9432,W,2,10,00.8,18.6,M,-22.1,M,14.0,0302*62
06/13/2019,00:05:28.281,$GPGGA,000527,4437.5833,N,12402.9432,W,2,10,00.8,18.6,M,-22.1,M,12.0,0302*65
06/13/2019,00:05:29.703,$GPGGA,000528,4437.5833,N,12402.9432,W,2,10,00.8,18.6,M,-22.1,M,13.0,0302*6B
06/13/2019,00:05:30.525,$GPGGA,000529,4437.5833,N,12402.9432,W,2,10,00.8,18.6,M,-22.1,M,14.0,0302*6D
06/13/2019,00:05:31.449,$GPGGA,000530,4437.5833,N,12402.9432,W,2,10,00.8,18.6,M,-22.1,M,12.0,0302*63
06/13/2019,00:05:32.726,$GPGGA,000531,4437.5833,N,12402.9432,W,2,10,00.8,18.7,M,-22.1,M,13.0,0302*62
06/13/2019,00:05:33.358,$GPGGA,000532,4437.5833,N,12402.9432,W,2,10,00.8,18.7,M,-22.1,M,14.0,0302*66
06/13/2019,00:05:34.679,$GPGGA,000533,4437.5833,N,12402.9432,W,2,10,00.8,18.7,M,-22.1,M,12.0,0302*61
06/13/2019,00:05:35.613,$GPGGA,000534,4437.5833,N,12402.9432,W,2,10,00.8,18.7,M,-22.1,M,13.0,0302*67
06/13/2019,00:05:36.593,$GPGGA,000535,4437.5833,N,12402.9432,W,2,10,00.8,18.7,M,-22.1,M,14.0,0302*61
06/13/2019,00:05:37.759,$GPGGA,000536,4437.5833,N,12402.9432,W,2,10,00.8,18.7,M,-22.1,M,12.0,0302*64
06/13/2019,00:05:38.555,$GPGGA,000537,4437.5833,N,12402.9432,W,2,10,00.8,18.7,M,-22.1,M,13.0,0302*64
06/13/2019,00:05:39.455,$GPGGA,000538,4437.5833,N,12402.9432,W,2,10,00.8,18.7,M,-22.1,M,14.0,0302*6C
06/13/2019,00:05:40.528,$GPGGA,000539,4437.5833,N,12402.9432,W,2,10,00.8,18.7,M,-22.1,M,12.0,0302*6B
06/13/2019,00:05:41.818,$GPGGA,000540,4437.5833,N,12402.9432,W,2,10,00.8,18.7,M,-22.1,M,13.0,0302*64
06/13/2019,00:05:42.751,$GPGGA,000541,4437.5833,N,12402.9432,W,2,10,00.8,18.7,M,-22.1,M,14.0,0302*62
06/13/2019,00:05:43.354,$GPGGA,000542,4437.5833,N,12402.9432,W,2,10,00.8,18.7,M,-22.1,M,12.0,0302*67
06/13/2019,00:05:44.614,$GPGGA,000543,4437.5833,N,12402.9432,W,2,10,00.8,18.7,M,-22.1,M,13.0,0302*67
06/13/2019,00:05:45.360,$GPGGA,000544,4437.5833,N,12402.9432,W,2,10,00.8,18.7,M,-22.1,M,14.0,0302*67
06/13/2019,00:05:46.683,$GPGGA,000545,4437.5833,N,12402.9432,W,2,10,00.8,18.7,M,-22.1,M,12.0,0302*60
06/13/2019,00:05:47.355,$GPGGA,000546,4437.5833,N,12402.9432,W,2,10,00.8,18.7,M,-22.1,M,13.0,0302*62
06/13/2019,00:05:48.381,$GPGGA,000547,4437.5833,N,12402.9432,W,2,10,00.8,18.7,M,-22.1,M,14.0,0302*64
06/13/2019,00:05:49.872,$GPGGA,000548,4437.5833,N,12402.9432,W,2,10,00.8,18.7,M,-22.1,M,12.0,0302*6D
06/13/2019,00:05:50.827,$GPGGA,000549,4437.5833,N,12402.9432,W,2,10,00.8,18.7,M,-22.1,M,13.0,0302*6D
06/13/2019,00:05:51.705,$GPGGA,000550,4437.5833,N,12402.9432,W,2,10,00.8,18.7,M,-22.1,M,14.0,0302*62
06/13/2019,00:05:52.431,$GPGGA,000551,4437.5833,N,12402.9432,W,2,10,00.8,18.7,M,-22.1,M,12.0,0302*65
06/13/2019,00:05:53.610,$GPGGA,000552,4437.5833,N,12402.9432,W,2,10,00.8,18.7,M,-22.1,M,13.0,0302*67
06/13/2019,00:05:54.528,$GPGGA,000553,4437.5833,N,12402.9432,W,2,10,00.8,18.7,M,-22.1,M,14.0,0302*61
06/13/2019,00:05:56.053,$GPGGA,000554,4437.5833,N,12402.9433,W,2,10,00.8,18.7,M,-22.1,M,12.0,0302*61
06/13/2019,00:05:56.600,$GPGGA,000555,4437.5833,N,12402.9433,W,2,10,00.8,18.7,M,-22.1,M,13.0,0302*61
06/13/2019,00:05:58.590,$GPGGA,000557,4437.5833,N,12402.9433,W,2,10,00.8,18.8,M,-22.1,M,12.0,0302*6D
06/13/2019,00:05:59.477,$GPGGA,000558,4437.5833,N,12402.9433,W,2,10,00.8,18.8,M,-22.1,M,13.0,0302*63
06/13/2019,00:06:00.570,$GPGGA,000559,4437.5833,N,12402.9432,W,2,10,00.8,18.8,M,-22.1,M,14.0,0302*64
06/13/2019,00:06:01.780,$GPGGA,000600,4437.5833,N,12402.9432,W,2,10,00.8,18.8,M,-22.1,M,12.0,0302*6D
06/13/2019,00:06:02.464,$GPGGA,000601,4437.5833,N,12402.9432,W,2,10,00.8,18.8,M,-22.1,M,13.0,0302*6D
06/13/2019,00:06:03.911,$GPGGA,000602,4437.5833,N,12402.9432,W,2,10,00.8,18.8,M,-22.1,M,14.0,0302*69
06/13/2019,00:06:04.517,$GPGGA,000603,4437.5833,N,12402.9432,W,2,10,00.8,18.8,M,-22.1,M,12.0,0302*6E
06/13/2019,00:06:05.430,$GPGGA,000604,4437.5833,N,12402.9432,W,2,10,00.8,18.8,M,-22.1,M,13.0,0302*68
06/13/2019,00:06:07.024,$GPGGA,000605,4437.5833,N,12402.9432,W,2,10,00.8,18.8,M,-22.1,M,14.0,0302*6E
06/13/2019,00:06:07.364,$GPGGA,000606,4437.5833,N,12402.9432,W,2,10,00.8,18.8,M,-22.1,M,12.0,0302*6B
06/13/2019,00:06:08.570,$GPGGA,000607,4437.5833,N,12402.9432,W,2,10,00.8,18.8,M,-22.1,M,13.0,0302*6B
06/13/2019,00:06:09.781,$GPGGA,000608,4437.5833,N,12402.9432,W,2,10,00.8,18.8,M,-22.1,M,14.0,0302*63
06/13/2019,00:06:11.269,$GPGGA,000610,4437.5833,N,12402.9432,W,2,09,00.8,18.9,M,-22.1,M,13.0,0302*64
06/13/2019,00:06:12.808,$GPGGA,000611,4437.5833,N,12402.9432,W,2,09,00.8,19.0,M,-22.1,M,14.0,0302*6A
06/13/2019,00:06:13.406,$GPGGA,000612,4437.5833,N,12402.9432,W,2,09,00.8,19.0,M,-22.1,M,12.0,0302*6F
06/13/2019,00:06:14.431,$GPGGA,000613,4437.5834,N,12402.9432,W,2,09,00.8,19.1,M,-22.1,M,13.0,0302*69
06/13/2019,00:06:16.025,$GPGGA,000614,4437.5834,N,12402.9432,W,2,09,00.8,19.1,M,-22.1,M,14.0,0302*69
06/13/2019,00:06:16.364,$GPGGA,000615,4437.5834,N,12402.9432,W,2,09,00.8,19.1,M,-22.1,M,12.0,0302*6E
06/13/2019,00:06:17.578,$GPGGA,000616,4437.5834,N,12402.9432,W,2,09,00.8,19.1,M,-22.1,M,13.0,0302*6C
06/13/2019,00:06:18.527,$GPGGA,000617,4437.5834,N,12402.9432,W,2,09,00.8,19.1,M,-22.1,M,14.0,0302*6A
06/13/2019,00:06:19.609,$GPGGA,000618,4437.5834,N,12402.9432,W,2,09,00.8,19.2,M,-22.1,M,12.0,0302*60
06/13/2019,00:06:20.456,$GPGGA,000619,4437.5834,N,12402.9432,W,2,09,00.8,19.2,M,-22.1,M,13.0,0302*60
06/13/2019,00:06:21.511,$GPGGA,000620,4437.5834,N,12402.9432,W,2,09,00.8,19.2,M,-22.1,M,14.0,0302*6D
06/13/2019,00:06:22.439,$GPGGA,000621,4437.5834,N,12402.9432,W,2,09,00.8,19.2,M,-22.1,M,12.0,0302*6A
06/13/2019,00:06:23.421,$GPGGA,000622,4437.5834,N,12402.9432,W,2,09,00.8,19.2,M,-22.1,M,13.0,0302*68
06/13/2019,00:06:25.343,$GPGGA,000623,4437.5834,N,12402.9432,W,2,09,00.8,19.3,M,-22.1,M,14.0,0302*6F
06/13/2019,00:06:25.656,$GPGGA,000624,4437.5834,N,12402.9432,W,2,09,00.8,19.3,M,-22.1,M,12.0,0302*6E
06/13/2019,00:06:26.335,$GPGGA,000625,4437.5834,N,12402.9432,W,2,09,00.8,19.3,M,-22.1,M,13.0,0302*6E
06/13/2019,00:06:27.623,$GPGGA,000626,4437.5834,N,12402.9432,W,2,09,00.8,19.4,M,-22.1,M,14.0,0302*6D
06/13/2019,00:06:28.913,$GPGGA,000627,4437.5834,N,12402.9432,W,2,09,00.8,19.4,M,-22.1,M,09.0,0302*60
06/13/2019,00:06:29.664,$GPGGA,000628,4437.5834,N,12402.9432,W,2,09,00.8,19.4,M,-22.1,M,10.0,0302*67
06/13/2019,00:06:30.432,$GPGGA,000629,4437.5834,N,12402.9432,W,2,09,00.8,19.4,M,-22.1,M,11.0,0302*67
06/13/2019,00:06:31.412,$GPGGA,000630,4437.5834,N,12402.9432,W,2,09,00.8,19.4,M,-22.1,M,12.0,0302*6C
06/13/2019,00:06:33.124,$GPGGA,000631,4437.5834,N,12402.9432,W,2,09,00.8,19.5,M,-22.1,M,13.0,0302*6D
06/13/2019,00:06:33.463,$GPGGA,000632,4437.5834,N,12402.9432,W,2,09,00.8,19.5,M,-22.1,M,14.0,0302*69
06/13/2019,00:06:34.613,$GPGGA,000633,4437.5834,N,12402.9432,W,2,09,00.8,19.5,M,-22.1,M,15.0,0302*69
06/13/2019,00:06:35.702,$GPGGA,000634,4437.5834,N,12402.9432,W,2,09,00.8,19.5,M,-22.1,M,16.0,0302*6D
06/13/2019,00:06:36.505,$GPGGA,000635,4437.5834,N,12402.9432,W,2,09,00.8,19.5,M,-22.1,M,17.0,0302*6D
06/13/2019,00:06:37.306,$GPGGA,000636,4437.5834,N,12402.9432,W,2,09,00.8,19.6,M,-22.1,M,18.0,0302*62
06/13/2019,00:06:38.602,$GPGGA,000637,4437.5834,N,12402.9432,W,2,09,00.8,19.6,M,-22.1,M,16.0,0302*6D
06/13/2019,00:06:39.361,$GPGGA,000638,4437.5834,N,12402.9432,W,2,09,00.8,19.6,M,-22.1,M,17.0,0302*63
06/13/2019,00:06:40.695,$GPGGA,000639,4437.5834,N,12402.9432,W,2,09,00.8,19.6,M,-22.1,M,18.0,0302*6D
06/13/2019,00:06:41.337,$GPGGA,000640,4437.5834,N,12402.9432,W,2,09,00.8,19.6,M,-22.1,M,16.0,0302*6D
06/13/2019,00:06:42.432,$GPGGA,000641,4437.5834,N,12402.9432,W,2,09,00.8,19.7,M,-22.1,M,17.0,0302*6C
06/13/2019,00:06:44.486,$GPGGA,000642,4437.5833,N,12402.9432,W,2,09,00.8,19.7,M,-22.1,M,09.0,0302*67
06/13/2019,00:06:44.487,$GPGGA,000643,4437.5833,N,12402.9432,W,2,09,00.8,19.7,M,-22.1,M,10.0,0302*6E
06/13/2019,00:06:45.707,$GPGGA,000644,4437.5833,N,12402.9432,W,2,09,00.8,19.8,M,-22.1,M,11.0,0302*67
06/13/2019,00:06:46.433,$GPGGA,000645,4437.5833,N,12402.9432,W,2,09,00.8,19.8,M,-22.1,M,12.0,0302*65
06/13/2019,00:06:47.414,$GPGGA,000646,4437.5833,N,12402.9432,W,2,09,00.8,19.8,M,-22.1,M,13.0,0302*67
06/13/2019,00:06:49.328,$GPGGA,000647,4437.5833,N,12402.9432,W,2,09,00.8,19.8,M,-22.1,M,11.0,0302*64
06/13/2019,00:06:49.695,$GPGGA,000648,4437.5833,N,12402.9432,W,2,09,00.8,19.9,M,-22.1,M,12.0,0302*69
06/13/2019,00:06:50.594,$GPGGA,000649,4437.5833,N,12402.9432,W,2,09,00.8,19.9,M,-22.1,M,13.0,0302*69
06/13/2019,00:06:51.662,$GPGGA,000650,4437.5833,N,12402.9432,W,2,09,00.8,19.9,M,-22.1,M,14.0,0302*66
06/13/2019,00:06:52.906,$GPGGA,000651,4437.5833,N,12402.9432,W,2,09,00.8,19.9,M,-22.1,M,15.0,0302*66
06/13/2019,00:06:54.310,$GPGGA,000653,4437.5833,N,12402.9432,W,2,09,00.8,19.9,M,-22.1,M,17.0,0302*66
06/13/2019,00:06:55.633,$GPGGA,000654,4437.5833,N,12402.9432,W,2,08,00.9,20.0,M,-22.1,M,18.0,0302*6D
06/13/2019,00:06:56.763,$GPGGA,000655,4437.5834,N,12402.9432,W,2,08,00.9,20.0,M,-22.1,M,19.0,0302*6A
06/13/2019,00:06:57.560,$GPGGA,000656,4437.5834,N,12402.9432,W,2,08,00.9,20.0,M,-22.1,M,20.0,0302*63
06/13/2019,00:06:58.407,$GPGGA,000657,4437.5834,N,12402.9432,W,2,07,01.0,20.0,M,-22.1,M,10.0,0302*66
06/13/2019,00:06:59.833,$GPGGA,000658,4437.5834,N,12402.9432,W,2,07,01.0,19.9,M,-22.1,M,11.0,0302*6B
06/13/2019,00:07:01.413,$GPGGA,000700,4437.5834,N,12402.9432,W,2,07,01.0,19.9,M,-22.1,M,09.0,0302*6E
06/13/2019,00:07:02.506,$GPGGA,000701,4437.5834,N,12402.9432,W,2,07,01.0,19.8,M,-22.1,M,10.0,0302*66
06/13/2019,00:07:03.979,$GPGGA,000702,4437.5834,N,12402.9432,W,2,07,01.0,19.8,M,-22.1,M,08.0,0302*6C
06/13/2019,00:07:04.611,$GPGGA,000703,4437.5835,N,12402.9432,W,2,07,01.0,19.8,M,-22.1,M,09.0,0302*6D
06/13/2019,00:07:05.655,$GPGGA,000704,4437.5835,N,12402.9432,W,2,07,01.0,19.8,M,-22.1,M,08.0,0302*6B
06/13/2019,00:07:06.457,$GPGGA,000705,4437.5835,N,12402.9433,W,2,07,01.0,19.7,M,-22.1,M,09.0,0302*65
06/13/2019,00:07:07.584,$GPGGA,000706,4437.5835,N,12402.9433,W,2,07,01.0,19.7,M,-22.1,M,09.0,0302*66
06/13/2019,00:07:08.384,$GPGGA,000707,4437.5835,N,12402.9433,W,2,07,01.0,19.7,M,-22.1,M,10.0,0302*6F
06/13/2019,00:07:09.846,$GPGGA,000708,4437.5835,N,12402.9433,W,2,07,01.0,19.7,M,-22.1,M,08.0,0302*69
06/13/2019,00:07:10.560,$GPGGA,000709,4437.5835,N,12402.9433,W,2,07,01.0,19.7,M,-22.1,M,09.0,0302*69
06/13/2019,00:07:11.416,$GPGGA,000710,4437.5835,N,12402.9433,W,2,07,01.0,19.7,M,-22.1,M,10.0,0302*69
06/13/2019,00:07:12.521,$GPGGA,000711,4437.5835,N,12402.9433,W,2,07,01.0,19.7,M,-22.1,M,10.0,0302*68
06/13/2019,00:07:13.414,$GPGGA,000712,4437.5835,N,12402.9433,W,2,07,01.0,19.7,M,-22.1,M,11.0,0302*6A
06/13/2019,00:07:14.410,$GPGGA,000713,4437.5835,N,12402.9433,W,2,07,01.0,19.7,M,-22.1,M,08.0,0302*63
06/13/2019,00:07:15.605,$GPGGA,000714,4437.5835,N,12402.9433,W,2,07,01.0,19.7,M,-22.1,M,09.0,0302*65
06/13/2019,00:07:16.385,$GPGGA,000715,4437.5835,N,12402.9433,W,2,07,01.0,19.7,M,-22.1,M,10.0,0302*6C
06/13/2019,00:07:17.592,$GPGGA,000716,4437.5835,N,12402.9433,W,2,07,01.0,19.7,M,-22.1,M,11.0,0302*6E
06/13/2019,00:07:18.458,$GPGGA,000717,4437.5835,N,12402.9433,W,2,07,01.0,19.7,M,-22.1,M,12.0,0302*6C
06/13/2019,00:07:19.573,$GPGGA,000718,4437.5835,N,12402.9433,W,2,07,01.0,19.7,M,-22.1,M,13.0,0302*62
06/13/2019,00:07:20.385,$GPGGA,000719,4437.5835,N,12402.9433,W,2,07,01.0,19.7,M,-22.1,M,10.0,0302*60
06/13/2019,00:07:21.764,$GPGGA,000720,4437.5835,N,12402.9433,W,2,07,01.0,19.7,M,-22.1,M,11.0,0302*6B
06/13/2019,00:07:22.577,$GPGGA,000721,4437.5835,N,12402.9433,W,2,07,01.0,19.7,M,-22.1,M,12.0,0302*69
06/13/2019,00:07:23.661,$GPGGA,000722,4437.5835,N,12402.9432,W,2,08,00.9,19.8,M,-22.1,M,13.0,0302*62
06/13/2019,00:07:24.582,$GPGGA,000723,4437.5835,N,12402.9432,W,2,08,00.9,19.9,M,-22.1,M,14.0,0302*65
06/13/2019,00:07:25.765,$GPGGA,000724,4437.5835,N,12402.9432,W,2,08,00.9,19.9,M,-22.1,M,09.0,0302*6E
06/13/2019,00:07:26.685,$GPGGA,000725,4437.5835,N,12402.9432,W,2,08,00.9,20.0,M,-22.1,M,10.0,0302*64
06/13/2019,00:07:27.410,$GPGGA,000726,4437.5835,N,12402.9432,W,2,08,00.9,20.0,M,-22.1,M,11.0,0302*66
06/13/2019,00:07:28.946,$GPGGA,000727,4437.5835,N,12402.9432,W,2,08,00.9,20.0,M,-22.1,M,09.0,0302*6E
06/13/2019,00:07:29.623,$GPGGA,000728,4437.5835,N,12402.9432,W,2,08,00.9,20.0,M,-22.1,M,10.0,0302*69
06/13/2019,00:07:30.635,$GPGGA,000729,4437.5835,N,12402.9432,W,2,08,00.9,20.0,M,-22.1,M,11.0,0302*69
06/13/2019,00:07:31.919,$GPGGA,000730,4437.5835,N,12402.9432,W,2,08,00.9,20.1,M,-22.1,M,10.0,0302*61
06/13/2019,00:07:32.646,$GPGGA,000731,4437.5835,N,12402.9432,W,2,08,00.9,20.1,M,-22.1,M,11.0,0302*61
06/13/2019,00:07:33.515,$GPGGA,000732,4437.5835,N,12402.9432,W,2,08,00.9,20.1,M,-22.1,M,09.0,0302*6B
06/13/2019,00:07:34.467,$GPGGA,000733,4437.5835,N,12402.9432,W,2,08,00.9,20.1,M,-22.1,M,10.0,0302*62
06/13/2019,00:07:35.611,$GPGGA,000734,4437.5835,N,12402.9432,W,2,08,00.9,20.1,M,-22.1,M,08.0,0302*6C
06/13/2019,00:07:36.784,$GPGGA,000735,4437.5835,N,12402.9432,W,2,08,00.9,20.1,M,-22.1,M,09.0,0302*6C
06/13/2019,00:07:37.591,$GPGGA,000736,4437.5835,N,12402.9432,W,2,08,00.9,20.1,M,-22.1,M,10.0,0302*67
06/13/2019,00:07:38.378,$GPGGA,000737,4437.5835,N,12402.9432,W,2,08,00.9,20.1,M,-22.1,M,11.0,0302*67
06/13/2019,00:07:39.891,$GPGGA,000738,4437.5835,N,12402.9432,W,2,08,00.9,20.1,M,-22.1,M,12.0,0302*6B
06/13/2019,00:07:40.338,$GPGGA,000739,4437.5835,N,12402.9432,W,2,08,00.9,20.1,M,-22.1,M,13.0,0302*6B
06/13/2019,00:07:41.582,$GPGGA,000740,4437.5835,N,12402.9432,W,2,08,00.9,20.1,M,-22.1,M,10.0,0302*66
06/13/2019,00:07:42.472,$GPGGA,000741,4437.5835,N,12402.9432,W,2,08,00.9,20.1,M,-22.1,M,11.0,0302*66
06/13/2019,00:07:43.570,$GPGGA,000742,4437.5835,N,12402.9432,W,2,08,00.9,20.1,M,-22.1,M,12.0,0302*66
06/13/2019,00:07:44.937,$GPGGA,000743,4437.5835,N,12402.9432,W,2,08,00.9,20.1,M,-22.1,M,10.0,0302*65
06/13/2019,00:07:45.471,$GPGGA,000744,4437.5835,N,12402.9432,W,2,08,00.9,20.1,M,-22.1,M,11.0,0302*63
06/13/2019,00:07:46.458,$GPGGA,000745,4437.5835,N,12402.9432,W,2,08,00.9,20.1,M,-22.1,M,12.0,0302*61
06/13/2019,00:07:47.868,$GPGGA,000746,4437.5835,N,12402.9432,W,2,08,00.9,20.1,M,-22.1,M,10.0,0302*60
06/13/2019,00:07:48.402,$GPGGA,000747,4437.5835,N,12402.9432,W,2,08,00.9,20.1,M,-22.1,M,11.0,0302*60
06/13/2019,00:07:50.416,$GPGGA,000749,4437.5835,N,12402.9432,W,2,08,00.9,20.1,M,-22.1,M,10.0,0302*6F
06/13/2019,00:07:51.940,$GPGGA,000750,4437.5835,N,12402.9432,W,2,08,00.9,20.1,M,-22.1,M,11.0,0302*66
06/13/2019,00:07:52.535,$GPGGA,000751,4437.5835,N,12402.9432,W,2,08,00.9,20.1,M,-22.1,M,09.0,0302*6E
06/13/2019,00:07:53.385,$GPGGA,000752,4437.5835,N,12402.9432,W,2,08,00.9,20.2,M,-22.1,M,10.0,0302*66
06/13/2019,00:07:54.579,$GPGGA,000753,4437.5835,N,12402.9432,W,2,08,00.9,20.2,M,-22.1,M,09.0,0302*6F
06/13/2019,00:07:55.512,$GPGGA,000754,4437.5835,N,12402.9432,W,2,08,00.9,20.2,M,-22.1,M,10.0,0302*60
06/13/2019,00:07:56.574,$GPGGA,000755,4437.5835,N,12402.9432,W,2,08,00.9,20.2,M,-22.1,M,08.0,0302*68
06/13/2019,00:07:57.785,$GPGGA,000756,4437.5835,N,12402.9432,W,2,08,00.9,20.2,M,-22.1,M,09.0,0302*6A
06/13/2019,00:07:59.266,$GPGGA,000758,4437.5835,N,12402.9432,W,2,08,00.9,20.2,M,-22.1,M,10.0,0302*6C
06/13/2019,00:08:00.510,$GPGGA,000759,4437.5835,N,12402.9432,W,2,08,00.9,20.2,M,-22.1,M,08.0,0302*64
06/13/2019,00:08:01.818,$GPGGA,000800,4437.5835,N,12402.9432,W,2,08,00.9,20.2,M,-22.1,M,09.0,0302*66
06/13/2019,00:08:02.609,$GPGGA,000801,4437.5835,N,12402.9432,W,2,08,00.9,20.2,M,-22.1,M,10.0,0302*6F
06/13/2019,00:08:04.528,$GPGGA,000803,4437.5835,N,12402.9432,W,2,08,00.9,20.2,M,-22.1,M,11.0,0302*6C
06/13/2019,00:08:05.969,$GPGGA,000804,4437.5835,N,12402.9432,W,2,08,00.9,20.2,M,-22.1,M,12.0,0302*68
06/13/2019,00:08:06.591,$GPGGA,000805,4437.5835,N,12402.9432,W,2,08,00.9,20.2,M,-22.1,M,09.0,0302*63
06/13/2019,00:08:07.736,$GPGGA,000806,4437.5835,N,12402.9432,W,2,08,00.9,20.2,M,-22.1,M,10.0,0302*68
06/13/2019,00:08:08.367,$GPGGA,000807,4437.5835,N,12402.9431,W,2,08,00.9,20.2,M,-22.1,M,08.0,0302*63
06/13/2019,00:08:09.666,$GPGGA,000808,4437.5835,N,12402.9431,W,2,08,00.9,20.2,M,-22.1,M,09.0,0302*6D
06/13/2019,00:08:10.915,$GPGGA,000809,4437.5835,N,12402.9431,W,2,08,00.9,20.2,M,-22.1,M,10.0,0302*64
06/13/2019,00:08:11.498,$GPGGA,000810,4437.5835,N,12402.9431,W,2,08,00.9,20.2,M,-22.1,M,11.0,0302*6D
06/13/2019,00:08:12.367,$GPGGA,000811,4437.5835,N,12402.9431,W,2,08,00.9,20.2,M,-22.1,M,12.0,0302*6F
06/13/2019,00:08:13.971,$GPGGA,000812,4437.5835,N,12402.9431,W,2,08,00.9,20.2,M,-22.1,M,09.0,0302*66
06/13/2019,00:08:14.595,$GPGGA,000813,4437.5835,N,12402.9431,W,2,08,00.9,20.2,M,-22.1,M,10.0,0302*6F
06/13/2019,00:08:15.736,$GPGGA,000814,4437.5835,N,12402.9431,W,2,08,00.9,20.2,M,-22.1,M,11.0,0302*69
06/13/2019,00:08:16.410,$GPGGA,000815,4437.5835,N,12402.9431,W,2,08,00.9,20.2,M,-22.1,M,09.0,0302*61
06/13/2019,00:08:17.675,$GPGGA,000816,4437.5835,N,12402.9431,W,2,08,00.9,20.2,M,-22.1,M,10.0,0302*6A
06/13/2019,00:08:18.760,$GPGGA,000817,4437.5835,N,12402.9431,W,2,08,00.9,20.2,M,-22.1,M,09.0,0302*63
06/13/2019,00:08:19.490,$GPGGA,000818,4437.5835,N,12402.9431,W,2,08,00.9,20.2,M,-22.1,M,10.0,0302*64
06/13/2019,00:08:20.366,$GPGGA,000819,4437.5835,N,12402.9432,W,2,08,00.9,20.1,M,-22.1,M,11.0,0302*64
06/13/2019,00:08:22.004,$GPGGA,000820,4437.5835,N,12402.9431,W,2,08,00.9,20.1,M,-22.1,M,09.0,0302*64
06/13/2019,00:08:22.594,$GPGGA,000821,4437.5835,N,12402.9432,W,2,08,00.9,20.1,M,-22.1,M,10.0,0302*6E
06/13/2019,00:08:23.737,$GPGGA,000822,4437.5836,N,12402.9432,W,2,08,00.9,20.1,M,-22.1,M,09.0,0302*66
06/13/2019,00:08:24.368,$GPGGA,000823,4437.5836,N,12402.9432,W,2,08,00.9,20.1,M,-22.1,M,10.0,0302*6F
06/13/2019,00:08:25.459,$GPGGA,000824,4437.5836,N,12402.9432,W,2,08,00.9,20.1,M,-22.1,M,11.0,0302*69
06/13/2019,00:08:26.870,$GPGGA,000825,4437.5836,N,12402.9431,W,2,08,00.9,20.1,M,-22.1,M,09.0,0302*62
06/13/2019,00:08:27.615,$GPGGA,000826,4437.5836,N,12402.9431,W,2,08,00.9,20.1,M,-22.1,M,10.0,0302*69
06/13/2019,00:08:28.367,$GPGGA,000827,4437.5835,N,12402.9431,W,2,08,00.9,20.1,M,-22.1,M,11.0,0302*6A
06/13/2019,00:08:29.968,$GPGGA,000828,4437.5836,N,12402.9431,W,2,08,00.9,20.1,M,-22.1,M,10.0,0302*67
06/13/2019,00:08:30.596,$GPGGA,000829,4437.5835,N,12402.9431,W,2,08,00.9,20.1,M,-22.1,M,11.0,0302*64
06/13/2019,00:08:31.737,$GPGGA,000830,4437.5835,N,12402.9431,W,2,08,00.9,20.2,M,-22.1,M,12.0,0302*6C
06/13/2019,00:08:32.369,$GPGGA,000831,4437.5835,N,12402.9431,W,2,08,00.9,20.2,M,-22.1,M,10.0,0302*6F
06/13/2019,00:08:33.666,$GPGGA,000832,4437.5835,N,12402.9431,W,2,08,00.9,20.2,M,-22.1,M,11.0,0302*6D
06/13/2019,00:08:34.812,$GPGGA,000833,4437.5835,N,12402.9431,W,2,08,00.9,20.2,M,-22.1,M,12.0,0302*6F
06/13/2019,00:08:35.492,$GPGGA,000834,4437.5835,N,12402.9431,W,2,08,00.9,20.2,M,-22.1,M,10.0,0302*6A
06/13/2019,00:08:36.368,$GPGGA,000835,4437.5834,N,12402.9431,W,2,08,00.9,20.2,M,-22.1,M,11.0,0302*6B
06/13/2019,00:08:37.969,$GPGGA,000836,4437.5834,N,12402.9431,W,2,08,00.9,20.2,M,-22.1,M,09.0,0302*61
06/13/2019,00:08:38.597,$GPGGA,000837,4437.5834,N,12402.9431,W,2,08,00.9,20.2,M,-22.1,M,10.0,0302*68
06/13/2019,00:08:39.737,$GPGGA,000838,4437.5834,N,12402.9431,W,2,08,00.9,20.2,M,-22.1,M,08.0,0302*6E
06/13/2019,00:08:40.369,$GPGGA,000839,4437.5834,N,12402.9431,W,2,08,00.9,20.2,M,-22.1,M,09.0,0302*6E
06/13/2019,00:08:41.460,$GPGGA,000840,4437.5834,N,12402.9431,W,2,08,00.9,20.2,M,-22.1,M,10.0,0302*68
06/13/2019,00:08:42.870,$GPGGA,000841,4437.5834,N,12402.9431,W,2,08,00.9,20.2,M,-22.1,M,11.0,0302*68
06/13/2019,00:08:43.618,$GPGGA,000842,4437.5834,N,12402.9431,W,2,08,00.9,20.2,M,-22.1,M,12.0,0302*68
06/13/2019,00:08:44.321,$GPGGA,000843,4437.5834,N,12402.9431,W,2,08,00.9,20.2,M,-22.1,M,13.0,0302*68
06/13/2019,00:08:45.714,$GPGGA,000844,4437.5834,N,12402.9431,W,2,08,00.9,20.2,M,-22.1,M,09.0,0302*64
06/13/2019,00:08:46.912,$GPGGA,000845,4437.5834,N,12402.9431,W,2,08,00.9,20.2,M,-22.1,M,10.0,0302*6D
06/13/2019,00:08:47.404,$GPGGA,000846,4437.5834,N,12402.9431,W,2,08,00.9,20.2,M,-22.1,M,11.0,0302*6F
06/13/2019,00:08:48.418,$GPGGA,000847,4437.5834,N,12402.9431,W,2,08,00.9,20.2,M,-22.1,M,09.0,0302*67
06/13/2019,00:08:49.491,$GPGGA,000848,4437.5834,N,12402.9431,W,2,08,00.9,20.2,M,-22.1,M,10.0,0302*60
06/13/2019,00:08:50.587,$GPGGA,000849,4437.5835,N,12402.9431,W,2,08,00.9,20.2,M,-22.1,M,11.0,0302*61
06/13/2019,00:08:51.388,$GPGGA,000850,4437.5835,N,12402.9431,W,2,08,00.9,20.2,M,-22.1,M,09.0,0302*60
06/13/2019,00:08:52.282,$GPGGA,000851,4437.5835,N,12402.9431,W,2,08,00.9,20.3,M,-22.1,M,10.0,0302*68
06/13/2019,00:08:53.550,$GPGGA,000852,4437.5835,N,12402.9431,W,2,08,00.9,20.3,M,-22.1,M,11.0,0302*6A
06/13/2019,00:08:54.582,$GPGGA,000853,4437.5835,N,12402.9431,W,2,08,00.9,20.3,M,-22.1,M,09.0,0302*62
06/13/2019,00:08:55.438,$GPGGA,000854,4437.5835,N,12402.9431,W,2,08,00.9,20.3,M,-22.1,M,10.0,0302*6D
06/13/2019,00:08:56.331,$GPGGA,000855,4437.5835,N,12402.9431,W,2,08,00.9,20.3,M,-22.1,M,11.0,0302*6D
06/13/2019,00:08:57.511,$GPGGA,000856,4437.5835,N,12402.9431,W,2,08,00.9,20.3,M,-22.1,M,09.0,0302*67
06/13/2019,00:08:58.587,$GPGGA,000857,4437.5835,N,12402.9431,W,2,08,00.9,20.2,M,-22.1,M,10.0,0302*6F
06/13/2019,00:08:59.388,$GPGGA,000858,4437.5835,N,12402.9431,W,2,08,00.9,20.2,M,-22.1,M,11.0,0302*61
06/13/2019,00:09:00.283,$GPGGA,000859,4437.5835,N,12402.9431,W,2,08,00.9,20.2,M,-22.1,M,09.0,0302*69
06/13/2019,00:09:01.626,$GPGGA,000900,4437.5835,N,12402.9431,W,2,08,00.9,20.2,M,-22.1,M,10.0,0302*6C
06/13/2019,00:09:02.589,$GPGGA,000901,4437.5835,N,12402.9431,W,2,08,00.9,20.2,M,-22.1,M,11.0,0302*6C
06/13/2019,00:09:03.438,$GPGGA,000902,4437.5835,N,12402.9431,W,2,08,00.9,20.1,M,-22.1,M,09.0,0302*65
06/13/2019,00:09:04.440,$GPGGA,000903,4437.5835,N,12402.9431,W,2,08,00.9,20.1,M,-22.1,M,10.0,0302*6C
06/13/2019,00:09:05.912,$GPGGA,000904,4437.5835,N,12402.9431,W,2,08,00.9,20.1,M,-22.1,M,08.0,0302*62
06/13/2019,00:09:06.544,$GPGGA,000905,4437.5835,N,12402.9431,W,2,08,00.9,20.1,M,-22.1,M,09.0,0302*62
06/13/2019,00:09:07.689,$GPGGA,000906,4437.5835,N,12402.9431,W,2,08,00.9,20.1,M,-22.1,M,10.0,0302*69
06/13/2019,00:09:09.505,$GPGGA,000908,4437.5835,N,12402.9431,W,2,08,00.9,20.2,M,-22.1,M,10.0,0302*64
06/13/2019,00:09:11.031,$GPGGA,000909,4437.5835,N,12402.9431,W,2,08,00.9,20.2,M,-22.1,M,11.0,0302*64
06/13/2019,00:09:11.370,$GPGGA,000910,4437.5835,N,12402.9431,W,2,08,00.9,20.2,M,-22.1,M,10.0,0302*6D
06/13/2019,00:09:12.389,$GPGGA,000911,4437.5835,N,12402.9431,W,2,08,00.9,20.2,M,-22.1,M,11.0,0302*6D
06/13/2019,00:09:13.880,$GPGGA,000912,4437.5835,N,12402.9431,W,2,08,00.9,20.2,M,-22.1,M,12.0,0302*6D
06/13/2019,00:09:14.698,$GPGGA,000913,4437.5835,N,12402.9431,W,2,08,00.9,20.2,M,-22.1,M,10.0,0302*6E
06/13/2019,00:09:15.615,$GPGGA,000914,4437.5835,N,12402.9431,W,2,08,00.9,20.2,M,-22.1,M,11.0,0302*68
06/13/2019,00:09:17.450,$GPGGA,000916,4437.5835,N,12402.9431,W,2,08,00.9,20.2,M,-22.1,M,10.0,0302*6B
06/13/2019,00:09:18.679,$GPGGA,000917,4437.5835,N,12402.9431,W,2,08,00.9,20.2,M,-22.1,M,11.0,0302*6B
06/13/2019,00:09:19.462,$GPGGA,000918,4437.5835,N,12402.9431,W,2,08,00.9,20.3,M,-22.1,M,12.0,0302*66
06/13/2019,00:09:20.575,$GPGGA,000919,4437.5835,N,12402.9430,W,2,08,00.9,20.3,M,-22.1,M,10.0,0302*64
06/13/2019,00:09:21.789,$GPGGA,000920,4437.5835,N,12402.9430,W,2,08,00.9,20.3,M,-22.1,M,11.0,0302*6F
06/13/2019,00:09:22.476,$GPGGA,000921,4437.5835,N,12402.9430,W,2,08,00.9,20.3,M,-22.1,M,12.0,0302*6D
06/13/2019,00:09:23.512,$GPGGA,000922,4437.5835,N,12402.9430,W,2,08,00.9,20.3,M,-22.1,M,10.0,0302*6C
06/13/2019,00:09:24.413,$GPGGA,000923,4437.5835,N,12402.9430,W,2,08,00.9,20.3,M,-22.1,M,11.0,0302*6C
06/13/2019,00:09:25.849,$GPGGA,000924,4437.5835,N,12402.9430,W,2,08,00.9,20.3,M,-22.1,M,09.0,0302*62
06/13/2019,00:09:26.557,$GPGGA,000925,4437.5835,N,12402.9430,W,2,08,00.9,20.3,M,-22.1,M,10.0,0302*6B
06/13/2019,00:09:27.519,$GPGGA,000926,4437.5835,N,12402.9430,W,2,08,00.9,20.3,M,-22.1,M,11.0,0302*69
06/13/2019,00:09:28.365,$GPGGA,000927,4437.5835,N,12402.9430,W,2,08,00.9,20.3,M,-22.1,M,09.0,0302*61
06/13/2019,00:09:29.901,$GPGGA,000928,4437.5835,N,12402.9430,W,2,08,00.9,20.3,M,-22.1,M,10.0,0302*66
06/13/2019,00:09:30.644,$GPGGA,000929,4437.5835,N,12402.9430,W,2,08,00.9,20.3,M,-22.1,M,11.0,0302*66
06/13/2019,00:09:31.736,$GPGGA,000930,4437.5835,N,12402.9430,W,2,08,00.9,20.3,M,-22.1,M,09.0,0302*67
06/13/2019,00:09:32.365,$GPGGA,000931,4437.5835,N,12402.9430,W,2,08,00.9,20.3,M,-22.1,M,10.0,0302*6E
06/13/2019,00:09:33.901,$GPGGA,000932,4437.5835,N,12402.9430,W,2,08,00.9,20.4,M,-22.1,M,11.0,0302*6B
06/13/2019,00:09:35.806,$GPGGA,000934,4437.5835,N,12402.9430,W,2,08,00.9,20.3,M,-22.1,M,13.0,0302*68
06/13/2019,00:09:36.463,$GPGGA,000935,4437.5835,N,12402.9430,W,2,08,00.9,20.3,M,-22.1,M,14.0,0302*6E
06/13/2019,00:09:37.580,$GPGGA,000936,4437.5835,N,12402.9430,W,2,08,00.9,20.3,M,-22.1,M,15.0,0302*6C
06/13/2019,00:09:38.789,$GPGGA,000937,4437.5835,N,12402.9430,W,2,08,00.9,20.3,M,-22.1,M,16.0,0302*6E
06/13/2019,00:09:39.478,$GPGGA,000938,4437.5835,N,12402.9430,W,2,08,00.9,20.3,M,-22.1,M,09.0,0302*6F
06/13/2019,00:09:40.464,$GPGGA,000939,4437.5835,N,12402.9430,W,2,08,00.9,20.3,M,-22.1,M,10.0,0302*66
06/13/2019,00:09:41.875,$GPGGA,000940,4437.5836,N,12402.9430,W,2,08,00.9,20.3,M,-22.1,M,11.0,0302*6A
06/13/2019,00:09:42.622,$GPGGA,000941,4437.5836,N,12402.9430,W,2,08,00.9,20.3,M,-22.1,M,09.0,0302*62
06/13/2019,00:09:43.861,$GPGGA,000942,4437.5836,N,12402.9430,W,2,08,00.9,20.3,M,-22.1,M,10.0,0302*69
06/13/2019,00:09:44.486,$GPGGA,000943,4437.5836,N,12402.9430,W,2,08,00.9,20.2,M,-22.1,M,09.0,0302*61
06/13/2019,00:09:45.875,$GPGGA,000944,4437.5836,N,12402.9430,W,2,08,00.9,20.2,M,-22.1,M,10.0,0302*6E
06/13/2019,00:09:46.644,$GPGGA,000945,4437.5836,N,12402.9430,W,2,08,00.9,20.2,M,-22.1,M,08.0,0302*66
06/13/2019,00:09:47.720,$GPGGA,000946,4437.5836,N,12402.9430,W,2,08,00.9,20.2,M,-22.1,M,09.0,0302*64
06/13/2019,00:09:48.513,$GPGGA,000947,4437.5836,N,12402.9430,W,2,08,00.9,20.2,M,-22.1,M,08.0,0302*64
06/13/2019,00:09:49.714,$GPGGA,000948,4437.5836,N,12402.9430,W,2,08,00.9,20.2,M,-22.1,M,09.0,0302*6A
06/13/2019,00:09:50.441,$GPGGA,000949,4437.5836,N,12402.9430,W,2,08,00.9,20.2,M,-22.1,M,10.0,0302*63
06/13/2019,00:09:51.629,$GPGGA,000950,4437.5836,N,12402.9430,W,2,08,00.9,20.2,M,-22.1,M,11.0,0302*6A
06/13/2019,00:09:52.416,$GPGGA,000951,4437.5836,N,12402.9430,W,2,08,00.9,20.2,M,-22.1,M,12.0,0302*68
06/13/2019,00:09:53.415,$GPGGA,000952,4437.5836,N,12402.9430,W,2,08,00.9,20.2,M,-22.1,M,09.0,0302*61
06/13/2019,00:09:54.440,$GPGGA,000953,4437.5836,N,12402.9430,W,2,08,00.9,20.2,M,-22.1,M,10.0,0302*68
06/13/2019,00:09:55.420,$GPGGA,000954,4437.5836,N,12402.9430,W,2,08,00.9,20.2,M,-22.1,M,11.0,0302*6E
06/13/2019,00:09:56.416,$GPGGA,000955,4437.5836,N,12402.9430,W,2,08,00.9,20.2,M,-22.1,M,09.0,0302*66
06/13/2019,00:09:57.715,$GPGGA,000956,4437.5836,N,12402.9430,W,2,08,00.9,20.2,M,-22.1,M,10.0,0302*6D
06/13/2019,00:09:58.451,$GPGGA,000957,4437.5836,N,12402.9430,W,2,08,00.9,20.2,M,-22.1,M,11.0,0302*6D
06/13/2019,00:09:59.420,$GPGGA,000958,4437.5836,N,12402.9430,W,2,08,00.9,20.3,M,-22.1,M,10.0,0302*62
06/13/2019,00:10:01.087,$GPGGA,000959,4437.5836,N,12402.9430,W,2,08,00.9,20.3,M,-22.1,M,11.0,0302*62
06/13/2019,00:10:01.427,$GPGGA,001000,4437.5836,N,12402.9430,W,2,08,00.9,20.3,M,-22.1,M,12.0,0302*65
06/13/2019,00:10:02.688,$GPGGA,001001,4437.5836,N,12402.9430,W,2,08,00.9,20.3,M,-22.1,M,10.0,0302*66
06/13/2019,00:10:03.371,$GPGGA,001002,4437.5836,N,12402.9430,W,2,08,00.9,20.3,M,-22.1,M,11.0,0302*64
06/13/2019,00:10:05.037,$GPGGA,001003,4437.5836,N,12402.9430,W,2,08,00.9,20.3,M,-22.1,M,09.0,0302*6C
06/13/2019,00:10:05.377,$GPGGA,001004,4437.5836,N,12402.9430,W,2,08,00.9,20.3,M,-22.1,M,10.0,0302*63
06/13/2019,00:10:06.630,$GPGGA,001005,4437.5836,N,12402.9430,W,2,08,00.9,20.3,M,-22.1,M,08.0,0302*6B
06/13/2019,00:10:08.371,$GPGGA,001007,4437.5836,N,12402.9430,W,2,08,00.9,20.3,M,-22.1,M,10.0,0302*60
06/13/2019,00:10:09.976,$GPGGA,001008,4437.5836,N,12402.9430,W,2,08,00.9,20.3,M,-22.1,M,09.0,0302*67
06/13/2019,00:10:10.595,$GPGGA,001009,4437.5836,N,12402.9430,W,2,08,00.9,20.4,M,-22.1,M,10.0,0302*69
06/13/2019,00:10:12.568,$GPGGA,001011,4437.5836,N,12402.9430,W,2,08,00.9,20.4,M,-22.1,M,09.0,0302*68
06/13/2019,00:10:13.321,$GPGGA,001012,4437.5836,N,12402.9430,W,2,08,00.9,20.4,M,-22.1,M,10.0,0302*63
06/13/2019,00:10:14.465,$GPGGA,001013,4437.5836,N,12402.9430,W,2,08,00.9,20.4,M,-22.1,M,11.0,0302*63
06/13/2019,00:10:15.876,$GPGGA,001014,4437.5836,N,12402.9431,W,2,08,00.9,20.4,M,-22.1,M,09.0,0302*6C
06/13/2019,00:10:16.614,$GPGGA,001015,4437.5836,N,12402.9430,W,2,08,00.9,20.4,M,-22.1,M,10.0,0302*64
06/13/2019,00:10:17.671,$GPGGA,001016,4437.5836,N,12402.9430,W,2,08,00.9,20.4,M,-22.1,M,11.0,0302*66
06/13/2019,00:10:18.685,$GPGGA,001017,4437.5836,N,12402.9430,W,2,08,00.9,20.4,M,-22.1,M,09.0,0302*6E
06/13/2019,00:10:19.540,$GPGGA,001018,4437.5836,N,12402.9430,W,2,08,00.9,20.4,M,-22.1,M,10.0,0302*69
