06/30/2019,21:47:30.363,$GPGGA,214729,3747.2005,N,12223.0577,W,2,07,01.2,18.0,M,-28.0,M,06.0,0302*6E
06/30/2019,21:47:31.568,$GPGGA,214730,3747.2005,N,12223.0577,W,2,07,01.2,18.0,M,-28.0,M,07.0,0302*67
06/30/2019,21:47:33.000,$GPGGA,214731,3747.2004,N,12223.0578,W,2,07,01.2,18.0,M,-28.0,M,06.0,0302*69
06/30/2019,21:47:33.498,$GPGGA,214732,3747.2004,N,12223.0578,W,2,07,01.2,18.0,M,-28.0,M,05.0,0302*69
06/30/2019,21:47:34.679,$GPGGA,214733,3747.2004,N,12223.0577,W,2,07,01.2,18.0,M,-28.0,M,06.0,0302*64
06/30/2019,21:47:35.569,$GPGGA,214734,3747.2004,N,12223.0577,W,2,07,01.2,18.0,M,-28.0,M,06.0,0302*63
06/30/2019,21:47:37.337,$GPGGA,214735,3747.2004,N,12223.0577,W,2,07,01.2,18.0,M,-28.0,M,05.0,0302*61
06/30/2019,21:47:37.603,$GPGGA,214736,3747.2004,N,12223.0577,W,2,07,01.2,18.0,M,-28.0,M,06.0,0302*61
06/30/2019,21:47:38.827,$GPGGA,214737,3747.2005,N,12223.0577,W,2,07,01.2,18.0,M,-28.0,M,06.0,0302*61
06/30/2019,21:47:39.419,$GPGGA,214738,3747.2005,N,12223.0577,W,2,07,01.2,18.0,M,-28.0,M,05.0,0302*6D
06/30/2019,21:47:40.757,$GPGGA,214739,3747.2004,N,12223.0577,W,2,07,01.2,18.0,M,-28.0,M,06.0,0302*6E
06/30/2019,21:47:42.100,$GPGGA,214740,3747.2004,N,12223.0578,W,2,07,01.2,17.9,M,-28.0,M,06.0,0302*69
06/30/2019,21:47:42.439,$GPGGA,214741,3747.2005,N,12223.0578,W,2,07,01.2,17.9,M,-28.0,M,07.0,0302*68
06/30/2019,21:47:43.572,$GPGGA,214742,3747.2005,N,12223.0578,W,2,07,01.2,17.9,M,-28.0,M,06.0,0302*6A
06/30/2019,21:47:45.124,$GPGGA,214743,3747.2005,N,12223.0577,W,2,07,01.2,17.9,M,-28.0,M,05.0,0302*67
06/30/2019,21:47:45.390,$GPGGA,214744,3747.2005,N,12223.0577,W,2,07,01.2,18.0,M,-28.0,M,05.0,0302*66
06/30/2019,21:47:46.765,$GPGGA,214745,3747.2005,N,12223.0577,W,2,07,01.2,18.0,M,-28.0,M,06.0,0302*64
06/30/2019,21:47:47.779,$GPGGA,214746,3747.2005,N,12223.0577,W,2,07,01.2,18.0,M,-28.0,M,07.0,0302*66
06/30/2019,21:47:49.122,$GPGGA,214747,3747.2005,N,12223.0577,W,2,07,01.2,18.0,M,-28.0,M,06.0,0302*66
06/30/2019,21:47:49.388,$GPGGA,214748,3747.2005,N,12223.0577,W,2,07,01.2,17.9,M,-28.0,M,07.0,0302*6E
06/30/2019,21:47:50.728,$GPGGA,214749,3747.2005,N,12223.0578,W,2,07,01.2,18.0,M,-28.0,M,06.0,0302*67
06/30/2019,21:47:51.528,$GPGGA,214750,3747.2005,N,12223.0578,W,2,07,01.2,17.9,M,-28.0,M,05.0,0302*6A
06/30/2019,21:47:52.655,$GPGGA,214751,3747.2005,N,12223.0578,W,2,07,01.2,17.9,M,-28.0,M,06.0,0302*68
06/30/2019,21:47:54.535,$GPGGA,214753,3747.2005,N,12223.0577,W,2,07,01.2,17.9,M,-28.0,M,05.0,0302*66
06/30/2019,21:47:55.718,$GPGGA,214754,3747.2005,N,12223.0577,W,2,07,01.2,17.9,M,-28.0,M,06.0,0302*62
06/30/2019,21:47:57.313,$GPGGA,214755,3747.2005,N,12223.0577,W,2,07,01.2,17.9,M,-28.0,M,06.0,0302*63
06/30/2019,21:47:57.580,$GPGGA,214756,3747.2005,N,12223.0577,W,2,07,01.2,17.9,M,-28.0,M,05.0,0302*63
06/30/2019,21:47:58.636,$GPGGA,214757,3747.2005,N,12223.0577,W,2,07,01.2,17.9,M,-28.0,M,06.0,0302*61
06/30/2019,21:47:59.628,$GPGGA,214758,3747.2005,N,12223.0577,W,2,07,01.2,18.0,M,-28.0,M,06.0,0302*68
06/30/2019,21:48:00.619,$GPGGA,214759,3747.2004,N,12223.0577,W,2,07,01.2,18.0,M,-28.0,M,07.0,0302*69
06/30/2019,21:48:01.555,$GPGGA,214800,3747.2004,N,12223.0577,W,2,07,01.2,17.9,M,-28.0,M,06.0,0302*6D
06/30/2019,21:48:02.586,$GPGGA,214801,3747.2004,N,12223.0577,W,2,07,01.2,17.9,M,-28.0,M,05.0,0302*6F
06/30/2019,21:48:03.628,$GPGGA,214802,3747.2004,N,12223.0577,W,2,07,01.2,18.0,M,-28.0,M,05.0,0302*6A
06/30/2019,21:48:05.304,$GPGGA,214803,3747.2004,N,12223.0577,W,2,07,01.2,18.0,M,-28.0,M,06.0,0302*68
06/30/2019,21:48:05.571,$GPGGA,214804,3747.2005,N,12223.0577,W,2,07,01.2,18.0,M,-28.0,M,07.0,0302*6F
06/30/2019,21:48:06.679,$GPGGA,214805,3747.2005,N,12223.0577,W,2,07,01.2,18.0,M,-28.0,M,06.0,0302*6F
06/30/2019,21:48:07.680,$GPGGA,214806,3747.2005,N,12223.0577,W,2,07,01.2,18.0,M,-28.0,M,07.0,0302*6D
06/30/2019,21:48:08.574,$GPGGA,214807,3747.2005,N,12223.0577,W,2,07,01.2,18.0,M,-28.0,M,06.0,0302*6D
06/30/2019,21:48:09.995,$GPGGA,214808,3747.2005,N,12223.0577,W,2,07,01.2,18.0,M,-28.0,M,05.0,0302*61
06/30/2019,21:48:11.575,$GPGGA,214810,3747.2005,N,12223.0577,W,2,07,01.2,18.0,M,-28.0,M,06.0,0302*6B
06/30/2019,21:48:13.151,$GPGGA,214811,3747.2005,N,12223.0577,W,2,07,01.2,18.0,M,-28.0,M,05.0,0302*69
06/30/2019,21:48:13.503,$GPGGA,214812,3747.2005,N,12223.0577,W,2,07,01.2,18.0,M,-28.0,M,05.0,0302*6A
06/30/2019,21:48:14.606,$GPGGA,214813,3747.2005,N,12223.0577,W,2,07,01.2,18.0,M,-28.0,M,06.0,0302*68
06/30/2019,21:48:15.575,$GPGGA,214814,3747.2005,N,12223.0577,W,2,07,01.2,18.0,M,-28.0,M,06.0,0302*6F
06/30/2019,21:48:17.154,$GPGGA,214815,3747.2005,N,12223.0577,W,2,07,01.2,18.0,M,-28.0,M,05.0,0302*6D
06/30/2019,21:48:17.494,$GPGGA,214816,3747.2005,N,12223.0577,W,2,07,01.2,18.0,M,-28.0,M,06.0,0302*6D
06/30/2019,21:48:18.656,$GPGGA,214817,3747.2005,N,12223.0577,W,2,07,01.2,18.0,M,-28.0,M,06.0,0302*6C
06/30/2019,21:48:19.536,$GPGGA,214818,3747.2005,N,12223.0577,W,2,07,01.2,18.0,M,-28.0,M,05.0,0302*60
06/30/2019,21:48:20.719,$GPGGA,214819,3747.2005,N,12223.0577,W,2,07,01.2,18.0,M,-28.0,M,06.0,0302*62
06/30/2019,21:48:21.823,$GPGGA,214820,3747.2005,N,12223.0577,W,2,07,01.2,18.0,M,-28.0,M,06.0,0302*68
06/30/2019,21:48:22.707,$GPGGA,214821,3747.2005,N,12223.0578,W,2,07,01.2,18.0,M,-28.0,M,07.0,0302*67
06/30/2019,21:48:23.576,$GPGGA,214822,3747.2005,N,12223.0578,W,2,07,01.2,18.0,M,-28.0,M,07.0,0302*64
06/30/2019,21:48:25.087,$GPGGA,214823,3747.2005,N,12223.0578,W,2,07,01.2,18.0,M,-28.0,M,06.0,0302*64
06/30/2019,21:48:25.429,$GPGGA,214824,3747.2005,N,12223.0577,W,2,07,01.2,18.0,M,-28.0,M,07.0,0302*6D
06/30/2019,21:48:26.656,$GPGGA,214825,3747.2005,N,12223.0577,W,2,07,01.2,18.0,M,-28.0,M,06.0,0302*6D
06/30/2019,21:48:27.536,$GPGGA,214826,3747.2005,N,12223.0577,W,2,07,01.2,18.0,M,-28.0,M,05.0,0302*6D
06/30/2019,21:48:28.728,$GPGGA,214827,3747.2005,N,12223.0577,W,2,07,01.2,18.0,M,-28.0,M,06.0,0302*6F
06/30/2019,21:48:29.921,$GPGGA,214828,3747.2004,N,12223.0577,W,2,07,01.2,18.0,M,-28.0,M,06.0,0302*61
06/30/2019,21:48:30.746,$GPGGA,214829,3747.2005,N,12223.0577,W,2,07,01.2,18.0,M,-28.0,M,05.0,0302*62
06/30/2019,21:48:32.313,$GPGGA,214830,3747.2005,N,12223.0577,W,2,07,01.2,18.0,M,-28.0,M,06.0,0302*69
06/30/2019,21:48:32.652,$GPGGA,214831,3747.2005,N,12223.0577,W,2,07,01.2,18.0,M,-28.0,M,06.0,0302*68
06/30/2019,21:48:33.530,$GPGGA,214832,3747.2005,N,12223.0577,W,2,07,01.2,18.0,M,-28.0,M,07.0,0302*6A
06/30/2019,21:48:34.946,$GPGGA,214833,3747.2005,N,12223.0577,W,2,07,01.2,18.0,M,-28.0,M,06.0,0302*6A
06/30/2019,21:48:35.438,$GPGGA,214834,3747.2005,N,12223.0577,W,2,07,01.2,18.0,M,-28.0,M,06.0,0302*6D
06/30/2019,21:48:36.719,$GPGGA,214835,3747.2005,N,12223.0577,W,2,07,01.2,18.0,M,-28.0,M,07.0,0302*6D
06/30/2019,21:48:37.920,$GPGGA,214836,3747.2005,N,12223.0577,W,2,07,01.2,17.9,M,-28.0,M,06.0,0302*69
06/30/2019,21:48:38.463,$GPGGA,214837,3747.2005,N,12223.0577,W,2,07,01.2,17.9,M,-28.0,M,05.0,0302*6B
06/30/2019,21:48:39.576,$GPGGA,214838,3747.2004,N,12223.0577,W,2,07,01.2,17.9,M,-28.0,M,05.0,0302*65
06/30/2019,21:48:41.089,$GPGGA,214839,3747.2004,N,12223.0577,W,2,07,01.2,17.9,M,-28.0,M,06.0,0302*67
06/30/2019,21:48:41.429,$GPGGA,214840,3747.2005,N,12223.0577,W,2,07,01.2,17.9,M,-28.0,M,05.0,0302*6B
06/30/2019,21:48:42.658,$GPGGA,214841,3747.2005,N,12223.0577,W,2,07,01.2,17.9,M,-28.0,M,06.0,0302*69
06/30/2019,21:48:43.584,$GPGGA,214842,3747.2005,N,12223.0577,W,2,07,01.2,17.9,M,-28.0,M,06.0,0302*6A
06/30/2019,21:48:45.089,$GPGGA,214843,3747.2005,N,12223.0577,W,2,07,01.2,17.9,M,-28.0,M,05.0,0302*68
06/30/2019,21:48:45.429,$GPGGA,214844,3747.2005,N,12223.0577,W,2,07,01.2,17.9,M,-28.0,M,06.0,0302*6C
06/30/2019,21:48:46.658,$GPGGA,214845,3747.2005,N,12223.0577,W,2,07,01.2,17.9,M,-28.0,M,06.0,0302*6D
06/30/2019,21:48:48.537,$GPGGA,214847,3747.2004,N,12223.0577,W,2,07,01.2,17.9,M,-28.0,M,06.0,0302*6E
06/30/2019,21:48:50.095,$GPGGA,214848,3747.2004,N,12223.0577,W,2,07,01.2,17.9,M,-28.0,M,07.0,0302*60
06/30/2019,21:48:50.434,$GPGGA,214849,3747.2005,N,12223.0577,W,2,07,01.2,17.9,M,-28.0,M,06.0,0302*61
06/30/2019,21:48:51.597,$GPGGA,214850,3747.2005,N,12223.0577,W,2,07,01.2,17.9,M,-28.0,M,05.0,0302*6A
06/30/2019,21:48:53.347,$GPGGA,214851,3747.2005,N,12223.0577,W,2,07,01.2,17.9,M,-28.0,M,06.0,0302*68
06/30/2019,21:48:53.686,$GPGGA,214852,3747.2005,N,12223.0577,W,2,07,01.2,17.8,M,-28.0,M,05.0,0302*69
06/30/2019,21:48:54.731,$GPGGA,214853,3747.2004,N,12223.0577,W,2,07,01.2,17.8,M,-28.0,M,06.0,0302*6A
06/30/2019,21:48:56.558,$GPGGA,214855,3747.2004,N,12223.0577,W,2,07,01.2,17.8,M,-28.0,M,05.0,0302*6F
06/30/2019,21:48:57.637,$GPGGA,214856,3747.2004,N,12223.0577,W,2,07,01.2,17.8,M,-28.0,M,06.0,0302*6F
06/30/2019,21:48:58.631,$GPGGA,214857,3747.2004,N,12223.0577,W,2,07,01.2,17.8,M,-28.0,M,06.0,0302*6E
06/30/2019,21:48:59.531,$GPGGA,214858,3747.2004,N,12223.0577,W,2,07,01.2,17.8,M,-28.0,M,05.0,0302*62
06/30/2019,21:49:00.947,$GPGGA,214859,3747.2004,N,12223.0577,W,2,07,01.2,17.8,M,-28.0,M,05.0,0302*63
06/30/2019,21:49:02.538,$GPGGA,214901,3747.2004,N,12223.0577,W,2,07,01.2,17.8,M,-28.0,M,05.0,0302*6F
06/30/2019,21:49:03.636,$GPGGA,214902,3747.2004,N,12223.0577,W,2,07,01.2,17.8,M,-28.0,M,06.0,0302*6F
06/30/2019,21:49:04.932,$GPGGA,214903,3747.2004,N,12223.0577,W,2,07,01.2,17.8,M,-28.0,M,07.0,0302*6F
06/30/2019,21:49:05.462,$GPGGA,214904,3747.2004,N,12223.0577,W,2,07,01.2,17.8,M,-28.0,M,05.0,0302*6A
06/30/2019,21:49:06.639,$GPGGA,214905,3747.2004,N,12223.0577,W,2,07,01.2,17.8,M,-28.0,M,06.0,0302*68
06/30/2019,21:49:07.631,$GPGGA,214906,3747.2004,N,12223.0577,W,2,07,01.2,17.8,M,-28.0,M,06.0,0302*6B
06/30/2019,21:49:08.622,$GPGGA,214907,3747.2004,N,12223.0577,W,2,07,01.2,17.7,M,-28.0,M,05.0,0302*66
06/30/2019,21:49:10.658,$GPGGA,214909,3747.2005,N,12223.0577,W,2,07,01.2,17.7,M,-28.0,M,06.0,0302*6A
06/30/2019,21:49:11.537,$GPGGA,214910,3747.2005,N,12223.0577,W,2,07,01.2,17.7,M,-28.0,M,05.0,0302*61
06/30/2019,21:49:13.128,$GPGGA,214911,3747.2005,N,12223.0577,W,2,07,01.2,17.7,M,-28.0,M,05.0,0302*60
06/30/2019,21:49:13.433,$GPGGA,214912,3747.2005,N,12223.0577,W,2,07,01.2,17.7,M,-28.0,M,04.0,0302*62
06/30/2019,21:49:14.559,$GPGGA,214913,3747.2005,N,12223.0577,W,2,07,01.2,17.7,M,-28.0,M,05.0,0302*62
06/30/2019,21:49:15.628,$GPGGA,214914,3747.2005,N,12223.0577,W,2,07,01.2,17.7,M,-28.0,M,06.0,0302*66
06/30/2019,21:49:17.239,$GPGGA,214915,3747.2005,N,12223.0577,W,2,07,01.2,17.7,M,-28.0,M,07.0,0302*66
06/30/2019,21:49:17.579,$GPGGA,214916,3747.2005,N,12223.0577,W,2,07,01.2,17.7,M,-28.0,M,06.0,0302*64
06/30/2019,21:49:18.610,$GPGGA,214917,3747.2005,N,12223.0577,W,2,07,01.2,17.7,M,-28.0,M,05.0,0302*66
06/30/2019,21:49:19.578,$GPGGA,214918,3747.2005,N,12223.0577,W,2,07,01.2,17.7,M,-28.0,M,05.0,0302*69
06/30/2019,21:49:21.097,$GPGGA,214919,3747.2005,N,12223.0577,W,2,07,01.2,17.7,M,-28.0,M,06.0,0302*6B
06/30/2019,21:49:21.430,$GPGGA,214920,3747.2005,N,12223.0577,W,2,07,01.2,17.6,M,-28.0,M,06.0,0302*60
06/30/2019,21:49:22.659,$GPGGA,214921,3747.2005,N,12223.0577,W,2,07,01.2,17.6,M,-28.0,M,06.0,0302*61
06/30/2019,21:49:23.538,$GPGGA,214922,3747.2005,N,12223.0577,W,2,07,01.2,17.6,M,-28.0,M,07.0,0302*63
06/30/2019,21:49:25.240,$GPGGA,214923,3747.2004,N,12223.0577,W,2,07,01.2,17.6,M,-28.0,M,06.0,0302*62
06/30/2019,21:49:25.580,$GPGGA,214924,3747.2004,N,12223.0577,W,2,07,01.2,17.6,M,-28.0,M,05.0,0302*66
06/30/2019,21:49:26.711,$GPGGA,214925,3747.2004,N,12223.0577,W,2,07,01.2,17.6,M,-28.0,M,06.0,0302*64
06/30/2019,21:49:27.590,$GPGGA,214926,3747.2004,N,12223.0577,W,2,07,01.2,17.6,M,-28.0,M,06.0,0302*67
06/30/2019,21:49:28.782,$GPGGA,214927,3747.2004,N,12223.0577,W,2,07,01.2,17.6,M,-28.0,M,05.0,0302*65
06/30/2019,21:49:29.873,$GPGGA,214928,3747.2004,N,12223.0577,W,2,07,01.2,17.6,M,-28.0,M,05.0,0302*6A
06/30/2019,21:49:30.416,$GPGGA,214929,3747.2004,N,12223.0577,W,2,07,01.2,17.6,M,-28.0,M,05.0,0302*6B
06/30/2019,21:49:31.578,$GPGGA,214930,3747.2004,N,12223.0577,W,2,07,01.2,17.6,M,-28.0,M,06.0,0302*60
06/30/2019,21:49:33.157,$GPGGA,214931,3747.2004,N,12223.0577,W,2,07,01.2,17.6,M,-28.0,M,06.0,0302*61
06/30/2019,21:49:33.497,$GPGGA,214932,3747.2004,N,12223.0577,W,2,07,01.2,17.6,M,-28.0,M,07.0,0302*63
06/30/2019,21:49:34.659,$GPGGA,214933,3747.2004,N,12223.0577,W,2,07,01.2,17.6,M,-28.0,M,06.0,0302*63
06/30/2019,21:49:35.539,$GPGGA,214934,3747.2004,N,12223.0577,W,2,07,01.2,17.6,M,-28.0,M,05.0,0302*67
06/30/2019,21:49:36.722,$GPGGA,214935,3747.2004,N,12223.0577,W,2,07,01.2,17.6,M,-28.0,M,06.0,0302*65
06/30/2019,21:49:37.828,$GPGGA,214936,3747.2004,N,12223.0577,W,2,07,01.2,17.6,M,-28.0,M,06.0,0302*66
06/30/2019,21:49:38.702,$GPGGA,214937,3747.2004,N,12223.0577,W,2,07,01.2,17.6,M,-28.0,M,07.0,0302*66
06/30/2019,21:49:39.579,$GPGGA,214938,3747.2004,N,12223.0577,W,2,07,01.2,17.6,M,-28.0,M,06.0,0302*68
06/30/2019,21:49:41.305,$GPGGA,214939,3747.2004,N,12223.0577,W,2,07,01.2,17.6,M,-28.0,M,05.0,0302*6A
06/30/2019,21:49:41.631,$GPGGA,214940,3747.2004,N,12223.0577,W,2,07,01.2,17.6,M,-28.0,M,06.0,0302*67
06/30/2019,21:49:42.775,$GPGGA,214941,3747.2004,N,12223.0577,W,2,07,01.2,17.6,M,-28.0,M,06.0,0302*66
06/30/2019,21:49:43.740,$GPGGA,214942,3747.2004,N,12223.0578,W,2,07,01.2,17.6,M,-28.0,M,05.0,0302*69
06/30/2019,21:49:45.038,$GPGGA,214943,3747.2005,N,12223.0578,W,2,07,01.2,17.6,M,-28.0,M,06.0,0302*6A
06/30/2019,21:49:45.378,$GPGGA,214944,3747.2005,N,12223.0578,W,2,07,01.2,17.6,M,-28.0,M,06.0,0302*6D
06/30/2019,21:49:46.760,$GPGGA,214945,3747.2005,N,12223.0578,W,2,07,01.2,17.6,M,-28.0,M,05.0,0302*6F
06/30/2019,21:49:47.430,$GPGGA,214946,3747.2005,N,12223.0578,W,2,07,01.2,17.6,M,-28.0,M,06.0,0302*6F
06/30/2019,21:49:48.829,$GPGGA,214947,3747.2005,N,12223.0578,W,2,07,01.2,17.6,M,-28.0,M,06.0,0302*6E
06/30/2019,21:49:49.924,$GPGGA,214948,3747.2005,N,12223.0578,W,2,07,01.2,17.6,M,-28.0,M,07.0,0302*60
06/30/2019,21:49:50.468,$GPGGA,214949,3747.2005,N,12223.0578,W,2,07,01.2,17.6,M,-28.0,M,06.0,0302*60
06/30/2019,21:49:51.579,$GPGGA,214950,3747.2005,N,12223.0578,W,2,07,01.2,17.7,M,-28.0,M,05.0,0302*6A
06/30/2019,21:49:53.159,$GPGGA,214951,3747.2005,N,12223.0578,W,2,07,01.2,17.7,M,-28.0,M,06.0,0302*68
06/30/2019,21:49:53.498,$GPGGA,214952,3747.2005,N,12223.0578,W,2,07,01.2,17.7,M,-28.0,M,06.0,0302*6B
06/30/2019,21:49:54.611,$GPGGA,214953,3747.2005,N,12223.0578,W,2,07,01.2,17.7,M,-28.0,M,05.0,0302*69
06/30/2019,21:49:55.579,$GPGGA,214954,3747.2005,N,12223.0578,W,2,07,01.2,17.7,M,-28.0,M,05.0,0302*6E
06/30/2019,21:49:57.129,$GPGGA,214955,3747.2005,N,12223.0578,W,2,07,01.2,17.7,M,-28.0,M,06.0,0302*6C
06/30/2019,21:49:57.432,$GPGGA,214956,3747.2005,N,12223.0578,W,2,07,01.2,17.7,M,-28.0,M,06.0,0302*6F
06/30/2019,21:49:58.661,$GPGGA,214957,3747.2005,N,12223.0578,W,2,07,01.2,17.7,M,-28.0,M,06.0,0302*6E
06/30/2019,21:49:59.540,$GPGGA,214958,3747.2005,N,12223.0578,W,2,07,01.2,17.7,M,-28.0,M,07.0,0302*60
06/30/2019,21:50:00.723,$GPGGA,214959,3747.2005,N,12223.0578,W,2,07,01.2,17.8,M,-28.0,M,06.0,0302*6F
06/30/2019,21:50:01.925,$GPGGA,215000,3747.2005,N,12223.0578,W,2,07,01.2,17.8,M,-28.0,M,05.0,0302*68
06/30/2019,21:50:03.560,$GPGGA,215002,3747.2005,N,12223.0578,W,2,07,01.2,17.8,M,-28.0,M,06.0,0302*69
06/30/2019,21:50:04.930,$GPGGA,215003,3747.2005,N,12223.0578,W,2,07,01.2,17.8,M,-28.0,M,05.0,0302*6B
06/30/2019,21:50:05.536,$GPGGA,215004,3747.2005,N,12223.0578,W,2,07,01.2,17.8,M,-28.0,M,05.0,0302*6C
06/30/2019,21:50:06.634,$GPGGA,215005,3747.2005,N,12223.0578,W,2,07,01.2,17.8,M,-28.0,M,05.0,0302*6D
06/30/2019,21:50:07.560,$GPGGA,215006,3747.2005,N,12223.0578,W,2,07,01.2,17.8,M,-28.0,M,06.0,0302*6D
06/30/2019,21:50:08.631,$GPGGA,215007,3747.2005,N,12223.0578,W,2,07,01.2,17.8,M,-28.0,M,06.0,0302*6C
06/30/2019,21:50:10.023,$GPGGA,215008,3747.2005,N,12223.0578,W,2,07,01.2,17.8,M,-28.0,M,05.0,0302*60
06/30/2019,21:50:10.739,$GPGGA,215009,3747.2005,N,12223.0578,W,2,07,01.2,17.8,M,-28.0,M,04.0,0302*60
06/30/2019,21:50:11.761,$GPGGA,215010,3747.2005,N,12223.0578,W,2,07,01.2,17.8,M,-28.0,M,04.0,0302*68
06/30/2019,21:50:13.317,$GPGGA,215011,3747.2005,N,12223.0578,W,2,07,01.2,17.8,M,-28.0,M,05.0,0302*68
06/30/2019,21:50:13.657,$GPGGA,215012,3747.2005,N,12223.0578,W,2,07,01.2,17.8,M,-28.0,M,06.0,0302*68
06/30/2019,21:50:14.587,$GPGGA,215013,3747.2005,N,12223.0578,W,2,07,01.2,17.8,M,-28.0,M,05.0,0302*6A
06/30/2019,21:50:15.930,$GPGGA,215014,3747.2005,N,12223.0578,W,2,07,01.2,17.8,M,-28.0,M,06.0,0302*6E
06/30/2019,21:50:17.593,$GPGGA,215016,3747.2005,N,12223.0578,W,2,07,01.2,17.8,M,-28.0,M,05.0,0302*6F
06/30/2019,21:50:18.685,$GPGGA,215017,3747.2005,N,12223.0578,W,2,07,01.2,17.8,M,-28.0,M,06.0,0302*6D
06/30/2019,21:50:19.575,$GPGGA,215018,3747.2005,N,12223.0578,W,2,07,01.2,17.8,M,-28.0,M,06.0,0302*62
06/30/2019,21:50:20.709,$GPGGA,215019,3747.2005,N,12223.0578,W,2,07,01.2,17.8,M,-28.0,M,07.0,0302*62
06/30/2019,21:50:21.882,$GPGGA,215020,3747.2005,N,12223.0578,W,2,07,01.2,17.8,M,-28.0,M,06.0,0302*69
06/30/2019,21:50:22.491,$GPGGA,215021,3747.2005,N,12223.0578,W,2,07,01.2,17.8,M,-28.0,M,05.0,0302*6B
06/30/2019,21:50:23.535,$GPGGA,215022,3747.2005,N,12223.0578,W,2,07,01.2,17.8,M,-28.0,M,05.0,0302*68
06/30/2019,21:50:24.651,$GPGGA,215023,3747.2005,N,12223.0578,W,2,07,01.2,17.8,M,-28.0,M,06.0,0302*6A
06/30/2019,21:50:25.931,$GPGGA,215024,3747.2005,N,12223.0578,W,2,07,01.2,17.7,M,-28.0,M,06.0,0302*62
06/30/2019,21:50:26.839,$GPGGA,215025,3747.2005,N,12223.0578,W,2,07,01.2,17.8,M,-28.0,M,07.0,0302*6D
06/30/2019,21:50:27.728,$GPGGA,215026,3747.2005,N,12223.0578,W,2,07,01.2,17.8,M,-28.0,M,06.0,0302*6F
06/30/2019,21:50:28.651,$GPGGA,215027,3747.2005,N,12223.0578,W,2,07,01.2,17.8,M,-28.0,M,07.0,0302*6F
06/30/2019,21:50:29.931,$GPGGA,215028,3747.2005,N,12223.0578,W,2,07,01.2,17.8,M,-28.0,M,07.0,0302*60
06/30/2019,21:50:30.539,$GPGGA,215029,3747.2005,N,12223.0578,W,2,07,01.2,17.7,M,-28.0,M,05.0,0302*6C
06/30/2019,21:50:31.576,$GPGGA,215030,3747.2005,N,12223.0578,W,2,07,01.2,17.8,M,-28.0,M,04.0,0302*6A
06/30/2019,21:50:32.902,$GPGGA,215031,3747.2005,N,12223.0578,W,2,07,01.2,17.7,M,-28.0,M,04.0,0302*64
06/30/2019,21:50:33.583,$GPGGA,215032,3747.2005,N,12223.0578,W,2,07,01.2,17.7,M,-28.0,M,05.0,0302*66
06/30/2019,21:50:35.294,$GPGGA,215033,3747.2005,N,12223.0578,W,2,07,01.2,17.8,M,-28.0,M,06.0,0302*6B
06/30/2019,21:50:35.634,$GPGGA,215034,3747.2005,N,12223.0578,W,2,07,01.2,17.8,M,-28.0,M,05.0,0302*6F
06/30/2019,21:50:36.762,$GPGGA,215035,3747.2005,N,12223.0578,W,2,07,01.2,17.8,M,-28.0,M,06.0,0302*6D
06/30/2019,21:50:37.432,$GPGGA,215036,3747.2005,N,12223.0578,W,2,07,01.2,17.7,M,-28.0,M,06.0,0302*61
06/30/2019,21:50:38.827,$GPGGA,215037,3747.2005,N,12223.0578,W,2,07,01.2,17.7,M,-28.0,M,06.0,0302*60
06/30/2019,21:50:39.626,$GPGGA,215038,3747.2005,N,12223.0579,W,2,07,01.2,17.7,M,-28.0,M,05.0,0302*6D
06/30/2019,21:50:41.288,$GPGGA,215039,3747.2005,N,12223.0579,W,2,07,01.2,17.7,M,-28.0,M,06.0,0302*6F
06/30/2019,21:50:41.555,$GPGGA,215040,3747.2005,N,12223.0579,W,2,07,01.2,17.8,M,-28.0,M,07.0,0302*6F
06/30/2019,21:50:42.802,$GPGGA,215041,3747.2005,N,12223.0579,W,2,07,01.2,17.7,M,-28.0,M,06.0,0302*60
06/30/2019,21:50:43.677,$GPGGA,215042,3747.2005,N,12223.0579,W,2,07,01.2,17.7,M,-28.0,M,07.0,0302*62
06/30/2019,21:50:44.563,$GPGGA,215043,3747.2005,N,12223.0579,W,2,07,01.2,17.7,M,-28.0,M,06.0,0302*62
06/30/2019,21:50:45.584,$GPGGA,215044,3747.2005,N,12223.0579,W,2,07,01.2,17.7,M,-28.0,M,05.0,0302*66
06/30/2019,21:50:47.162,$GPGGA,215045,3747.2005,N,12223.0579,W,2,07,01.2,17.7,M,-28.0,M,06.0,0302*64
06/30/2019,21:50:47.502,$GPGGA,215046,3747.2005,N,12223.0579,W,2,07,01.2,17.7,M,-28.0,M,06.0,0302*67
06/30/2019,21:50:48.653,$GPGGA,215047,3747.2005,N,12223.0579,W,2,07,01.2,17.7,M,-28.0,M,05.0,0302*65
06/30/2019,21:50:49.932,$GPGGA,215048,3747.2005,N,12223.0579,W,2,07,01.2,17.7,M,-28.0,M,06.0,0302*69
06/30/2019,21:50:50.824,$GPGGA,215049,3747.2005,N,12223.0579,W,2,07,01.2,17.7,M,-28.0,M,06.0,0302*68
06/30/2019,21:50:51.626,$GPGGA,215050,3747.2005,N,12223.0579,W,2,07,01.2,17.7,M,-28.0,M,07.0,0302*61
06/30/2019,21:50:53.319,$GPGGA,215051,3747.2005,N,12223.0579,W,2,07,01.2,17.8,M,-28.0,M,06.0,0302*6E
06/30/2019,21:50:53.586,$GPGGA,215052,3747.2005,N,12223.0579,W,2,07,01.2,17.8,M,-28.0,M,05.0,0302*6E
06/30/2019,21:50:54.778,$GPGGA,215053,3747.2005,N,12223.0579,W,2,07,01.2,17.7,M,-28.0,M,05.0,0302*60
06/30/2019,21:50:55.577,$GPGGA,215054,3747.2005,N,12223.0579,W,2,07,01.2,17.7,M,-28.0,M,06.0,0302*64
06/30/2019,21:50:57.132,$GPGGA,215055,3747.2005,N,12223.0579,W,2,07,01.2,17.7,M,-28.0,M,07.0,0302*64
06/30/2019,21:50:57.398,$GPGGA,215056,3747.2005,N,12223.0579,W,2,07,01.2,17.8,M,-28.0,M,08.0,0302*67
06/30/2019,21:50:58.736,$GPGGA,215057,3747.2005,N,12223.0579,W,2,07,01.2,17.8,M,-28.0,M,07.0,0302*69
06/30/2019,21:50:59.536,$GPGGA,215058,3747.2005,N,12223.0579,W,2,07,01.2,17.8,M,-28.0,M,06.0,0302*67
06/30/2019,21:51:01.290,$GPGGA,215059,3747.2005,N,12223.0579,W,2,07,01.2,17.8,M,-28.0,M,05.0,0302*65
06/30/2019,21:51:01.557,$GPGGA,215100,3747.2005,N,12223.0579,W,2,07,01.2,17.8,M,-28.0,M,06.0,0302*6B
06/30/2019,21:51:02.787,$GPGGA,215101,3747.2005,N,12223.0579,W,2,07,01.2,17.8,M,-28.0,M,07.0,0302*6B
06/30/2019,21:51:03.679,$GPGGA,215102,3747.2005,N,12223.0579,W,2,07,01.2,17.8,M,-28.0,M,06.0,0302*69
06/30/2019,21:51:05.015,$GPGGA,215103,3747.2005,N,12223.0579,W,2,07,01.2,17.8,M,-28.0,M,05.0,0302*6B
06/30/2019,21:51:05.513,$GPGGA,215104,3747.2005,N,12223.0579,W,2,07,01.2,17.8,M,-28.0,M,05.0,0302*6C
06/30/2019,21:51:06.687,$GPGGA,215105,3747.2005,N,12223.0578,W,2,07,01.2,17.8,M,-28.0,M,06.0,0302*6F
06/30/2019,21:51:07.678,$GPGGA,215106,3747.2005,N,12223.0578,W,2,07,01.2,17.8,M,-28.0,M,06.0,0302*6C
06/30/2019,21:51:09.012,$GPGGA,215107,3747.2005,N,12223.0578,W,2,07,01.2,17.8,M,-28.0,M,05.0,0302*6E
06/30/2019,21:51:09.512,$GPGGA,215108,3747.2005,N,12223.0578,W,2,07,01.2,17.8,M,-28.0,M,06.0,0302*62
06/30/2019,21:51:10.687,$GPGGA,215109,3747.2005,N,12223.0578,W,2,07,01.2,17.8,M,-28.0,M,06.0,0302*63
06/30/2019,21:51:11.577,$GPGGA,215110,3747.2005,N,12223.0578,W,2,07,01.2,17.8,M,-28.0,M,05.0,0302*68
06/30/2019,21:51:13.336,$GPGGA,215111,3747.2005,N,12223.0578,W,2,07,01.2,17.8,M,-28.0,M,06.0,0302*6A
06/30/2019,21:51:13.603,$GPGGA,215112,3747.2005,N,12223.0578,W,2,07,01.2,17.8,M,-28.0,M,07.0,0302*68
06/30/2019,21:51:14.836,$GPGGA,215113,3747.2005,N,12223.0578,W,2,07,01.2,17.8,M,-28.0,M,05.0,0302*6B
06/30/2019,21:51:16.628,$GPGGA,215115,3747.2005,N,12223.0578,W,2,07,01.2,17.8,M,-28.0,M,06.0,0302*6E
06/30/2019,21:51:17.953,$GPGGA,215116,3747.2005,N,12223.0578,W,2,07,01.2,17.8,M,-28.0,M,05.0,0302*6E
06/30/2019,21:51:19.543,$GPGGA,215118,3747.2005,N,12223.0578,W,2,07,01.2,17.8,M,-28.0,M,06.0,0302*63
06/30/2019,21:51:20.726,$GPGGA,215119,3747.2005,N,12223.0578,W,2,07,01.2,17.8,M,-28.0,M,05.0,0302*61
06/30/2019,21:51:21.537,$GPGGA,215120,3747.2005,N,12223.0578,W,2,07,01.2,17.8,M,-28.0,M,05.0,0302*6B
06/30/2019,21:51:22.664,$GPGGA,215121,3747.2005,N,12223.0578,W,2,07,01.2,17.8,M,-28.0,M,06.0,0302*69
06/30/2019,21:51:24.544,$GPGGA,215123,3747.2005,N,12223.0578,W,2,07,01.2,17.8,M,-28.0,M,06.0,0302*6B
06/30/2019,21:51:25.635,$GPGGA,215124,3747.2005,N,12223.0578,W,2,07,01.2,17.8,M,-28.0,M,05.0,0302*6F
06/30/2019,21:51:27.319,$GPGGA,215125,3747.2005,N,12223.0579,W,2,07,01.2,17.8,M,-28.0,M,06.0,0302*6C
06/30/2019,21:51:27.586,$GPGGA,215126,3747.2005,N,12223.0579,W,2,07,01.2,17.9,M,-28.0,M,06.0,0302*6E
06/30/2019,21:51:28.588,$GPGGA,215127,3747.2005,N,12223.0578,W,2,07,01.2,17.9,M,-28.0,M,06.0,0302*6E
06/30/2019,21:51:30.097,$GPGGA,215128,3747.2005,N,12223.0578,W,2,07,01.2,17.9,M,-28.0,M,07.0,0302*60
06/30/2019,21:51:30.436,$GPGGA,215129,3747.2005,N,12223.0578,W,2,07,01.2,17.8,M,-28.0,M,06.0,0302*61
06/30/2019,21:51:31.605,$GPGGA,215130,3747.2005,N,12223.0579,W,2,07,01.2,17.8,M,-28.0,M,05.0,0302*6B
06/30/2019,21:51:32.988,$GPGGA,215131,3747.2006,N,12223.0579,W,2,07,01.2,17.9,M,-28.0,M,06.0,0302*6B
06/30/2019,21:51:33.542,$GPGGA,215132,3747.2006,N,12223.0579,W,2,07,01.2,17.9,M,-28.0,M,06.0,0302*68
06/30/2019,21:51:34.589,$GPGGA,215133,3747.2006,N,12223.0579,W,2,07,01.2,17.9,M,-28.0,M,05.0,0302*6A
06/30/2019,21:51:35.603,$GPGGA,215134,3747.2006,N,12223.0579,W,2,07,01.2,17.9,M,-28.0,M,06.0,0302*6E
06/30/2019,21:51:36.695,$GPGGA,215135,3747.2006,N,12223.0579,W,2,07,01.2,17.9,M,-28.0,M,06.0,0302*6F
06/30/2019,21:51:37.690,$GPGGA,215136,3747.2006,N,12223.0579,W,2,07,01.2,17.9,M,-28.0,M,05.0,0302*6F
06/30/2019,21:51:38.589,$GPGGA,215137,3747.2006,N,12223.0579,W,2,07,01.2,17.9,M,-28.0,M,05.0,0302*6E
06/30/2019,21:51:39.604,$GPGGA,215138,3747.2006,N,12223.0579,W,2,07,01.2,18.0,M,-28.0,M,06.0,0302*64
06/30/2019,21:51:40.996,$GPGGA,215139,3747.2006,N,12223.0579,W,2,07,01.2,18.0,M,-28.0,M,06.0,0302*65
06/30/2019,21:51:41.610,$GPGGA,215140,3747.2006,N,12223.0579,W,2,07,01.2,18.0,M,-28.0,M,05.0,0302*68
06/30/2019,21:51:42.589,$GPGGA,215141,3747.2006,N,12223.0579,W,2,07,01.2,18.0,M,-28.0,M,05.0,0302*69
06/30/2019,21:51:43.657,$GPGGA,215142,3747.2006,N,12223.0579,W,2,07,01.2,18.0,M,-28.0,M,06.0,0302*69
06/30/2019,21:51:45.108,$GPGGA,215143,3747.2006,N,12223.0579,W,2,07,01.2,18.0,M,-28.0,M,05.0,0302*6B
06/30/2019,21:51:45.447,$GPGGA,215144,3747.2006,N,12223.0579,W,2,07,01.2,18.0,M,-28.0,M,06.0,0302*6F
06/30/2019,21:51:46.589,$GPGGA,215145,3747.2006,N,12223.0579,W,2,07,01.2,18.0,M,-28.0,M,07.0,0302*6F
06/30/2019,21:51:48.609,$GPGGA,215147,3747.2006,N,12223.0579,W,2,07,01.2,18.0,M,-28.0,M,05.0,0302*6F
06/30/2019,21:51:50.164,$GPGGA,215148,3747.2006,N,12223.0579,W,2,07,01.2,18.0,M,-28.0,M,04.0,0302*61
06/30/2019,21:51:50.503,$GPGGA,215149,3747.2006,N,12223.0579,W,2,07,01.2,17.9,M,-28.0,M,04.0,0302*66
06/30/2019,21:51:51.580,$GPGGA,215150,3747.2006,N,12223.0579,W,2,07,01.2,17.9,M,-28.0,M,05.0,0302*6F
06/30/2019,21:51:53.334,$GPGGA,215151,3747.2006,N,12223.0579,W,2,07,01.2,17.8,M,-28.0,M,06.0,0302*6C
06/30/2019,21:51:53.600,$GPGGA,215152,3747.2006,N,12223.0579,W,2,07,01.2,17.8,M,-28.0,M,05.0,0302*6C
06/30/2019,21:51:54.838,$GPGGA,215153,3747.2006,N,12223.0579,W,2,07,01.2,17.9,M,-28.0,M,06.0,0302*6F
06/30/2019,21:51:55.430,$GPGGA,215154,3747.2006,N,12223.0579,W,2,07,01.2,17.9,M,-28.0,M,06.0,0302*68
06/30/2019,21:51:56.765,$GPGGA,215155,3747.2006,N,12223.0579,W,2,07,01.2,17.9,M,-28.0,M,07.0,0302*68
06/30/2019,21:51:57.940,$GPGGA,215156,3747.2006,N,12223.0579,W,2,07,01.2,17.9,M,-28.0,M,06.0,0302*6A
06/30/2019,21:51:58.546,$GPGGA,215157,3747.2006,N,12223.0579,W,2,07,01.2,17.9,M,-28.0,M,06.0,0302*6B
06/30/2019,21:51:59.579,$GPGGA,215158,3747.2006,N,12223.0579,W,2,07,01.2,17.9,M,-28.0,M,05.0,0302*67
06/30/2019,21:52:01.134,$GPGGA,215159,3747.2006,N,12223.0579,W,2,07,01.2,17.9,M,-28.0,M,06.0,0302*65
06/30/2019,21:52:01.401,$GPGGA,215200,3747.2006,N,12223.0579,W,2,07,01.2,17.9,M,-28.0,M,06.0,0302*6A
06/30/2019,21:52:02.739,$GPGGA,215201,3747.2006,N,12223.0579,W,2,07,01.2,17.9,M,-28.0,M,05.0,0302*68
06/30/2019,21:52:04.630,$GPGGA,215203,3747.2006,N,12223.0579,W,2,07,01.2,17.9,M,-28.0,M,06.0,0302*69
06/30/2019,21:52:05.955,$GPGGA,215204,3747.2006,N,12223.0579,W,2,07,01.2,17.8,M,-28.0,M,07.0,0302*6E
06/30/2019,21:52:06.451,$GPGGA,215205,3747.2006,N,12223.0579,W,2,07,01.2,17.8,M,-28.0,M,06.0,0302*6E
06/30/2019,21:52:07.690,$GPGGA,215206,3747.2006,N,12223.0579,W,2,07,01.2,17.9,M,-28.0,M,05.0,0302*6F
06/30/2019,21:52:08.582,$GPGGA,215207,3747.2006,N,12223.0579,W,2,07,01.2,17.9,M,-28.0,M,06.0,0302*6D
06/30/2019,21:52:10.137,$GPGGA,215208,3747.2006,N,12223.0578,W,2,07,01.2,17.9,M,-28.0,M,06.0,0302*63
06/30/2019,21:52:10.403,$GPGGA,215209,3747.2006,N,12223.0579,W,2,07,01.2,17.9,M,-28.0,M,05.0,0302*60
06/30/2019,21:52:11.680,$GPGGA,215210,3747.2006,N,12223.0578,W,2,07,01.2,17.9,M,-28.0,M,05.0,0302*69
06/30/2019,21:52:13.358,$GPGGA,215211,3747.2006,N,12223.0578,W,2,07,01.2,17.9,M,-28.0,M,06.0,0302*6B
06/30/2019,21:52:13.625,$GPGGA,215212,3747.2006,N,12223.0578,W,2,07,01.2,17.9,M,-28.0,M,06.0,0302*68
06/30/2019,21:52:14.747,$GPGGA,215213,3747.2006,N,12223.0578,W,2,07,01.2,17.9,M,-28.0,M,07.0,0302*68
06/30/2019,21:52:15.529,$GPGGA,215214,3747.2006,N,12223.0578,W,2,07,01.2,17.9,M,-28.0,M,06.0,0302*6E
06/30/2019,21:52:16.740,$GPGGA,215215,3747.2006,N,12223.0579,W,2,07,01.2,17.9,M,-28.0,M,07.0,0302*6F
06/30/2019,21:52:18.089,$GPGGA,215216,3747.2006,N,12223.0578,W,2,07,01.2,17.9,M,-28.0,M,06.0,0302*6C
06/30/2019,21:52:18.355,$GPGGA,215217,3747.2006,N,12223.0578,W,2,07,01.2,17.9,M,-28.0,M,06.0,0302*6D
06/30/2019,21:52:19.680,$GPGGA,215218,3747.2006,N,12223.0578,W,2,07,01.2,17.9,M,-28.0,M,05.0,0302*61
06/30/2019,21:52:21.154,$GPGGA,215219,3747.2006,N,12223.0579,W,2,07,01.2,17.9,M,-28.0,M,05.0,0302*61
06/30/2019,21:52:21.421,$GPGGA,215220,3747.2006,N,12223.0579,W,2,07,01.2,17.9,M,-28.0,M,05.0,0302*6B
06/30/2019,21:52:22.648,$GPGGA,215221,3747.2006,N,12223.0579,W,2,07,01.2,17.9,M,-28.0,M,04.0,0302*6B
06/30/2019,21:52:23.730,$GPGGA,215222,3747.2006,N,12223.0579,W,2,07,01.2,17.9,M,-28.0,M,05.0,0302*69
06/30/2019,21:52:24.584,$GPGGA,215223,3747.2006,N,12223.0579,W,2,07,01.2,17.9,M,-28.0,M,06.0,0302*6B
06/30/2019,21:52:26.667,$GPGGA,215225,3747.2006,N,12223.0579,W,2,07,01.2,17.9,M,-28.0,M,06.0,0302*6D
06/30/2019,21:52:27.547,$GPGGA,215226,3747.2006,N,12223.0579,W,2,07,01.2,17.9,M,-28.0,M,06.0,0302*6E
06/30/2019,21:52:29.248,$GPGGA,215227,3747.2006,N,12223.0579,W,2,07,01.2,17.9,M,-28.0,M,05.0,0302*6C
06/30/2019,21:52:29.588,$GPGGA,215228,3747.2006,N,12223.0579,W,2,07,01.2,17.9,M,-28.0,M,06.0,0302*60
06/30/2019,21:52:30.618,$GPGGA,215229,3747.2006,N,12223.0579,W,2,07,01.2,17.9,M,-28.0,M,06.0,0302*61
06/30/2019,21:52:32.598,$GPGGA,215231,3747.2006,N,12223.0578,W,2,07,01.2,17.9,M,-28.0,M,06.0,0302*69
06/30/2019,21:52:33.681,$GPGGA,215232,3747.2006,N,12223.0578,W,2,07,01.2,17.9,M,-28.0,M,06.0,0302*6A
06/30/2019,21:52:34.691,$GPGGA,215233,3747.2006,N,12223.0578,W,2,07,01.2,17.9,M,-28.0,M,07.0,0302*6A
06/30/2019,21:52:35.407,$GPGGA,215234,3747.2006,N,12223.0578,W,2,07,01.2,17.8,M,-28.0,M,06.0,0302*6D
06/30/2019,21:52:36.687,$GPGGA,215235,3747.2006,N,12223.0578,W,2,07,01.2,17.8,M,-28.0,M,06.0,0302*6C
06/30/2019,21:52:37.981,$GPGGA,215236,3747.2006,N,12223.0578,W,2,07,01.2,17.8,M,-28.0,M,07.0,0302*6E
06/30/2019,21:52:38.593,$GPGGA,215237,3747.2006,N,12223.0578,W,2,07,01.2,17.8,M,-28.0,M,06.0,0302*6E
06/30/2019,21:52:40.141,$GPGGA,215238,3747.2006,N,12223.0578,W,2,07,01.2,17.8,M,-28.0,M,05.0,0302*62
06/30/2019,21:52:40.407,$GPGGA,215239,3747.2006,N,12223.0578,W,2,07,01.2,17.8,M,-28.0,M,05.0,0302*63
06/30/2019,21:52:41.638,$GPGGA,215240,3747.2006,N,12223.0578,W,2,07,01.2,17.8,M,-28.0,M,05.0,0302*6D
06/30/2019,21:52:42.640,$GPGGA,215241,3747.2006,N,12223.0578,W,2,07,01.2,17.8,M,-28.0,M,06.0,0302*6F
06/30/2019,21:52:43.609,$GPGGA,215242,3747.2006,N,12223.0578,W,2,07,01.2,17.8,M,-28.0,M,06.0,0302*6C
06/30/2019,21:52:44.999,$GPGGA,215243,3747.2006,N,12223.0578,W,2,07,01.2,17.7,M,-28.0,M,07.0,0302*63
06/30/2019,21:52:45.614,$GPGGA,215244,3747.2006,N,12223.0578,W,2,07,01.2,17.7,M,-28.0,M,06.0,0302*65
06/30/2019,21:52:46.639,$GPGGA,215245,3747.2006,N,12223.0578,W,2,07,01.2,17.7,M,-28.0,M,05.0,0302*67
06/30/2019,21:52:47.619,$GPGGA,215246,3747.2006,N,12223.0578,W,2,07,01.2,17.7,M,-28.0,M,05.0,0302*64
06/30/2019,21:52:48.999,$GPGGA,215247,3747.2006,N,12223.0578,W,2,07,01.2,17.7,M,-28.0,M,05.0,0302*65
06/30/2019,21:52:49.613,$GPGGA,215248,3747.2006,N,12223.0578,W,2,07,01.2,17.7,M,-28.0,M,06.0,0302*69
06/30/2019,21:52:50.683,$GPGGA,215249,3747.2006,N,12223.0578,W,2,07,01.2,17.7,M,-28.0,M,05.0,0302*6B
06/30/2019,21:52:51.608,$GPGGA,215250,3747.2006,N,12223.0578,W,2,07,01.2,17.7,M,-28.0,M,05.0,0302*63
06/30/2019,21:52:52.998,$GPGGA,215251,3747.2006,N,12223.0578,W,2,07,01.2,17.7,M,-28.0,M,06.0,0302*61
06/30/2019,21:52:53.613,$GPGGA,215252,3747.2006,N,12223.0578,W,2,07,01.2,17.7,M,-28.0,M,05.0,0302*61
06/30/2019,21:52:54.592,$GPGGA,215253,3747.2006,N,12223.0578,W,2,07,01.2,17.7,M,-28.0,M,06.0,0302*63
06/30/2019,21:52:55.608,$GPGGA,215254,3747.2006,N,12223.0578,W,2,07,01.2,17.6,M,-28.0,M,06.0,0302*65
06/30/2019,21:52:56.591,$GPGGA,215255,3747.2006,N,12223.0578,W,2,07,01.2,17.6,M,-28.0,M,05.0,0302*67
06/30/2019,21:52:57.692,$GPGGA,215256,3747.2006,N,12223.0578,W,2,07,01.2,17.5,M,-28.0,M,06.0,0302*64
06/30/2019,21:52:58.592,$GPGGA,215257,3747.2006,N,12223.0578,W,2,07,01.2,17.6,M,-28.0,M,06.0,0302*66
06/30/2019,21:52:59.608,$GPGGA,215258,3747.2006,N,12223.0578,W,2,07,01.2,17.6,M,-28.0,M,05.0,0302*6A
06/30/2019,21:53:00.996,$GPGGA,215259,3747.2006,N,12223.0579,W,2,07,01.2,17.5,M,-28.0,M,05.0,0302*69
06/30/2019,21:53:01.613,$GPGGA,215300,3747.2006,N,12223.0579,W,2,07,01.2,17.5,M,-28.0,M,06.0,0302*67
06/30/2019,21:53:02.593,$GPGGA,215301,3747.2006,N,12223.0579,W,2,07,01.2,17.4,M,-28.0,M,07.0,0302*66
06/30/2019,21:53:03.609,$GPGGA,215302,3747.2006,N,12223.0579,W,2,07,01.2,17.4,M,-28.0,M,08.0,0302*6A
06/30/2019,21:53:05.156,$GPGGA,215303,3747.2006,N,12223.0578,W,2,07,01.2,17.4,M,-28.0,M,06.0,0302*64
06/30/2019,21:53:05.510,$GPGGA,215304,3747.2006,N,12223.0578,W,2,07,01.2,17.4,M,-28.0,M,05.0,0302*60
06/30/2019,21:53:06.643,$GPGGA,215305,3747.2006,N,12223.0578,W,2,07,01.2,17.4,M,-28.0,M,05.0,0302*61
06/30/2019,21:53:07.570,$GPGGA,215306,3747.2006,N,12223.0578,W,2,07,01.2,17.5,M,-28.0,M,06.0,0302*60
06/30/2019,21:53:08.549,$GPGGA,215307,3747.2006,N,12223.0579,W,2,07,01.2,17.5,M,-28.0,M,07.0,0302*61
06/30/2019,21:53:10.041,$GPGGA,215308,3747.2006,N,12223.0579,W,2,07,01.2,17.4,M,-28.0,M,06.0,0302*6E
06/30/2019,21:53:10.380,$GPGGA,215309,3747.2006,N,12223.0579,W,2,07,01.2,17.4,M,-28.0,M,06.0,0302*6F
06/30/2019,21:53:11.609,$GPGGA,215310,3747.2006,N,12223.0579,W,2,07,01.2,17.4,M,-28.0,M,05.0,0302*64
06/30/2019,21:53:12.996,$GPGGA,215311,3747.2006,N,12223.0579,W,2,07,01.2,17.3,M,-28.0,M,05.0,0302*62
06/30/2019,21:53:13.614,$GPGGA,215312,3747.2006,N,12223.0579,W,2,07,01.2,17.4,M,-28.0,M,06.0,0302*65
06/30/2019,21:53:14.542,$GPGGA,215313,3747.2006,N,12223.0579,W,2,07,01.2,17.4,M,-28.0,M,06.0,0302*64
06/30/2019,21:53:15.566,$GPGGA,215314,3747.2006,N,12223.0579,W,2,07,01.2,17.4,M,-28.0,M,05.0,0302*60
06/30/2019,21:53:17.324,$GPGGA,215315,3747.2006,N,12223.0578,W,2,07,01.2,17.4,M,-28.0,M,06.0,0302*63
06/30/2019,21:53:17.664,$GPGGA,215316,3747.2006,N,12223.0578,W,2,07,01.2,17.4,M,-28.0,M,05.0,0302*63
06/30/2019,21:53:18.684,$GPGGA,215317,3747.2006,N,12223.0578,W,2,07,01.2,17.4,M,-28.0,M,05.0,0302*62
06/30/2019,21:53:19.609,$GPGGA,215318,3747.2005,N,12223.0578,W,2,07,01.2,17.4,M,-28.0,M,06.0,0302*6D
06/30/2019,21:53:21.157,$GPGGA,215319,3747.2005,N,12223.0579,W,2,07,01.2,17.4,M,-28.0,M,06.0,0302*6D
06/30/2019,21:53:21.497,$GPGGA,215320,3747.2005,N,12223.0579,W,2,07,01.2,17.4,M,-28.0,M,05.0,0302*64
06/30/2019,21:53:22.642,$GPGGA,215321,3747.2006,N,12223.0579,W,2,07,01.2,17.4,M,-28.0,M,05.0,0302*66
06/30/2019,21:53:23.566,$GPGGA,215322,3747.2006,N,12223.0579,W,2,07,01.2,17.4,M,-28.0,M,05.0,0302*65
06/30/2019,21:53:24.590,$GPGGA,215323,3747.2006,N,12223.0578,W,2,07,01.2,17.4,M,-28.0,M,05.0,0302*65
06/30/2019,21:53:26.169,$GPGGA,215324,3747.2006,N,12223.0578,W,2,07,01.2,17.4,M,-28.0,M,06.0,0302*61
06/30/2019,21:53:26.509,$GPGGA,215325,3747.2005,N,12223.0578,W,2,07,01.2,17.4,M,-28.0,M,05.0,0302*60
06/30/2019,21:53:27.569,$GPGGA,215326,3747.2006,N,12223.0578,W,2,07,01.2,17.4,M,-28.0,M,06.0,0302*63
06/30/2019,21:53:28.949,$GPGGA,215327,3747.2006,N,12223.0578,W,2,07,01.2,17.4,M,-28.0,M,05.0,0302*61
06/30/2019,21:53:29.547,$GPGGA,215328,3747.2006,N,12223.0578,W,2,07,01.2,17.4,M,-28.0,M,05.0,0302*6E
06/30/2019,21:53:30.593,$GPGGA,215329,3747.2006,N,12223.0578,W,2,06,01.4,17.4,M,-28.0,M,06.0,0302*6B
06/30/2019,21:53:32.620,$GPGGA,215331,3747.2006,N,12223.0578,W,2,06,01.4,17.4,M,-28.0,M,05.0,0302*61
06/30/2019,21:53:33.589,$GPGGA,215332,3747.2006,N,12223.0578,W,2,06,01.4,17.4,M,-28.0,M,06.0,0302*61
06/30/2019,21:53:35.301,$GPGGA,215333,3747.2006,N,12223.0579,W,2,06,01.4,17.4,M,-28.0,M,05.0,0302*62
06/30/2019,21:53:35.640,$GPGGA,215334,3747.2006,N,12223.0578,W,2,06,01.4,17.4,M,-28.0,M,05.0,0302*64
06/30/2019,21:53:36.768,$GPGGA,215335,3747.2006,N,12223.0578,W,2,06,01.4,17.4,M,-28.0,M,06.0,0302*66
06/30/2019,21:53:37.439,$GPGGA,215336,3747.2006,N,12223.0578,W,2,06,01.4,17.4,M,-28.0,M,06.0,0302*65
06/30/2019,21:53:38.836,$GPGGA,215337,3747.2006,N,12223.0578,W,2,06,01.4,17.4,M,-28.0,M,05.0,0302*67
06/30/2019,21:53:39.634,$GPGGA,215338,3747.2005,N,12223.0578,W,2,06,01.4,17.4,M,-28.0,M,06.0,0302*68
06/30/2019,21:53:41.296,$GPGGA,215339,3747.2005,N,12223.0579,W,2,06,01.4,17.4,M,-28.0,M,06.0,0302*68
06/30/2019,21:53:41.563,$GPGGA,215340,3747.2006,N,12223.0579,W,2,06,01.4,17.5,M,-28.0,M,04.0,0302*66
06/30/2019,21:53:42.793,$GPGGA,215341,3747.2006,N,12223.0578,W,2,06,01.4,17.5,M,-28.0,M,05.0,0302*67
06/30/2019,21:53:43.683,$GPGGA,215342,3747.2006,N,12223.0578,W,2,06,01.4,17.5,M,-28.0,M,06.0,0302*67
06/30/2019,21:53:44.966,$GPGGA,215343,3747.2006,N,12223.0578,W,2,06,01.4,17.4,M,-28.0,M,07.0,0302*66
06/30/2019,21:53:45.453,$GPGGA,215344,3747.2006,N,12223.0578,W,2,06,01.4,17.4,M,-28.0,M,06.0,0302*60
06/30/2019,21:53:46.842,$GPGGA,215345,3747.2006,N,12223.0579,W,2,06,01.4,17.5,M,-28.0,M,06.0,0302*61
06/30/2019,21:53:47.433,$GPGGA,215346,3747.2006,N,12223.0579,W,2,06,01.4,17.5,M,-28.0,M,05.0,0302*61
06/30/2019,21:53:48.769,$GPGGA,215347,3747.2006,N,12223.0579,W,2,06,01.4,17.5,M,-28.0,M,06.0,0302*63
06/30/2019,21:53:49.940,$GPGGA,215348,3747.2006,N,12223.0579,W,2,06,01.4,17.5,M,-28.0,M,06.0,0302*6C
06/30/2019,21:53:50.549,$GPGGA,215349,3747.2006,N,12223.0579,W,2,06,01.4,17.5,M,-28.0,M,05.0,0302*6E
06/30/2019,21:53:51.583,$GPGGA,215350,3747.2006,N,12223.0579,W,2,06,01.4,17.5,M,-28.0,M,06.0,0302*65
06/30/2019,21:53:53.257,$GPGGA,215351,3747.2006,N,12223.0579,W,2,06,01.4,17.5,M,-28.0,M,04.0,0302*66
06/30/2019,21:53:53.524,$GPGGA,215352,3747.2006,N,12223.0579,W,2,06,01.4,17.5,M,-28.0,M,05.0,0302*64
06/30/2019,21:53:54.743,$GPGGA,215353,3747.2006,N,12223.0579,W,2,06,01.4,17.5,M,-28.0,M,06.0,0302*66
06/30/2019,21:53:55.541,$GPGGA,215354,3747.2006,N,12223.0579,W,2,06,01.4,17.6,M,-28.0,M,06.0,0302*62
06/30/2019,21:53:56.659,$GPGGA,215355,3747.2006,N,12223.0579,W,2,06,01.4,17.6,M,-28.0,M,05.0,0302*60
06/30/2019,21:53:58.117,$GPGGA,215356,3747.2006,N,12223.0579,W,2,06,01.4,17.6,M,-28.0,M,06.0,0302*60
06/30/2019,21:53:58.456,$GPGGA,215357,3747.2006,N,12223.0579,W,2,06,01.4,17.5,M,-28.0,M,06.0,0302*62
06/30/2019,21:53:59.541,$GPGGA,215358,3747.2006,N,12223.0579,W,2,06,01.4,17.6,M,-28.0,M,05.0,0302*6D
06/30/2019,21:54:00.959,$GPGGA,215359,3747.2006,N,12223.0579,W,2,06,01.4,17.6,M,-28.0,M,06.0,0302*6F
06/30/2019,21:54:01.452,$GPGGA,215400,3747.2006,N,12223.0579,W,2,06,01.4,17.6,M,-28.0,M,06.0,0302*64
06/30/2019,21:54:02.643,$GPGGA,215401,3747.2006,N,12223.0579,W,2,06,01.4,17.6,M,-28.0,M,04.0,0302*67
06/30/2019,21:54:03.584,$GPGGA,215402,3747.2006,N,12223.0579,W,2,06,01.4,17.5,M,-28.0,M,05.0,0302*66
06/30/2019,21:54:05.257,$GPGGA,215403,3747.2006,N,12223.0579,W,2,06,01.4,17.5,M,-28.0,M,06.0,0302*64
06/30/2019,21:54:05.523,$GPGGA,215404,3747.2006,N,12223.0579,W,2,06,01.4,17.5,M,-28.0,M,05.0,0302*60
06/30/2019,21:54:06.743,$GPGGA,215405,3747.2006,N,12223.0579,W,2,06,01.4,17.6,M,-28.0,M,06.0,0302*61
06/30/2019,21:54:07.543,$GPGGA,215406,3747.2007,N,12223.0579,W,2,06,01.4,17.6,M,-28.0,M,06.0,0302*63
06/30/2019,21:54:08.662,$GPGGA,215407,3747.2007,N,12223.0579,W,2,06,01.4,17.6,M,-28.0,M,05.0,0302*61
06/30/2019,21:54:09.944,$GPGGA,215408,3747.2006,N,12223.0579,W,2,06,01.4,17.6,M,-28.0,M,06.0,0302*6C
06/30/2019,21:54:10.552,$GPGGA,215409,3747.2006,N,12223.0579,W,2,06,01.4,17.6,M,-28.0,M,06.0,0302*6D
06/30/2019,21:54:11.584,$GPGGA,215410,3747.2006,N,12223.0579,W,2,06,01.4,17.5,M,-28.0,M,05.0,0302*65
06/30/2019,21:54:12.965,$GPGGA,215411,3747.2006,N,12223.0579,W,2,06,01.4,17.6,M,-28.0,M,04.0,0302*66
06/30/2019,21:54:13.454,$GPGGA,215412,3747.2006,N,12223.0579,W,2,06,01.4,17.6,M,-28.0,M,05.0,0302*64
06/30/2019,21:54:14.794,$GPGGA,215413,3747.2006,N,12223.0579,W,2,06,01.4,17.6,M,-28.0,M,06.0,0302*66
06/30/2019,21:54:15.585,$GPGGA,215414,3747.2006,N,12223.0579,W,2,06,01.4,17.6,M,-28.0,M,07.0,0302*60
06/30/2019,21:54:17.257,$GPGGA,215415,3747.2006,N,12223.0579,W,2,06,01.4,17.6,M,-28.0,M,06.0,0302*60
06/30/2019,21:54:17.524,$GPGGA,215416,3747.2006,N,12223.0579,W,2,06,01.4,17.6,M,-28.0,M,05.0,0302*60
06/30/2019,21:54:18.744,$GPGGA,215417,3747.2006,N,12223.0579,W,2,07,01.2,17.6,M,-28.0,M,06.0,0302*65
06/30/2019,21:54:19.542,$GPGGA,215418,3747.2006,N,12223.0579,W,2,07,01.2,17.6,M,-28.0,M,06.0,0302*6A
06/30/2019,21:54:20.660,$GPGGA,215419,3747.2006,N,12223.0579,W,2,07,01.2,17.6,M,-28.0,M,05.0,0302*68
06/30/2019,21:54:21.940,$GPGGA,215420,3747.2006,N,12223.0579,W,2,07,01.2,17.6,M,-28.0,M,05.0,0302*62
06/30/2019,21:54:22.851,$GPGGA,215421,3747.2006,N,12223.0579,W,2,07,01.2,17.6,M,-28.0,M,06.0,0302*60
06/30/2019,21:54:23.445,$GPGGA,215422,3747.2006,N,12223.0579,W,2,07,01.2,17.6,M,-28.0,M,07.0,0302*62
06/30/2019,21:54:24.571,$GPGGA,215423,3747.2006,N,12223.0579,W,2,07,01.2,17.6,M,-28.0,M,06.0,0302*62
06/30/2019,21:54:25.591,$GPGGA,215424,3747.2006,N,12223.0579,W,2,07,01.2,17.6,M,-28.0,M,07.0,0302*64
06/30/2019,21:54:27.195,$GPGGA,215425,3747.2006,N,12223.0579,W,2,07,01.2,17.6,M,-28.0,M,06.0,0302*64
06/30/2019,21:54:27.795,$GPGGA,215426,3747.2006,N,12223.0579,W,2,07,01.2,17.6,M,-28.0,M,05.0,0302*64
06/30/2019,21:54:28.715,$GPGGA,215427,3747.2006,N,12223.0579,W,2,07,01.2,17.6,M,-28.0,M,06.0,0302*66
06/30/2019,21:54:29.891,$GPGGA,215428,3747.2006,N,12223.0579,W,2,07,01.2,17.6,M,-28.0,M,06.0,0302*69
06/30/2019,21:54:30.784,$GPGGA,215429,3747.2006,N,12223.0579,W,2,07,01.2,17.7,M,-28.0,M,07.0,0302*68
06/30/2019,21:54:31.542,$GPGGA,215430,3747.2006,N,12223.0579,W,2,07,01.2,17.7,M,-28.0,M,06.0,0302*61
06/30/2019,21:54:32.640,$GPGGA,215431,3747.2006,N,12223.0579,W,2,07,01.2,17.7,M,-28.0,M,06.0,0302*60
06/30/2019,21:54:33.503,$GPGGA,215432,3747.2006,N,12223.0579,W,2,07,01.2,17.8,M,-28.0,M,05.0,0302*6F
06/30/2019,21:54:34.696,$GPGGA,215433,3747.2006,N,12223.0579,W,2,07,01.2,17.8,M,-28.0,M,06.0,0302*6D
06/30/2019,21:54:35.495,$GPGGA,215434,3747.2006,N,12223.0579,W,2,07,01.2,17.8,M,-28.0,M,07.0,0302*6B
06/30/2019,21:54:36.719,$GPGGA,215435,3747.2007,N,12223.0579,W,2,07,01.2,17.8,M,-28.0,M,06.0,0302*6A
06/30/2019,21:54:37.602,$GPGGA,215436,3747.2007,N,12223.0579,W,2,07,01.2,17.8,M,-28.0,M,07.0,0302*68
06/30/2019,21:54:38.696,$GPGGA,215437,3747.2007,N,12223.0579,W,2,07,01.2,17.8,M,-28.0,M,06.0,0302*68
06/30/2019,21:54:39.586,$GPGGA,215438,3747.2007,N,12223.0579,W,2,07,01.2,17.8,M,-28.0,M,05.0,0302*64
06/30/2019,21:54:41.260,$GPGGA,215439,3747.2007,N,12223.0579,W,2,07,01.2,17.8,M,-28.0,M,06.0,0302*66
06/30/2019,21:54:41.526,$GPGGA,215440,3747.2007,N,12223.0579,W,2,07,01.2,17.8,M,-28.0,M,06.0,0302*68
06/30/2019,21:54:42.746,$GPGGA,215441,3747.2007,N,12223.0579,W,2,07,01.2,17.8,M,-28.0,M,05.0,0302*6A
06/30/2019,21:54:43.588,$GPGGA,215442,3747.2007,N,12223.0579,W,2,07,01.2,17.8,M,-28.0,M,06.0,0302*6A
06/30/2019,21:54:44.572,$GPGGA,215443,3747.2007,N,12223.0579,W,2,07,01.2,17.8,M,-28.0,M,06.0,0302*6B
06/30/2019,21:54:45.503,$GPGGA,215444,3747.2007,N,12223.0579,W,2,07,01.2,17.8,M,-28.0,M,05.0,0302*6F
06/30/2019,21:54:46.697,$GPGGA,215445,3747.2007,N,12223.0579,W,2,07,01.2,17.8,M,-28.0,M,06.0,0302*6D
06/30/2019,21:54:47.497,$GPGGA,215446,3747.2007,N,12223.0579,W,2,07,01.2,17.8,M,-28.0,M,06.0,0302*6E
06/30/2019,21:54:48.723,$GPGGA,215447,3747.2007,N,12223.0579,W,2,07,01.2,17.9,M,-28.0,M,07.0,0302*6F
06/30/2019,21:54:49.892,$GPGGA,215448,3747.2007,N,12223.0579,W,2,07,01.2,17.9,M,-28.0,M,06.0,0302*61
06/30/2019,21:54:51.597,$GPGGA,215450,3747.2007,N,12223.0579,W,2,07,01.2,17.9,M,-28.0,M,06.0,0302*68
06/30/2019,21:54:52.597,$GPGGA,215451,3747.2007,N,12223.0579,W,2,07,01.2,17.9,M,-28.0,M,06.0,0302*69
06/30/2019,21:54:53.612,$GPGGA,215452,3747.2007,N,12223.0579,W,2,07,01.2,17.9,M,-28.0,M,05.0,0302*69
06/30/2019,21:54:54.651,$GPGGA,215453,3747.2007,N,12223.0579,W,2,07,01.2,17.9,M,-28.0,M,06.0,0302*6B
06/30/2019,21:54:55.642,$GPGGA,215454,3747.2007,N,12223.0579,W,2,07,01.2,17.9,M,-28.0,M,06.0,0302*6C
06/30/2019,21:54:56.636,$GPGGA,215455,3747.2007,N,12223.0580,W,2,07,01.2,17.9,M,-28.0,M,05.0,0302*68
06/30/2019,21:54:57.866,$GPGGA,215456,3747.2007,N,12223.0579,W,2,07,01.2,18.0,M,-28.0,M,05.0,0302*6B
06/30/2019,21:54:58.704,$GPGGA,215457,3747.2007,N,12223.0580,W,2,07,01.2,18.0,M,-28.0,M,06.0,0302*6F
06/30/2019,21:55:00.687,$GPGGA,215459,3747.2007,N,12223.0580,W,2,07,01.2,18.1,M,-28.0,M,06.0,0302*60
06/30/2019,21:55:02.199,$GPGGA,215500,3747.2008,N,12223.0580,W,2,07,01.2,18.1,M,-28.0,M,07.0,0302*63
06/30/2019,21:55:02.465,$GPGGA,215501,3747.2007,N,12223.0580,W,2,07,01.2,18.1,M,-28.0,M,06.0,0302*6C
06/30/2019,21:55:03.549,$GPGGA,215502,3747.2007,N,12223.0580,W,2,07,01.2,18.0,M,-28.0,M,05.0,0302*6D
06/30/2019,21:55:04.735,$GPGGA,215503,3747.2007,N,12223.0580,W,2,07,01.2,18.0,M,-28.0,M,05.0,0302*6C
06/30/2019,21:55:05.837,$GPGGA,215504,3747.2008,N,12223.0580,W,2,07,01.2,18.1,M,-28.0,M,05.0,0302*65
06/30/2019,21:55:06.728,$GPGGA,215505,3747.2008,N,12223.0580,W,2,07,01.2,18.1,M,-28.0,M,06.0,0302*67
06/30/2019,21:55:07.602,$GPGGA,215506,3747.2008,N,12223.0580,W,2,07,01.2,18.1,M,-28.0,M,06.0,0302*64
06/30/2019,21:55:09.205,$GPGGA,215507,3747.2007,N,12223.0580,W,2,07,01.2,18.1,M,-28.0,M,05.0,0302*69
06/30/2019,21:55:09.545,$GPGGA,215508,3747.2007,N,12223.0580,W,2,07,01.2,18.0,M,-28.0,M,06.0,0302*64
06/30/2019,21:55:10.673,$GPGGA,215509,3747.2007,N,12223.0580,W,2,07,01.2,18.0,M,-28.0,M,06.0,0302*65
06/30/2019,21:55:11.550,$GPGGA,215510,3747.2007,N,12223.0580,W,2,07,01.2,18.0,M,-28.0,M,07.0,0302*6C
06/30/2019,21:55:12.746,$GPGGA,215511,3747.2007,N,12223.0580,W,2,07,01.2,18.0,M,-28.0,M,06.0,0302*6C
06/30/2019,21:55:13.637,$GPGGA,215512,3747.2007,N,12223.0580,W,2,07,01.2,18.0,M,-28.0,M,06.0,0302*6F
06/30/2019,21:55:14.963,$GPGGA,215513,3747.2007,N,12223.0580,W,2,07,01.2,18.0,M,-28.0,M,05.0,0302*6D
06/30/2019,21:55:15.764,$GPGGA,215514,3747.2007,N,12223.0580,W,2,07,01.2,18.0,M,-28.0,M,06.0,0302*69
06/30/2019,21:55:16.687,$GPGGA,215515,3747.2007,N,12223.0580,W,2,07,01.2,18.0,M,-28.0,M,06.0,0302*68
06/30/2019,21:55:17.887,$GPGGA,215516,3747.2007,N,12223.0580,W,2,07,01.2,18.0,M,-28.0,M,06.0,0302*6B
06/30/2019,21:55:18.713,$GPGGA,215517,3747.2007,N,12223.0580,W,2,07,01.2,18.0,M,-28.0,M,07.0,0302*6B
06/30/2019,21:55:19.593,$GPGGA,215518,3747.2007,N,12223.0580,W,2,07,01.2,18.0,M,-28.0,M,06.0,0302*65
06/30/2019,21:55:21.206,$GPGGA,215519,3747.2007,N,12223.0580,W,2,07,01.2,18.0,M,-28.0,M,05.0,0302*67
06/30/2019,21:55:21.545,$GPGGA,215520,3747.2007,N,12223.0580,W,2,07,01.2,18.0,M,-28.0,M,06.0,0302*6E
06/30/2019,21:55:22.675,$GPGGA,215521,3747.2007,N,12223.0580,W,2,07,01.2,18.0,M,-28.0,M,06.0,0302*6F
06/30/2019,21:55:23.550,$GPGGA,215522,3747.2007,N,12223.0580,W,2,07,01.2,18.0,M,-28.0,M,05.0,0302*6F
06/30/2019,21:55:24.736,$GPGGA,215523,3747.2007,N,12223.0580,W,2,06,01.4,18.0,M,-28.0,M,06.0,0302*6A
06/30/2019,21:55:25.839,$GPGGA,215524,3747.2007,N,12223.0580,W,2,07,01.2,17.9,M,-28.0,M,06.0,0302*6C
06/30/2019,21:55:26.714,$GPGGA,215525,3747.2007,N,12223.0580,W,2,07,01.2,17.9,M,-28.0,M,05.0,0302*6E
06/30/2019,21:55:28.594,$GPGGA,215527,3747.2007,N,12223.0580,W,2,07,01.2,17.9,M,-28.0,M,05.0,0302*6C
06/30/2019,21:55:30.205,$GPGGA,215528,3747.2007,N,12223.0580,W,2,06,01.4,17.9,M,-28.0,M,05.0,0302*64
06/30/2019,21:55:30.545,$GPGGA,215529,3747.2007,N,12223.0580,W,2,06,01.4,17.9,M,-28.0,M,06.0,0302*66
06/30/2019,21:55:31.570,$GPGGA,215530,3747.2007,N,12223.0580,W,2,06,01.4,18.0,M,-28.0,M,06.0,0302*68
06/30/2019,21:55:32.605,$GPGGA,215531,3747.2007,N,12223.0580,W,2,06,01.4,18.0,M,-28.0,M,05.0,0302*6A
06/30/2019,21:55:33.599,$GPGGA,215532,3747.2007,N,12223.0580,W,2,06,01.4,18.0,M,-28.0,M,05.0,0302*69
06/30/2019,21:55:34.598,$GPGGA,215533,3747.2007,N,12223.0580,W,2,06,01.4,18.0,M,-28.0,M,06.0,0302*6B
06/30/2019,21:55:35.526,$GPGGA,215534,3747.2007,N,12223.0579,W,2,06,01.4,18.0,M,-28.0,M,06.0,0302*6A
06/30/2019,21:55:36.705,$GPGGA,215535,3747.2007,N,12223.0579,W,2,06,01.4,18.0,M,-28.0,M,05.0,0302*68
06/30/2019,21:55:37.987,$GPGGA,215536,3747.2007,N,12223.0579,W,2,06,01.4,18.0,M,-28.0,M,06.0,0302*68
06/30/2019,21:55:38.688,$GPGGA,215537,3747.2007,N,12223.0579,W,2,06,01.4,18.0,M,-28.0,M,05.0,0302*6A
06/30/2019,21:55:39.614,$GPGGA,215538,3747.2007,N,12223.0579,W,2,06,01.4,18.0,M,-28.0,M,05.0,0302*65
06/30/2019,21:55:41.283,$GPGGA,215539,3747.2007,N,12223.0579,W,2,06,01.4,18.0,M,-28.0,M,04.0,0302*65
06/30/2019,21:55:41.623,$GPGGA,215540,3747.2007,N,12223.0579,W,2,06,01.4,18.0,M,-28.0,M,05.0,0302*6A
06/30/2019,21:55:42.547,$GPGGA,215541,3747.2007,N,12223.0579,W,2,06,01.4,18.0,M,-28.0,M,05.0,0302*6B
06/30/2019,21:55:43.541,$GPGGA,215542,3747.2007,N,12223.0579,W,2,06,01.4,18.0,M,-28.0,M,06.0,0302*6B
06/30/2019,21:55:44.510,$GPGGA,215543,3747.2007,N,12223.0580,W,2,06,01.4,18.0,M,-28.0,M,07.0,0302*6D
06/30/2019,21:55:45.599,$GPGGA,215544,3747.2007,N,12223.0580,W,2,06,01.4,18.0,M,-28.0,M,05.0,0302*68
06/30/2019,21:55:46.599,$GPGGA,215545,3747.2007,N,12223.0580,W,2,06,01.4,18.0,M,-28.0,M,06.0,0302*6A
06/30/2019,21:55:47.526,$GPGGA,215546,3747.2007,N,12223.0580,W,2,06,01.4,18.0,M,-28.0,M,06.0,0302*69
06/30/2019,21:55:48.595,$GPGGA,215547,3747.2007,N,12223.0579,W,2,06,01.4,18.0,M,-28.0,M,05.0,0302*6D
06/30/2019,21:55:49.988,$GPGGA,215548,3747.2007,N,12223.0579,W,2,06,01.4,18.0,M,-28.0,M,06.0,0302*61
06/30/2019,21:55:50.688,$GPGGA,215549,3747.2007,N,12223.0579,W,2,06,01.4,18.0,M,-28.0,M,05.0,0302*63
06/30/2019,21:55:51.618,$GPGGA,215550,3747.2007,N,12223.0579,W,2,06,01.4,18.1,M,-28.0,M,06.0,0302*69
06/30/2019,21:55:52.555,$GPGGA,215551,3747.2007,N,12223.0579,W,2,06,01.4,18.1,M,-28.0,M,06.0,0302*68
06/30/2019,21:55:53.644,$GPGGA,215552,3747.2007,N,12223.0579,W,2,06,01.4,18.1,M,-28.0,M,05.0,0302*68
06/30/2019,21:55:55.321,$GPGGA,215553,3747.2007,N,12223.0579,W,2,06,01.4,18.1,M,-28.0,M,05.0,0302*69
06/30/2019,21:55:55.588,$GPGGA,215554,3747.2007,N,12223.0579,W,2,06,01.4,18.1,M,-28.0,M,04.0,0302*6F
06/30/2019,21:55:56.696,$GPGGA,215555,3747.2007,N,12223.0579,W,2,06,01.4,18.1,M,-28.0,M,05.0,0302*6F
06/30/2019,21:55:58.065,$GPGGA,215556,3747.2007,N,12223.0579,W,2,06,01.4,18.1,M,-28.0,M,06.0,0302*6F
06/30/2019,21:55:58.404,$GPGGA,215557,3747.2007,N,12223.0579,W,2,06,01.4,18.1,M,-28.0,M,05.0,0302*6D
06/30/2019,21:55:59.571,$GPGGA,215558,3747.2007,N,12223.0579,W,2,06,01.4,18.1,M,-28.0,M,06.0,0302*61
06/30/2019,21:56:01.321,$GPGGA,215559,3747.2007,N,12223.0579,W,2,06,01.4,18.1,M,-28.0,M,05.0,0302*63
06/30/2019,21:56:01.660,$GPGGA,215600,3747.2007,N,12223.0579,W,2,06,01.4,18.1,M,-28.0,M,05.0,0302*6C
06/30/2019,21:56:02.700,$GPGGA,215601,3747.2007,N,12223.0579,W,2,06,01.4,18.1,M,-28.0,M,04.0,0302*6C
06/30/2019,21:56:03.740,$GPGGA,215602,3747.2007,N,12223.0579,W,2,06,01.4,18.0,M,-28.0,M,05.0,0302*6F
06/30/2019,21:56:05.282,$GPGGA,215603,3747.2007,N,12223.0580,W,2,07,01.2,18.0,M,-28.0,M,06.0,0302*6C
06/30/2019,21:56:05.622,$GPGGA,215604,3747.2007,N,12223.0580,W,2,07,01.2,18.0,M,-28.0,M,05.0,0302*68
06/30/2019,21:56:06.741,$GPGGA,215605,3747.2007,N,12223.0580,W,2,07,01.2,18.0,M,-28.0,M,06.0,0302*6A
06/30/2019,21:56:07.665,$GPGGA,215606,3747.2007,N,12223.0580,W,2,07,01.2,17.9,M,-28.0,M,06.0,0302*6F
06/30/2019,21:56:09.645,$GPGGA,215608,3747.2008,N,12223.0580,W,2,07,01.2,17.9,M,-28.0,M,05.0,0302*6D
06/30/2019,21:56:11.256,$GPGGA,215609,3747.2008,N,12223.0580,W,2,07,01.2,18.0,M,-28.0,M,06.0,0302*69
06/30/2019,21:56:11.596,$GPGGA,215610,3747.2008,N,12223.0580,W,2,07,01.2,18.0,M,-28.0,M,07.0,0302*60
06/30/2019,21:56:12.719,$GPGGA,215611,3747.2008,N,12223.0580,W,2,07,01.2,18.0,M,-28.0,M,06.0,0302*60
06/30/2019,21:56:13.596,$GPGGA,215612,3747.2008,N,12223.0580,W,2,07,01.2,18.1,M,-28.0,M,07.0,0302*63
06/30/2019,21:56:15.207,$GPGGA,215613,3747.2008,N,12223.0580,W,2,07,01.2,18.1,M,-28.0,M,06.0,0302*63
06/30/2019,21:56:15.547,$GPGGA,215614,3747.2008,N,12223.0580,W,2,07,01.2,18.2,M,-28.0,M,05.0,0302*64
06/30/2019,21:56:16.776,$GPGGA,215615,3747.2008,N,12223.0580,W,2,07,01.2,18.2,M,-28.0,M,05.0,0302*65
06/30/2019,21:56:17.606,$GPGGA,215616,3747.2008,N,12223.0580,W,2,07,01.2,18.2,M,-28.0,M,05.0,0302*66
06/30/2019,21:56:18.700,$GPGGA,215617,3747.2008,N,12223.0581,W,2,07,01.2,18.2,M,-28.0,M,06.0,0302*65
06/30/2019,21:56:19.591,$GPGGA,215618,3747.2008,N,12223.0580,W,2,07,01.2,18.2,M,-28.0,M,06.0,0302*6B
06/30/2019,21:56:20.727,$GPGGA,215619,3747.2008,N,12223.0580,W,2,07,01.2,18.2,M,-28.0,M,05.0,0302*69
06/30/2019,21:56:21.896,$GPGGA,215620,3747.2008,N,12223.0580,W,2,07,01.2,18.2,M,-28.0,M,05.0,0302*63
06/30/2019,21:56:22.800,$GPGGA,215621,3747.2008,N,12223.0580,W,2,07,01.2,18.2,M,-28.0,M,04.0,0302*63
06/30/2019,21:56:23.590,$GPGGA,215622,3747.2008,N,12223.0580,W,2,07,01.2,18.2,M,-28.0,M,05.0,0302*61
06/30/2019,21:56:25.265,$GPGGA,215623,3747.2008,N,12223.0580,W,2,07,01.2,18.2,M,-28.0,M,06.0,0302*63
06/30/2019,21:56:25.531,$GPGGA,215624,3747.2008,N,12223.0580,W,2,07,01.2,18.2,M,-28.0,M,05.0,0302*67
06/30/2019,21:56:26.749,$GPGGA,215625,3747.2008,N,12223.0580,W,2,07,01.2,18.2,M,-28.0,M,06.0,0302*65
06/30/2019,21:56:27.550,$GPGGA,215626,3747.2008,N,12223.0580,W,2,07,01.2,18.3,M,-28.0,M,06.0,0302*67
06/30/2019,21:56:29.302,$GPGGA,215627,3747.2008,N,12223.0580,W,2,07,01.2,18.3,M,-28.0,M,05.0,0302*65
06/30/2019,21:56:29.568,$GPGGA,215628,3747.2008,N,12223.0581,W,2,07,01.2,18.3,M,-28.0,M,06.0,0302*68
06/30/2019,21:56:30.792,$GPGGA,215629,3747.2008,N,12223.0581,W,2,07,01.2,18.3,M,-28.0,M,07.0,0302*68
06/30/2019,21:56:31.392,$GPGGA,215630,3747.2008,N,12223.0581,W,2,07,01.2,18.3,M,-28.0,M,07.0,0302*60
06/30/2019,21:56:32.716,$GPGGA,215631,3747.2008,N,12223.0581,W,2,07,01.2,18.3,M,-28.0,M,08.0,0302*6E
06/30/2019,21:56:33.597,$GPGGA,215632,3747.2008,N,12223.0580,W,2,07,01.2,18.4,M,-28.0,M,07.0,0302*64
06/30/2019,21:56:35.208,$GPGGA,215633,3747.2008,N,12223.0580,W,2,07,01.2,18.4,M,-28.0,M,05.0,0302*67
06/30/2019,21:56:35.548,$GPGGA,215634,3747.2008,N,12223.0580,W,2,07,01.2,18.4,M,-28.0,M,05.0,0302*60
06/30/2019,21:56:36.666,$GPGGA,215635,3747.2009,N,12223.0580,W,2,07,01.2,18.4,M,-28.0,M,06.0,0302*63
06/30/2019,21:56:37.557,$GPGGA,215636,3747.2009,N,12223.0580,W,2,07,01.2,18.5,M,-28.0,M,06.0,0302*61
06/30/2019,21:56:38.749,$GPGGA,215637,3747.2009,N,12223.0580,W,2,07,01.2,18.4,M,-28.0,M,05.0,0302*62
06/30/2019,21:56:39.547,$GPGGA,215638,3747.2009,N,12223.0581,W,2,07,01.2,18.4,M,-28.0,M,05.0,0302*6C
06/30/2019,21:56:40.667,$GPGGA,215639,3747.2008,N,12223.0581,W,2,07,01.2,18.4,M,-28.0,M,06.0,0302*6F
06/30/2019,21:56:42.657,$GPGGA,215641,3747.2008,N,12223.0581,W,2,07,01.2,18.3,M,-28.0,M,06.0,0302*67
06/30/2019,21:56:43.800,$GPGGA,215642,3747.2008,N,12223.0581,W,2,07,01.2,18.3,M,-28.0,M,05.0,0302*67
06/30/2019,21:56:44.892,$GPGGA,215643,3747.2008,N,12223.0580,W,2,07,01.2,18.3,M,-28.0,M,05.0,0302*67
06/30/2019,21:56:45.432,$GPGGA,215644,3747.2008,N,12223.0580,W,2,06,01.4,18.3,M,-28.0,M,06.0,0302*64
06/30/2019,21:56:46.697,$GPGGA,215645,3747.2008,N,12223.0580,W,2,06,01.4,18.2,M,-28.0,M,06.0,0302*64
06/30/2019,21:56:48.744,$GPGGA,215647,3747.2008,N,12223.0580,W,2,06,01.4,18.2,M,-28.0,M,05.0,0302*65
06/30/2019,21:56:49.842,$GPGGA,215648,3747.2008,N,12223.0580,W,2,06,01.4,18.2,M,-28.0,M,06.0,0302*69
06/30/2019,21:56:50.718,$GPGGA,215649,3747.2008,N,12223.0580,W,2,06,01.4,18.2,M,-28.0,M,07.0,0302*69
06/30/2019,21:56:51.598,$GPGGA,215650,3747.2008,N,12223.0580,W,2,06,01.4,18.2,M,-28.0,M,06.0,0302*60
06/30/2019,21:56:53.209,$GPGGA,215651,3747.2008,N,12223.0580,W,2,06,01.4,18.2,M,-28.0,M,06.0,0302*61
06/30/2019,21:56:53.549,$GPGGA,215652,3747.2008,N,12223.0581,W,2,06,01.4,18.1,M,-28.0,M,05.0,0302*63
06/30/2019,21:56:54.676,$GPGGA,215653,3747.2008,N,12223.0581,W,2,06,01.4,18.1,M,-28.0,M,05.0,0302*62
06/30/2019,21:56:55.553,$GPGGA,215654,3747.2008,N,12223.0581,W,2,06,01.4,18.0,M,-28.0,M,06.0,0302*67
06/30/2019,21:56:56.740,$GPGGA,215655,3747.2008,N,12223.0581,W,2,06,01.4,18.0,M,-28.0,M,06.0,0302*66
06/30/2019,21:56:57.941,$GPGGA,215656,3747.2009,N,12223.0581,W,2,06,01.4,18.0,M,-28.0,M,04.0,0302*66
06/30/2019,21:56:58.767,$GPGGA,215657,3747.2009,N,12223.0581,W,2,06,01.4,17.9,M,-28.0,M,05.0,0302*60
06/30/2019,21:56:59.598,$GPGGA,215658,3747.2009,N,12223.0581,W,2,06,01.4,17.9,M,-28.0,M,05.0,0302*6F
06/30/2019,21:57:01.210,$GPGGA,215659,3747.2009,N,12223.0582,W,2,06,01.4,17.9,M,-28.0,M,05.0,0302*6D
06/30/2019,21:57:01.550,$GPGGA,215700,3747.2009,N,12223.0582,W,2,06,01.4,17.9,M,-28.0,M,04.0,0302*61
06/30/2019,21:57:02.678,$GPGGA,215701,3747.2009,N,12223.0582,W,2,06,01.4,17.9,M,-28.0,M,05.0,0302*61
06/30/2019,21:57:03.554,$GPGGA,215702,3747.2009,N,12223.0582,W,2,06,01.4,17.9,M,-28.0,M,06.0,0302*61
06/30/2019,21:57:04.741,$GPGGA,215703,3747.2009,N,12223.0582,W,2,06,01.4,17.9,M,-28.0,M,05.0,0302*63
06/30/2019,21:57:05.842,$GPGGA,215704,3747.2009,N,12223.0582,W,2,06,01.4,17.9,M,-28.0,M,04.0,0302*65
06/30/2019,21:57:06.718,$GPGGA,215705,3747.2009,N,12223.0582,W,2,06,01.4,17.9,M,-28.0,M,05.0,0302*65
06/30/2019,21:57:08.598,$GPGGA,215707,3747.2009,N,12223.0582,W,2,06,01.4,17.8,M,-28.0,M,05.0,0302*66
06/30/2019,21:57:10.210,$GPGGA,215708,3747.2009,N,12223.0582,W,2,06,01.4,17.8,M,-28.0,M,05.0,0302*69
06/30/2019,21:57:10.549,$GPGGA,215709,3747.2009,N,12223.0582,W,2,06,01.4,17.8,M,-28.0,M,06.0,0302*6B
06/30/2019,21:57:11.573,$GPGGA,215710,3747.2009,N,12223.0582,W,2,06,01.4,17.8,M,-28.0,M,05.0,0302*60
06/30/2019,21:57:12.703,$GPGGA,215711,3747.2009,N,12223.0582,W,2,06,01.4,17.8,M,-28.0,M,05.0,0302*61
06/30/2019,21:57:13.802,$GPGGA,215712,3747.2009,N,12223.0582,W,2,06,01.4,17.9,M,-28.0,M,06.0,0302*60
06/30/2019,21:57:14.893,$GPGGA,215713,3747.2009,N,12223.0582,W,2,06,01.4,18.0,M,-28.0,M,04.0,0302*65
06/30/2019,21:57:15.718,$GPGGA,215714,3747.2008,N,12223.0581,W,2,06,01.4,18.0,M,-28.0,M,05.0,0302*61
06/30/2019,21:57:16.598,$GPGGA,215715,3747.2008,N,12223.0581,W,2,06,01.4,18.0,M,-28.0,M,06.0,0302*63
06/30/2019,21:57:17.791,$GPGGA,215716,3747.2008,N,12223.0581,W,2,06,01.4,18.1,M,-28.0,M,05.0,0302*62
06/30/2019,21:57:18.603,$GPGGA,215717,3747.2008,N,12223.0581,W,2,06,01.4,18.1,M,-28.0,M,06.0,0302*60
06/30/2019,21:57:19.530,$GPGGA,215718,3747.2008,N,12223.0581,W,2,06,01.4,18.1,M,-28.0,M,06.0,0302*6F
06/30/2019,21:57:20.703,$GPGGA,215719,3747.2008,N,12223.0581,W,2,06,01.4,18.1,M,-28.0,M,05.0,0302*6D
06/30/2019,21:57:22.067,$GPGGA,215720,3747.2008,N,12223.0581,W,2,07,01.1,18.1,M,-28.0,M,06.0,0302*60
06/30/2019,21:57:22.407,$GPGGA,215721,3747.2008,N,12223.0581,W,2,06,01.4,18.1,M,-28.0,M,06.0,0302*65
06/30/2019,21:57:23.574,$GPGGA,215722,3747.2008,N,12223.0581,W,2,06,01.4,18.1,M,-28.0,M,05.0,0302*65
06/30/2019,21:57:24.949,$GPGGA,215723,3747.2008,N,12223.0581,W,2,07,01.1,18.2,M,-28.0,M,06.0,0302*60
06/30/2019,21:57:25.559,$GPGGA,215724,3747.2008,N,12223.0581,W,2,06,01.4,18.2,M,-28.0,M,06.0,0302*63
06/30/2019,21:57:26.552,$GPGGA,215725,3747.2008,N,12223.0581,W,2,06,01.4,18.2,M,-28.0,M,05.0,0302*61
06/30/2019,21:57:27.579,$GPGGA,215726,3747.2008,N,12223.0581,W,2,06,01.4,18.2,M,-28.0,M,06.0,0302*61
06/30/2019,21:57:28.652,$GPGGA,215727,3747.2008,N,12223.0581,W,2,06,01.4,18.2,M,-28.0,M,05.0,0302*63
06/30/2019,21:57:29.647,$GPGGA,215728,3747.2008,N,12223.0581,W,2,06,01.4,18.2,M,-28.0,M,06.0,0302*6F
06/30/2019,21:57:30.651,$GPGGA,215729,3747.2008,N,12223.0581,W,2,06,01.4,18.2,M,-28.0,M,06.0,0302*6E
06/30/2019,21:57:31.574,$GPGGA,215730,3747.2008,N,12223.0581,W,2,06,01.4,18.2,M,-28.0,M,05.0,0302*65
06/30/2019,21:57:32.610,$GPGGA,215731,3747.2008,N,12223.0581,W,2,06,01.4,18.1,M,-28.0,M,05.0,0302*67
06/30/2019,21:57:33.692,$GPGGA,215732,3747.2008,N,12223.0581,W,2,06,01.4,18.1,M,-28.0,M,05.0,0302*64
06/30/2019,21:57:35.286,$GPGGA,215733,3747.2008,N,12223.0581,W,2,06,01.4,18.0,M,-28.0,M,06.0,0302*67
06/30/2019,21:57:35.553,$GPGGA,215734,3747.2008,N,12223.0581,W,2,06,01.4,18.0,M,-28.0,M,06.0,0302*60
06/30/2019,21:57:36.653,$GPGGA,215735,3747.2008,N,12223.0581,W,2,06,01.4,18.0,M,-28.0,M,05.0,0302*62
06/30/2019,21:57:37.653,$GPGGA,215736,3747.2008,N,12223.0581,W,2,06,01.4,18.0,M,-28.0,M,06.0,0302*62
06/30/2019,21:57:38.949,$GPGGA,215737,3747.2008,N,12223.0581,W,2,06,01.4,17.9,M,-28.0,M,05.0,0302*66
06/30/2019,21:57:39.769,$GPGGA,215738,3747.2008,N,12223.0581,W,2,06,01.4,17.9,M,-28.0,M,05.0,0302*69
06/30/2019,21:57:40.599,$GPGGA,215739,3747.2008,N,12223.0581,W,2,06,01.4,17.9,M,-28.0,M,06.0,0302*6B
06/30/2019,21:57:42.211,$GPGGA,215740,3747.2008,N,12223.0581,W,2,06,01.4,17.9,M,-28.0,M,05.0,0302*66
06/30/2019,21:57:42.550,$GPGGA,215741,3747.2008,N,12223.0581,W,2,06,01.4,17.9,M,-28.0,M,05.0,0302*67
06/30/2019,21:57:43.719,$GPGGA,215742,3747.2009,N,12223.0581,W,2,06,01.4,17.9,M,-28.0,M,06.0,0302*66
06/30/2019,21:57:44.558,$GPGGA,215743,3747.2009,N,12223.0581,W,2,06,01.4,17.9,M,-28.0,M,05.0,0302*64
06/30/2019,21:57:45.743,$GPGGA,215744,3747.2009,N,12223.0581,W,2,06,01.4,17.9,M,-28.0,M,05.0,0302*63
06/30/2019,21:57:46.944,$GPGGA,215745,3747.2009,N,12223.0581,W,2,06,01.4,17.9,M,-28.0,M,06.0,0302*61
