06/10/2019,23:27:01.471,$GPGGA,232700,4437.5827,N,12402.9429,W,2,08,01.0,20.6,M,-22.1,M,10.0,0302*67
06/10/2019,23:27:02.872,$GPGGA,232701,4437.5827,N,12402.9429,W,2,08,01.0,20.6,M,-22.1,M,11.0,0302*67
06/10/2019,23:27:03.598,$GPGGA,232702,4437.5827,N,12402.9429,W,2,08,01.0,20.7,M,-22.1,M,12.0,0302*66
06/10/2019,23:27:04.486,$GPGGA,232703,4437.5827,N,12402.9429,W,2,08,01.0,20.7,M,-22.1,M,10.0,0302*65
06/10/2019,23:27:05.671,$GPGGA,232704,4437.5827,N,12402.9429,W,2,08,01.0,20.7,M,-22.1,M,11.0,0302*63
06/10/2019,23:27:06.973,$GPGGA,232705,4437.5827,N,12402.9429,W,2,08,01.0,20.7,M,-22.1,M,09.0,0302*6B
06/10/2019,23:27:07.698,$GPGGA,232706,4437.5827,N,12402.9429,W,2,08,01.0,20.7,M,-22.1,M,10.0,0302*60
06/10/2019,23:27:08.430,$GPGGA,232707,4437.5827,N,12402.9429,W,2,08,01.0,20.7,M,-22.1,M,08.0,0302*68
06/10/2019,23:27:09.726,$GPGGA,232708,4437.5827,N,12402.9429,W,2,08,01.0,20.7,M,-22.1,M,09.0,0302*66
06/10/2019,23:27:10.423,$GPGGA,232709,4437.5827,N,12402.9429,W,2,08,01.0,20.7,M,-22.1,M,09.0,0302*67
06/10/2019,23:27:11.559,$GPGGA,232710,4437.5827,N,12402.9429,W,2,08,01.0,20.7,M,-22.1,M,10.0,0302*67
06/10/2019,23:27:12.543,$GPGGA,232711,4437.5827,N,12402.9429,W,2,08,01.0,20.8,M,-22.1,M,11.0,0302*68
06/10/2019,23:27:13.645,$GPGGA,232712,4437.5827,N,12402.9429,W,2,08,01.0,20.8,M,-22.1,M,09.0,0302*62
06/10/2019,23:27:15.046,$GPGGA,232713,4437.5827,N,12402.9429,W,2,08,01.0,20.8,M,-22.1,M,10.0,0302*6B
06/10/2019,23:27:15.771,$GPGGA,232714,4437.5827,N,12402.9429,W,2,08,01.0,20.8,M,-22.1,M,11.0,0302*6D
06/10/2019,23:27:16.631,$GPGGA,232715,4437.5827,N,12402.9429,W,2,08,01.0,20.8,M,-22.1,M,11.0,0302*6C
06/10/2019,23:27:17.928,$GPGGA,232716,4437.5827,N,12402.9429,W,2,08,01.0,20.8,M,-22.1,M,12.0,0302*6C
06/10/2019,23:27:18.636,$GPGGA,232717,4437.5827,N,12402.9429,W,2,08,01.0,20.8,M,-22.1,M,13.0,0302*6C
06/10/2019,23:27:19.560,$GPGGA,232718,4437.5827,N,12402.9429,W,2,08,01.0,20.8,M,-22.1,M,10.0,0302*60
06/10/2019,23:27:20.645,$GPGGA,232719,4437.5827,N,12402.9429,W,2,08,01.0,20.8,M,-22.1,M,11.0,0302*60
06/10/2019,23:27:21.634,$GPGGA,232720,4437.5827,N,12402.9429,W,2,08,01.0,20.8,M,-22.1,M,09.0,0302*63
06/10/2019,23:27:23.033,$GPGGA,232721,4437.5827,N,12402.9429,W,2,08,01.0,20.8,M,-22.1,M,10.0,0302*6A
06/10/2019,23:27:23.772,$GPGGA,232722,4437.5827,N,12402.9429,W,2,08,01.0,20.8,M,-22.1,M,11.0,0302*68
06/10/2019,23:27:24.632,$GPGGA,232723,4437.5827,N,12402.9429,W,2,08,01.0,20.8,M,-22.1,M,09.0,0302*60
06/10/2019,23:27:25.522,$GPGGA,232724,4437.5827,N,12402.9429,W,2,08,01.0,20.8,M,-22.1,M,10.0,0302*6F
06/10/2019,23:27:26.832,$GPGGA,232725,4437.5827,N,12402.9429,W,2,08,01.0,20.8,M,-22.1,M,11.0,0302*6F
06/10/2019,23:27:27.560,$GPGGA,232726,4437.5827,N,12402.9429,W,2,08,01.0,20.8,M,-22.1,M,10.0,0302*6D
06/10/2019,23:27:28.552,$GPGGA,232727,4437.5827,N,12402.9429,W,2,08,01.0,20.8,M,-22.1,M,11.0,0302*6D
06/10/2019,23:27:29.722,$GPGGA,232728,4437.5827,N,12402.9429,W,2,08,01.0,20.8,M,-22.1,M,12.0,0302*61
06/10/2019,23:27:31.038,$GPGGA,232729,4437.5827,N,12402.9429,W,2,08,01.0,20.8,M,-22.1,M,10.0,0302*62
06/10/2019,23:27:31.764,$GPGGA,232730,4437.5827,N,12402.9429,W,2,08,01.0,20.8,M,-22.1,M,11.0,0302*6B
06/10/2019,23:27:32.544,$GPGGA,232731,4437.5827,N,12402.9429,W,2,08,01.0,20.9,M,-22.1,M,12.0,0302*68
06/10/2019,23:27:33.633,$GPGGA,232732,4437.5827,N,12402.9429,W,2,08,01.0,20.9,M,-22.1,M,10.0,0302*69
06/10/2019,23:27:35.033,$GPGGA,232733,4437.5827,N,12402.9429,W,2,08,01.0,20.9,M,-22.1,M,11.0,0302*69
06/10/2019,23:27:35.750,$GPGGA,232734,4437.5827,N,12402.9429,W,2,08,01.0,20.9,M,-22.1,M,12.0,0302*6D
06/10/2019,23:27:36.586,$GPGGA,232735,4437.5827,N,12402.9429,W,2,08,01.0,20.9,M,-22.1,M,10.0,0302*6E
06/10/2019,23:27:37.581,$GPGGA,232736,4437.5827,N,12402.9428,W,2,08,01.0,20.9,M,-22.1,M,11.0,0302*6D
06/10/2019,23:27:38.586,$GPGGA,232737,4437.5827,N,12402.9428,W,2,08,01.0,20.9,M,-22.1,M,12.0,0302*6F
06/10/2019,23:27:39.410,$GPGGA,232738,4437.5827,N,12402.9428,W,2,08,01.0,20.9,M,-22.1,M,10.0,0302*62
06/10/2019,23:27:40.593,$GPGGA,232739,4437.5827,N,12402.9428,W,2,08,01.0,20.9,M,-22.1,M,11.0,0302*62
06/10/2019,23:27:41.472,$GPGGA,232740,4437.5827,N,12402.9428,W,2,08,01.0,20.9,M,-22.1,M,12.0,0302*6F
06/10/2019,23:27:42.784,$GPGGA,232741,4437.5827,N,12402.9428,W,2,08,01.0,20.9,M,-22.1,M,10.0,0302*6C
06/10/2019,23:27:43.521,$GPGGA,232742,4437.5827,N,12402.9428,W,2,08,01.0,20.9,M,-22.1,M,11.0,0302*6E
06/10/2019,23:27:44.586,$GPGGA,232743,4437.5827,N,12402.9428,W,2,08,01.0,20.9,M,-22.1,M,12.0,0302*6C
06/10/2019,23:27:45.581,$GPGGA,232744,4437.5827,N,12402.9428,W,2,08,01.0,20.9,M,-22.1,M,10.0,0302*69
06/10/2019,23:27:46.584,$GPGGA,232745,4437.5827,N,12402.9428,W,2,08,01.0,20.9,M,-22.1,M,11.0,0302*69
06/10/2019,23:27:47.508,$GPGGA,232746,4437.5827,N,12402.9428,W,2,08,01.0,20.9,M,-22.1,M,12.0,0302*69
06/10/2019,23:27:48.779,$GPGGA,232747,4437.5827,N,12402.9428,W,2,08,01.0,20.9,M,-22.1,M,10.0,0302*6A
06/10/2019,23:27:50.687,$GPGGA,232749,4437.5827,N,12402.9428,W,2,08,01.0,20.9,M,-22.1,M,12.0,0302*66
06/10/2019,23:27:51.481,$GPGGA,232750,4437.5827,N,12402.9428,W,2,08,01.0,20.9,M,-22.1,M,10.0,0302*6C
06/10/2019,23:27:52.614,$GPGGA,232751,4437.5827,N,12402.9428,W,2,08,01.0,20.9,M,-22.1,M,11.0,0302*6C
06/10/2019,23:27:53.880,$GPGGA,232752,4437.5827,N,12402.9428,W,2,08,01.0,20.9,M,-22.1,M,12.0,0302*6C
06/10/2019,23:27:54.688,$GPGGA,232753,4437.5827,N,12402.9428,W,2,08,01.0,20.9,M,-22.1,M,10.0,0302*6F
06/10/2019,23:27:55.482,$GPGGA,232754,4437.5827,N,12402.9428,W,2,08,01.0,20.9,M,-22.1,M,11.0,0302*69
06/10/2019,23:27:56.606,$GPGGA,232755,4437.5827,N,12402.9428,W,2,08,01.0,20.9,M,-22.1,M,12.0,0302*6B
06/10/2019,23:27:57.489,$GPGGA,232756,4437.5827,N,12402.9428,W,2,08,01.0,20.9,M,-22.1,M,10.0,0302*6A
06/10/2019,23:27:58.687,$GPGGA,232757,4437.5827,N,12402.9428,W,2,08,01.0,20.9,M,-22.1,M,11.0,0302*6A
06/10/2019,23:27:59.481,$GPGGA,232758,4437.5827,N,12402.9428,W,2,08,01.0,20.9,M,-22.1,M,12.0,0302*66
06/10/2019,23:28:00.509,$GPGGA,232759,4437.5827,N,12402.9428,W,2,08,01.0,20.8,M,-22.1,M,10.0,0302*64
06/10/2019,23:28:01.580,$GPGGA,232800,4437.5827,N,12402.9428,W,2,08,01.0,20.9,M,-22.1,M,11.0,0302*67
06/10/2019,23:28:02.687,$GPGGA,232801,4437.5827,N,12402.9428,W,2,08,01.0,20.9,M,-22.1,M,12.0,0302*65
06/10/2019,23:28:03.488,$GPGGA,232802,4437.5827,N,12402.9428,W,2,08,01.0,20.8,M,-22.1,M,10.0,0302*65
06/10/2019,23:28:04.510,$GPGGA,232803,4437.5827,N,12402.9428,W,2,08,01.0,20.9,M,-22.1,M,11.0,0302*64
06/10/2019,23:28:05.788,$GPGGA,232804,4437.5827,N,12402.9428,W,2,08,01.0,20.9,M,-22.1,M,12.0,0302*60
06/10/2019,23:28:06.738,$GPGGA,232805,4437.5827,N,12402.9428,W,2,08,01.0,20.9,M,-22.1,M,10.0,0302*63
06/10/2019,23:28:07.536,$GPGGA,232806,4437.5827,N,12402.9428,W,2,08,01.0,20.8,M,-22.1,M,11.0,0302*60
06/10/2019,23:28:08.963,$GPGGA,232807,4437.5827,N,12402.9428,W,2,08,01.0,20.8,M,-22.1,M,12.0,0302*62
06/10/2019,23:28:09.632,$GPGGA,232808,4437.5827,N,12402.9428,W,2,08,01.0,20.8,M,-22.1,M,10.0,0302*6F
06/10/2019,23:28:10.524,$GPGGA,232809,4437.5827,N,12402.9428,W,2,08,01.0,20.8,M,-22.1,M,11.0,0302*6F
06/10/2019,23:28:11.431,$GPGGA,232810,4437.5827,N,12402.9428,W,2,08,01.0,20.8,M,-22.1,M,12.0,0302*64
06/10/2019,23:28:12.565,$GPGGA,232811,4437.5827,N,12402.9428,W,2,08,01.0,20.8,M,-22.1,M,10.0,0302*67
06/10/2019,23:28:13.541,$GPGGA,232812,4437.5827,N,12402.9428,W,2,08,01.0,20.8,M,-22.1,M,11.0,0302*65
06/10/2019,23:28:14.740,$GPGGA,232813,4437.5827,N,12402.9428,W,2,08,01.0,20.8,M,-22.1,M,12.0,0302*67
06/10/2019,23:28:15.536,$GPGGA,232814,4437.5827,N,12402.9428,W,2,08,01.0,20.8,M,-22.1,M,10.0,0302*62
06/10/2019,23:28:16.452,$GPGGA,232815,4437.5827,N,12402.9428,W,2,08,01.0,20.8,M,-22.1,M,11.0,0302*62
06/10/2019,23:28:17.834,$GPGGA,232816,4437.5827,N,12402.9428,W,2,08,01.0,20.8,M,-22.1,M,12.0,0302*62
06/10/2019,23:28:18.638,$GPGGA,232817,4437.5827,N,12402.9428,W,2,08,01.0,20.8,M,-22.1,M,10.0,0302*61
06/10/2019,23:28:19.627,$GPGGA,232818,4437.5827,N,12402.9428,W,2,08,01.0,20.8,M,-22.1,M,11.0,0302*6F
06/10/2019,23:28:20.564,$GPGGA,232819,4437.5827,N,12402.9428,W,2,08,01.0,20.8,M,-22.1,M,12.0,0302*6D
06/10/2019,23:28:21.632,$GPGGA,232820,4437.5827,N,12402.9428,W,2,08,01.0,20.8,M,-22.1,M,10.0,0302*65
06/10/2019,23:28:22.636,$GPGGA,232821,4437.5827,N,12402.9428,W,2,08,01.0,20.8,M,-22.1,M,11.0,0302*65
06/10/2019,23:28:23.540,$GPGGA,232822,4437.5827,N,12402.9428,W,2,08,01.0,20.8,M,-22.1,M,12.0,0302*65
06/10/2019,23:28:25.562,$GPGGA,232824,4437.5827,N,12402.9428,W,2,08,01.0,20.8,M,-22.1,M,11.0,0302*60
06/10/2019,23:28:26.650,$GPGGA,232825,4437.5827,N,12402.9428,W,2,08,01.0,20.8,M,-22.1,M,12.0,0302*62
06/10/2019,23:28:27.636,$GPGGA,232826,4437.5827,N,12402.9428,W,2,08,01.0,20.8,M,-22.1,M,10.0,0302*63
06/10/2019,23:28:29.536,$GPGGA,232828,4437.5827,N,12402.9428,W,2,08,01.0,20.8,M,-22.1,M,12.0,0302*6F
06/10/2019,23:28:30.752,$GPGGA,232829,4437.5827,N,12402.9428,W,2,08,01.0,20.8,M,-22.1,M,10.0,0302*6C
06/10/2019,23:28:31.382,$GPGGA,232830,4437.5827,N,12402.9428,W,2,08,01.0,20.8,M,-22.1,M,11.0,0302*65
06/10/2019,23:28:32.689,$GPGGA,232831,4437.5827,N,12402.9429,W,2,08,01.0,20.8,M,-22.1,M,12.0,0302*66
06/10/2019,23:28:33.576,$GPGGA,232832,4437.5828,N,12402.9429,W,2,08,01.0,20.8,M,-22.1,M,10.0,0302*68
06/10/2019,23:28:34.511,$GPGGA,232833,4437.5828,N,12402.9429,W,2,08,01.0,20.8,M,-22.1,M,11.0,0302*68
06/10/2019,23:28:35.490,$GPGGA,232834,4437.5828,N,12402.9429,W,2,08,01.0,20.9,M,-22.1,M,12.0,0302*6D
06/10/2019,23:28:36.680,$GPGGA,232835,4437.5828,N,12402.9429,W,2,08,01.0,20.9,M,-22.1,M,10.0,0302*6E
06/10/2019,23:28:37.377,$GPGGA,232836,4437.5828,N,12402.9429,W,2,08,01.0,20.9,M,-22.1,M,11.0,0302*6C
06/10/2019,23:28:38.511,$GPGGA,232837,4437.5828,N,12402.9429,W,2,08,01.0,20.9,M,-22.1,M,12.0,0302*6E
06/10/2019,23:28:39.991,$GPGGA,232838,4437.5828,N,12402.9429,W,2,08,01.0,20.9,M,-22.1,M,10.0,0302*63
06/10/2019,23:28:40.775,$GPGGA,232839,4437.5828,N,12402.9429,W,2,08,01.0,20.9,M,-22.1,M,11.0,0302*63
06/10/2019,23:28:41.484,$GPGGA,232840,4437.5828,N,12402.9429,W,2,08,01.0,20.9,M,-22.1,M,12.0,0302*6E
06/10/2019,23:28:42.616,$GPGGA,232841,4437.5828,N,12402.9429,W,2,08,01.0,20.9,M,-22.1,M,10.0,0302*6D
06/10/2019,23:28:43.743,$GPGGA,232842,4437.5828,N,12402.9429,W,2,08,01.0,20.9,M,-22.1,M,11.0,0302*6F
06/10/2019,23:28:44.640,$GPGGA,232843,4437.5828,N,12402.9429,W,2,08,01.0,20.9,M,-22.1,M,12.0,0302*6D
06/10/2019,23:28:45.536,$GPGGA,232844,4437.5828,N,12402.9429,W,2,08,01.0,20.9,M,-22.1,M,10.0,0302*68
06/10/2019,23:28:46.853,$GPGGA,232845,4437.5828,N,12402.9429,W,2,08,01.0,20.9,M,-22.1,M,11.0,0302*68
06/10/2019,23:28:47.593,$GPGGA,232846,4437.5828,N,12402.9429,W,2,08,01.0,20.9,M,-22.1,M,12.0,0302*68
06/10/2019,23:28:48.586,$GPGGA,232847,4437.5828,N,12402.9429,W,2,08,01.0,20.8,M,-22.1,M,10.0,0302*6A
06/10/2019,23:28:49.485,$GPGGA,232848,4437.5828,N,12402.9429,W,2,08,01.0,20.8,M,-22.1,M,11.0,0302*64
06/10/2019,23:28:50.617,$GPGGA,232849,4437.5828,N,12402.9429,W,2,08,01.0,20.8,M,-22.1,M,12.0,0302*66
06/10/2019,23:28:51.492,$GPGGA,232850,4437.5828,N,12402.9429,W,2,08,01.0,20.9,M,-22.1,M,10.0,0302*6D
06/10/2019,23:28:52.689,$GPGGA,232851,4437.5828,N,12402.9429,W,2,08,01.0,20.9,M,-22.1,M,11.0,0302*6D
06/10/2019,23:28:54.377,$GPGGA,232853,4437.5828,N,12402.9429,W,2,08,01.0,20.9,M,-22.1,M,10.0,0302*6E
06/10/2019,23:28:55.602,$GPGGA,232854,4437.5828,N,12402.9429,W,2,08,01.0,20.8,M,-22.1,M,11.0,0302*69
06/10/2019,23:28:56.587,$GPGGA,232855,4437.5828,N,12402.9429,W,2,08,01.0,20.8,M,-22.1,M,12.0,0302*6B
06/10/2019,23:28:57.475,$GPGGA,232856,4437.5828,N,12402.9429,W,2,08,01.0,20.8,M,-22.1,M,10.0,0302*6A
06/10/2019,23:28:58.590,$GPGGA,232857,4437.5828,N,12402.9429,W,2,08,01.0,20.8,M,-22.1,M,11.0,0302*6A
06/10/2019,23:28:59.518,$GPGGA,232858,4437.5828,N,12402.9429,W,2,08,01.0,20.8,M,-22.1,M,12.0,0302*66
06/10/2019,23:29:00.493,$GPGGA,232859,4437.5828,N,12402.9429,W,2,08,01.0,20.8,M,-22.1,M,10.0,0302*65
06/10/2019,23:29:01.676,$GPGGA,232900,4437.5828,N,12402.9429,W,2,08,01.0,20.8,M,-22.1,M,11.0,0302*69
06/10/2019,23:29:02.486,$GPGGA,232901,4437.5828,N,12402.9429,W,2,08,01.0,20.8,M,-22.1,M,12.0,0302*6B
06/10/2019,23:29:03.518,$GPGGA,232902,4437.5828,N,12402.9429,W,2,08,01.0,20.9,M,-22.1,M,10.0,0302*6B
06/10/2019,23:29:04.492,$GPGGA,232903,4437.5828,N,12402.9429,W,2,08,01.0,20.8,M,-22.1,M,11.0,0302*6A
06/10/2019,23:29:05.676,$GPGGA,232904,4437.5828,N,12402.9429,W,2,08,01.0,20.8,M,-22.1,M,12.0,0302*6E
06/10/2019,23:29:06.486,$GPGGA,232905,4437.5828,N,12402.9429,W,2,08,01.0,20.8,M,-22.1,M,10.0,0302*6D
06/10/2019,23:29:07.614,$GPGGA,232906,4437.5828,N,12402.9429,W,2,08,01.0,20.8,M,-22.1,M,11.0,0302*6F
06/10/2019,23:29:08.588,$GPGGA,232907,4437.5828,N,12402.9429,W,2,08,01.0,20.8,M,-22.1,M,12.0,0302*6D
06/10/2019,23:29:09.476,$GPGGA,232908,4437.5828,N,12402.9429,W,2,08,01.0,20.8,M,-22.1,M,10.0,0302*60
06/10/2019,23:29:10.778,$GPGGA,232909,4437.5828,N,12402.9429,W,2,08,01.0,20.8,M,-22.1,M,11.0,0302*60
06/10/2019,23:29:12.648,$GPGGA,232911,4437.5828,N,12402.9429,W,2,08,01.0,20.8,M,-22.1,M,10.0,0302*68
06/10/2019,23:29:14.597,$GPGGA,232913,4437.5828,N,12402.9429,W,2,08,01.0,20.8,M,-22.1,M,12.0,0302*68
06/10/2019,23:29:15.476,$GPGGA,232914,4437.5828,N,12402.9429,W,2,08,01.0,20.8,M,-22.1,M,10.0,0302*6D
06/10/2019,23:29:16.797,$GPGGA,232915,4437.5828,N,12402.9429,W,2,08,01.0,20.8,M,-22.1,M,11.0,0302*6D
06/10/2019,23:29:17.513,$GPGGA,232916,4437.5828,N,12402.9429,W,2,08,01.0,20.8,M,-22.1,M,12.0,0302*6D
06/10/2019,23:29:18.598,$GPGGA,232917,4437.5828,N,12402.9429,W,2,08,01.0,20.8,M,-22.1,M,10.0,0302*6E
06/10/2019,23:29:19.487,$GPGGA,232918,4437.5828,N,12402.9429,W,2,08,01.0,20.8,M,-22.1,M,11.0,0302*60
06/10/2019,23:29:20.583,$GPGGA,232919,4437.5828,N,12402.9429,W,2,08,01.0,20.8,M,-22.1,M,12.0,0302*62
06/10/2019,23:29:21.417,$GPGGA,232920,4437.5828,N,12402.9429,W,2,08,01.0,20.8,M,-22.1,M,10.0,0302*6A
06/10/2019,23:29:22.784,$GPGGA,232921,4437.5828,N,12402.9429,W,2,08,01.0,20.8,M,-22.1,M,11.0,0302*6A
06/10/2019,23:29:23.587,$GPGGA,232922,4437.5828,N,12402.9429,W,2,08,01.0,20.8,M,-22.1,M,12.0,0302*6A
06/10/2019,23:29:24.597,$GPGGA,232923,4437.5828,N,12402.9429,W,2,08,01.0,20.8,M,-22.1,M,10.0,0302*69
06/10/2019,23:29:25.404,$GPGGA,232924,4437.5828,N,12402.9429,W,2,08,01.0,20.8,M,-22.1,M,11.0,0302*6F
06/10/2019,23:29:26.384,$GPGGA,232925,4437.5828,N,12402.9429,W,2,08,01.0,20.8,M,-22.1,M,12.0,0302*6D
06/10/2019,23:29:27.688,$GPGGA,232926,4437.5828,N,12402.9429,W,2,08,01.0,20.8,M,-22.1,M,10.0,0302*6C
06/10/2019,23:29:28.487,$GPGGA,232927,4437.5828,N,12402.9429,W,2,08,01.0,20.8,M,-22.1,M,11.0,0302*6C
06/10/2019,23:29:30.618,$GPGGA,232929,4437.5828,N,12402.9429,W,2,08,01.0,20.8,M,-22.1,M,10.0,0302*63
06/10/2019,23:29:31.791,$GPGGA,232930,4437.5828,N,12402.9429,W,2,08,01.0,20.8,M,-22.1,M,11.0,0302*6A
06/10/2019,23:29:32.587,$GPGGA,232931,4437.5828,N,12402.9429,W,2,08,01.0,20.8,M,-22.1,M,12.0,0302*68
06/10/2019,23:29:33.580,$GPGGA,232932,4437.5828,N,12402.9429,W,2,08,01.0,20.8,M,-22.1,M,10.0,0302*69
06/10/2019,23:29:34.514,$GPGGA,232933,4437.5828,N,12402.9429,W,2,08,01.0,20.8,M,-22.1,M,11.0,0302*69
06/10/2019,23:29:35.494,$GPGGA,232934,4437.5828,N,12402.9429,W,2,08,01.0,20.8,M,-22.1,M,12.0,0302*6D
06/10/2019,23:29:37.088,$GPGGA,232935,4437.5828,N,12402.9429,W,2,08,01.0,20.8,M,-22.1,M,10.0,0302*6E
06/10/2019,23:29:37.704,$GPGGA,232936,4437.5828,N,12402.9429,W,2,08,01.0,20.8,M,-22.1,M,11.0,0302*6C
06/10/2019,23:29:38.761,$GPGGA,232937,4437.5828,N,12402.9429,W,2,08,01.0,20.8,M,-22.1,M,12.0,0302*6E
06/10/2019,23:29:39.436,$GPGGA,232938,4437.5828,N,12402.9429,W,2,08,01.0,20.8,M,-22.1,M,10.0,0302*63
06/10/2019,23:29:40.839,$GPGGA,232939,4437.5828,N,12402.9429,W,2,08,01.0,20.8,M,-22.1,M,11.0,0302*63
06/10/2019,23:29:41.539,$GPGGA,232940,4437.5828,N,12402.9429,W,2,08,01.0,20.8,M,-22.1,M,12.0,0302*6E
06/10/2019,23:29:42.782,$GPGGA,232941,4437.5828,N,12402.9429,W,2,08,01.0,20.8,M,-22.1,M,10.0,0302*6D
06/10/2019,23:29:43.745,$GPGGA,232942,4437.5828,N,12402.9429,W,2,08,01.0,20.8,M,-22.1,M,11.0,0302*6F
06/10/2019,23:29:44.641,$GPGGA,232943,4437.5828,N,12402.9429,W,2,08,01.0,20.8,M,-22.1,M,12.0,0302*6D
06/10/2019,23:29:45.431,$GPGGA,232944,4437.5828,N,12402.9429,W,2,08,01.0,20.8,M,-22.1,M,10.0,0302*68
06/10/2019,23:29:46.756,$GPGGA,232945,4437.5828,N,12402.9429,W,2,08,01.0,20.8,M,-22.1,M,11.0,0302*68
06/10/2019,23:29:47.495,$GPGGA,232946,4437.5828,N,12402.9429,W,2,08,01.0,20.8,M,-22.1,M,12.0,0302*68
06/10/2019,23:29:48.588,$GPGGA,232947,4437.5828,N,12402.9429,W,2,08,01.0,20.8,M,-22.1,M,10.0,0302*6B
06/10/2019,23:29:49.580,$GPGGA,232948,4437.5828,N,12402.9429,W,2,08,01.0,20.8,M,-22.1,M,11.0,0302*65
06/10/2019,23:29:51.013,$GPGGA,232949,4437.5828,N,12402.9429,W,2,08,01.0,20.8,M,-22.1,M,12.0,0302*67
06/10/2019,23:29:51.689,$GPGGA,232950,4437.5828,N,12402.9429,W,2,08,01.0,20.8,M,-22.1,M,10.0,0302*6D
06/10/2019,23:29:52.588,$GPGGA,232951,4437.5828,N,12402.9429,W,2,08,01.0,20.8,M,-22.1,M,11.0,0302*6D
06/10/2019,23:29:53.579,$GPGGA,232952,4437.5828,N,12402.9429,W,2,08,01.0,20.8,M,-22.1,M,12.0,0302*6D
06/10/2019,23:29:54.619,$GPGGA,232953,4437.5828,N,12402.9429,W,2,08,01.0,20.8,M,-22.1,M,10.0,0302*6E
06/10/2019,23:29:55.386,$GPGGA,232954,4437.5828,N,12402.9429,W,2,08,01.0,20.8,M,-22.1,M,11.0,0302*68
06/10/2019,23:29:56.889,$GPGGA,232955,4437.5828,N,12402.9429,W,2,08,01.0,20.8,M,-22.1,M,12.0,0302*6A
06/10/2019,23:29:57.590,$GPGGA,232956,4437.5828,N,12402.9429,W,2,08,01.0,20.8,M,-22.1,M,10.0,0302*6B
06/10/2019,23:29:58.515,$GPGGA,232957,4437.5828,N,12402.9429,W,2,08,01.0,20.8,M,-22.1,M,11.0,0302*6B
06/10/2019,23:29:59.496,$GPGGA,232958,4437.5828,N,12402.9429,W,2,08,01.0,20.8,M,-22.1,M,12.0,0302*67
06/10/2019,23:30:00.588,$GPGGA,232959,4437.5828,N,12402.9429,W,2,08,01.0,20.8,M,-22.1,M,10.0,0302*64
06/10/2019,23:30:01.488,$GPGGA,233000,4437.5828,N,12402.9429,W,2,08,01.0,20.8,M,-22.1,M,11.0,0302*61
06/10/2019,23:30:02.805,$GPGGA,233001,4437.5828,N,12402.9429,W,2,08,01.0,20.8,M,-22.1,M,12.0,0302*63
06/10/2019,23:30:03.545,$GPGGA,233002,4437.5828,N,12402.9428,W,2,08,01.0,20.8,M,-22.1,M,10.0,0302*63
06/10/2019,23:30:04.529,$GPGGA,233003,4437.5828,N,12402.9428,W,2,08,01.0,20.8,M,-22.1,M,11.0,0302*63
06/10/2019,23:30:05.740,$GPGGA,233004,4437.5828,N,12402.9428,W,2,08,01.0,20.8,M,-22.1,M,12.0,0302*67
06/10/2019,23:30:07.457,$GPGGA,233006,4437.5828,N,12402.9428,W,2,08,01.0,20.8,M,-22.1,M,11.0,0302*66
06/10/2019,23:30:08.747,$GPGGA,233007,4437.5828,N,12402.9428,W,2,08,01.0,20.8,M,-22.1,M,12.0,0302*64
06/10/2019,23:30:09.530,$GPGGA,233008,4437.5828,N,12402.9428,W,2,08,01.0,20.8,M,-22.1,M,10.0,0302*69
06/10/2019,23:30:10.737,$GPGGA,233009,4437.5828,N,12402.9428,W,2,08,01.0,20.8,M,-22.1,M,11.0,0302*69
06/10/2019,23:30:12.571,$GPGGA,233011,4437.5828,N,12402.9428,W,2,08,01.0,20.8,M,-22.1,M,10.0,0302*61
06/10/2019,23:30:13.437,$GPGGA,233012,4437.5828,N,12402.9428,W,2,08,01.0,20.8,M,-22.1,M,11.0,0302*63
06/10/2019,23:30:14.840,$GPGGA,233013,4437.5828,N,12402.9428,W,2,08,01.0,20.8,M,-22.1,M,12.0,0302*61
06/10/2019,23:30:16.544,$GPGGA,233015,4437.5828,N,12402.9428,W,2,08,01.0,20.8,M,-22.1,M,11.0,0302*64
06/10/2019,23:30:17.457,$GPGGA,233016,4437.5828,N,12402.9428,W,2,08,01.0,20.8,M,-22.1,M,12.0,0302*64
06/10/2019,23:30:18.748,$GPGGA,233017,4437.5828,N,12402.9428,W,2,08,01.0,20.8,M,-22.1,M,10.0,0302*67
06/10/2019,23:30:19.530,$GPGGA,233018,4437.5828,N,12402.9428,W,2,08,01.0,20.8,M,-22.1,M,11.0,0302*69
06/10/2019,23:30:20.741,$GPGGA,233019,4437.5828,N,12402.9428,W,2,08,01.0,20.8,M,-22.1,M,12.0,0302*6B
06/10/2019,23:30:22.572,$GPGGA,233021,4437.5828,N,12402.9428,W,2,08,01.0,20.8,M,-22.1,M,11.0,0302*63
06/10/2019,23:30:23.496,$GPGGA,233022,4437.5828,N,12402.9428,W,2,08,01.0,20.8,M,-22.1,M,12.0,0302*63
06/10/2019,23:30:24.683,$GPGGA,233023,4437.5828,N,12402.9428,W,2,08,01.0,20.9,M,-22.1,M,10.0,0302*61
06/10/2019,23:30:25.490,$GPGGA,233024,4437.5828,N,12402.9428,W,2,08,01.0,20.8,M,-22.1,M,11.0,0302*66
06/10/2019,23:30:26.807,$GPGGA,233025,4437.5828,N,12402.9428,W,2,08,01.0,20.8,M,-22.1,M,12.0,0302*64
06/10/2019,23:30:27.597,$GPGGA,233026,4437.5828,N,12402.9428,W,2,08,01.0,20.8,M,-22.1,M,10.0,0302*65
06/10/2019,23:30:28.880,$GPGGA,233027,4437.5828,N,12402.9429,W,2,08,01.0,20.8,M,-22.1,M,11.0,0302*64
06/10/2019,23:30:29.492,$GPGGA,233028,4437.5829,N,12402.9429,W,2,08,01.0,20.8,M,-22.1,M,12.0,0302*69
06/10/2019,23:30:30.622,$GPGGA,233029,4437.5829,N,12402.9429,W,2,08,01.0,20.8,M,-22.1,M,10.0,0302*6A
06/10/2019,23:30:31.497,$GPGGA,233030,4437.5829,N,12402.9429,W,2,08,01.0,20.8,M,-22.1,M,11.0,0302*63
06/10/2019,23:30:32.695,$GPGGA,233031,4437.5828,N,12402.9429,W,2,08,01.0,20.8,M,-22.1,M,12.0,0302*60
06/10/2019,23:30:33.582,$GPGGA,233032,4437.5828,N,12402.9429,W,2,08,01.0,20.9,M,-22.1,M,10.0,0302*60
06/10/2019,23:30:34.517,$GPGGA,233033,4437.5828,N,12402.9429,W,2,08,01.0,20.9,M,-22.1,M,11.0,0302*60
06/10/2019,23:30:35.498,$GPGGA,233034,4437.5828,N,12402.9429,W,2,08,01.0,20.9,M,-22.1,M,12.0,0302*64
06/10/2019,23:30:36.685,$GPGGA,233035,4437.5828,N,12402.9429,W,2,08,01.0,20.9,M,-22.1,M,10.0,0302*67
06/10/2019,23:30:37.490,$GPGGA,233036,4437.5828,N,12402.9429,W,2,08,01.0,20.9,M,-22.1,M,11.0,0302*65
06/10/2019,23:30:39.012,$GPGGA,233037,4437.5828,N,12402.9429,W,2,08,01.0,20.8,M,-22.1,M,12.0,0302*66
06/10/2019,23:30:39.689,$GPGGA,233038,4437.5829,N,12402.9429,W,2,08,01.0,20.8,M,-22.1,M,10.0,0302*6A
06/10/2019,23:30:40.532,$GPGGA,233039,4437.5829,N,12402.9429,W,2,08,01.0,20.8,M,-22.1,M,11.0,0302*6A
06/10/2019,23:30:41.742,$GPGGA,233040,4437.5829,N,12402.9429,W,2,08,01.0,20.8,M,-22.1,M,12.0,0302*67
06/10/2019,23:30:42.459,$GPGGA,233041,4437.5829,N,12402.9429,W,2,08,01.0,20.9,M,-22.1,M,10.0,0302*65
06/10/2019,23:30:43.547,$GPGGA,233042,4437.5829,N,12402.9429,W,2,08,01.0,20.9,M,-22.1,M,11.0,0302*67
06/10/2019,23:30:44.531,$GPGGA,233043,4437.5829,N,12402.9429,W,2,08,01.0,20.8,M,-22.1,M,12.0,0302*64
06/10/2019,23:30:45.742,$GPGGA,233044,4437.5829,N,12402.9428,W,2,08,01.0,20.8,M,-22.1,M,10.0,0302*60
06/10/2019,23:30:46.573,$GPGGA,233045,4437.5829,N,12402.9428,W,2,08,01.0,20.9,M,-22.1,M,11.0,0302*61
06/10/2019,23:30:47.549,$GPGGA,233046,4437.5829,N,12402.9428,W,2,08,01.0,20.9,M,-22.1,M,12.0,0302*61
06/10/2019,23:30:48.645,$GPGGA,233047,4437.5829,N,12402.9429,W,2,08,01.0,20.9,M,-22.1,M,10.0,0302*63
06/10/2019,23:30:49.433,$GPGGA,233048,4437.5829,N,12402.9429,W,2,08,01.0,20.9,M,-22.1,M,11.0,0302*6D
06/10/2019,23:30:50.770,$GPGGA,233049,4437.5829,N,12402.9429,W,2,08,01.0,20.9,M,-22.1,M,12.0,0302*6F
06/10/2019,23:30:52.553,$GPGGA,233051,4437.5829,N,12402.9428,W,2,08,01.0,20.9,M,-22.1,M,11.0,0302*64
06/10/2019,23:30:53.640,$GPGGA,233052,4437.5829,N,12402.9428,W,2,08,01.0,20.9,M,-22.1,M,12.0,0302*64
06/10/2019,23:30:55.333,$GPGGA,233054,4437.5829,N,12402.9428,W,2,08,01.0,20.9,M,-22.1,M,11.0,0302*61
06/10/2019,23:30:56.458,$GPGGA,233055,4437.5829,N,12402.9428,W,2,08,01.0,20.9,M,-22.1,M,12.0,0302*63
06/10/2019,23:30:57.749,$GPGGA,233056,4437.5829,N,12402.9428,W,2,08,01.0,20.9,M,-22.1,M,10.0,0302*62
06/10/2019,23:30:59.432,$GPGGA,233058,4437.5829,N,12402.9428,W,2,08,01.0,20.9,M,-22.1,M,12.0,0302*6E
06/10/2019,23:31:00.742,$GPGGA,233059,4437.5829,N,12402.9428,W,2,08,01.0,20.9,M,-22.1,M,10.0,0302*6D
06/10/2019,23:31:01.567,$GPGGA,233100,4437.5829,N,12402.9429,W,2,08,01.0,21.0,M,-22.1,M,11.0,0302*68
06/10/2019,23:31:02.388,$GPGGA,233101,4437.5828,N,12402.9429,W,2,08,01.0,21.0,M,-22.1,M,12.0,0302*6B
06/10/2019,23:31:03.592,$GPGGA,233102,4437.5828,N,12402.9429,W,2,08,01.0,21.0,M,-22.1,M,10.0,0302*6A
06/10/2019,23:31:04.587,$GPGGA,233103,4437.5828,N,12402.9429,W,2,08,01.0,21.0,M,-22.1,M,11.0,0302*6A
06/10/2019,23:31:05.408,$GPGGA,233104,4437.5828,N,12402.9429,W,2,08,01.0,21.0,M,-22.1,M,12.0,0302*6E
06/10/2019,23:31:06.795,$GPGGA,233105,4437.5828,N,12402.9429,W,2,08,01.0,21.0,M,-22.1,M,10.0,0302*6D
06/10/2019,23:31:07.592,$GPGGA,233106,4437.5829,N,12402.9429,W,2,08,01.0,21.0,M,-22.1,M,11.0,0302*6E
06/10/2019,23:31:08.492,$GPGGA,233107,4437.5829,N,12402.9429,W,2,08,01.0,21.0,M,-22.1,M,12.0,0302*6C
06/10/2019,23:31:09.519,$GPGGA,233108,4437.5829,N,12402.9429,W,2,08,01.0,21.0,M,-22.1,M,10.0,0302*61
06/10/2019,23:31:10.603,$GPGGA,233109,4437.5829,N,12402.9429,W,2,08,01.0,21.0,M,-22.1,M,11.0,0302*61
06/10/2019,23:31:11.592,$GPGGA,233110,4437.5829,N,12402.9429,W,2,08,01.0,21.0,M,-22.1,M,12.0,0302*6A
06/10/2019,23:31:12.593,$GPGGA,233111,4437.5829,N,12402.9429,W,2,08,01.0,21.0,M,-22.1,M,10.0,0302*69
06/10/2019,23:31:13.609,$GPGGA,233112,4437.5829,N,12402.9429,W,2,08,01.0,21.0,M,-22.1,M,11.0,0302*6B
06/10/2019,23:31:14.500,$GPGGA,233113,4437.5829,N,12402.9428,W,2,08,01.0,21.0,M,-22.1,M,12.0,0302*68
06/10/2019,23:31:15.641,$GPGGA,233114,4437.5829,N,12402.9428,W,2,08,01.0,21.0,M,-22.1,M,10.0,0302*6D
06/10/2019,23:31:16.434,$GPGGA,233115,4437.5829,N,12402.9428,W,2,08,01.0,21.0,M,-22.1,M,11.0,0302*6D
06/10/2019,23:31:17.770,$GPGGA,233116,4437.5829,N,12402.9428,W,2,08,01.0,21.0,M,-22.1,M,12.0,0302*6D
06/10/2019,23:31:18.554,$GPGGA,233117,4437.5829,N,12402.9428,W,2,08,01.0,21.0,M,-22.1,M,10.0,0302*6E
06/10/2019,23:31:19.641,$GPGGA,233118,4437.5829,N,12402.9428,W,2,08,01.0,21.0,M,-22.1,M,11.0,0302*60
06/10/2019,23:31:20.452,$GPGGA,233119,4437.5829,N,12402.9428,W,2,08,01.0,21.0,M,-22.1,M,12.0,0302*62
06/10/2019,23:31:21.612,$GPGGA,233120,4437.5829,N,12402.9428,W,2,08,01.0,21.0,M,-22.1,M,10.0,0302*6A
06/10/2019,23:31:22.499,$GPGGA,233121,4437.5829,N,12402.9428,W,2,08,01.0,21.0,M,-22.1,M,11.0,0302*6A
06/10/2019,23:31:23.680,$GPGGA,233122,4437.5829,N,12402.9428,W,2,08,01.0,21.0,M,-22.1,M,12.0,0302*6A
06/10/2019,23:31:24.587,$GPGGA,233123,4437.5829,N,12402.9428,W,2,08,01.0,21.0,M,-22.1,M,10.0,0302*69
06/10/2019,23:31:25.408,$GPGGA,233124,4437.5829,N,12402.9428,W,2,08,01.0,21.0,M,-22.1,M,11.0,0302*6F
06/10/2019,23:31:26.802,$GPGGA,233125,4437.5829,N,12402.9428,W,2,08,01.0,21.0,M,-22.1,M,12.0,0302*6D
06/10/2019,23:31:28.481,$GPGGA,233127,4437.5828,N,12402.9428,W,2,08,01.0,21.0,M,-22.1,M,11.0,0302*6D
06/10/2019,23:31:29.583,$GPGGA,233128,4437.5828,N,12402.9428,W,2,08,01.0,21.0,M,-22.1,M,12.0,0302*61
06/10/2019,23:31:30.519,$GPGGA,233129,4437.5828,N,12402.9428,W,2,08,01.0,21.0,M,-22.1,M,10.0,0302*62
06/10/2019,23:31:31.588,$GPGGA,233130,4437.5828,N,12402.9428,W,2,08,01.0,21.0,M,-22.1,M,11.0,0302*6B
06/10/2019,23:31:32.695,$GPGGA,233131,4437.5828,N,12402.9428,W,2,08,01.0,21.0,M,-22.1,M,12.0,0302*69
06/10/2019,23:31:33.383,$GPGGA,233132,4437.5828,N,12402.9428,W,2,08,01.0,21.0,M,-22.1,M,10.0,0302*68
06/10/2019,23:31:34.808,$GPGGA,233133,4437.5828,N,12402.9428,W,2,08,01.0,21.0,M,-22.1,M,11.0,0302*68
06/10/2019,23:31:35.501,$GPGGA,233134,4437.5829,N,12402.9428,W,2,08,01.0,21.0,M,-22.1,M,12.0,0302*6D
06/10/2019,23:31:36.482,$GPGGA,233135,4437.5829,N,12402.9428,W,2,08,01.0,21.0,M,-22.1,M,10.0,0302*6E
06/10/2019,23:31:37.594,$GPGGA,233136,4437.5829,N,12402.9428,W,2,08,01.0,21.0,M,-22.1,M,11.0,0302*6C
06/10/2019,23:31:38.520,$GPGGA,233137,4437.5829,N,12402.9428,W,2,08,01.0,21.0,M,-22.1,M,12.0,0302*6E
06/10/2019,23:31:39.389,$GPGGA,233138,4437.5828,N,12402.9428,W,2,08,01.0,21.0,M,-22.1,M,10.0,0302*62
06/10/2019,23:31:40.883,$GPGGA,233139,4437.5828,N,12402.9428,W,2,08,01.0,21.0,M,-22.1,M,11.0,0302*62
06/10/2019,23:31:41.583,$GPGGA,233140,4437.5828,N,12402.9428,W,2,08,01.0,21.0,M,-22.1,M,12.0,0302*6F
06/10/2019,23:31:42.624,$GPGGA,233141,4437.5828,N,12402.9428,W,2,08,01.0,21.0,M,-22.1,M,10.0,0302*6C
06/10/2019,23:31:43.439,$GPGGA,233142,4437.5828,N,12402.9428,W,2,08,01.0,21.1,M,-22.1,M,11.0,0302*6F
06/10/2019,23:31:44.843,$GPGGA,233143,4437.5828,N,12402.9428,W,2,08,01.0,21.1,M,-22.1,M,12.0,0302*6D
06/10/2019,23:31:45.434,$GPGGA,233144,4437.5828,N,12402.9428,W,2,08,01.0,21.1,M,-22.1,M,10.0,0302*68
06/10/2019,23:31:46.574,$GPGGA,233145,4437.5828,N,12402.9428,W,2,08,01.0,21.1,M,-22.1,M,11.0,0302*68
06/10/2019,23:31:47.452,$GPGGA,233146,4437.5828,N,12402.9428,W,2,08,01.0,21.1,M,-22.1,M,12.0,0302*68
06/10/2019,23:31:48.686,$GPGGA,233147,4437.5828,N,12402.9428,W,2,08,01.0,21.1,M,-22.1,M,10.0,0302*6B
06/10/2019,23:31:49.493,$GPGGA,233148,4437.5828,N,12402.9428,W,2,08,01.0,21.1,M,-22.1,M,11.0,0302*65
06/10/2019,23:31:50.625,$GPGGA,233149,4437.5828,N,12402.9428,W,2,08,01.0,21.1,M,-22.1,M,12.0,0302*67
06/10/2019,23:31:51.890,$GPGGA,233150,4437.5828,N,12402.9428,W,2,08,01.0,21.1,M,-22.1,M,10.0,0302*6D
06/10/2019,23:31:52.697,$GPGGA,233151,4437.5828,N,12402.9428,W,2,08,01.0,21.1,M,-22.1,M,11.0,0302*6D
06/10/2019,23:31:53.493,$GPGGA,233152,4437.5828,N,12402.9428,W,2,08,01.0,21.1,M,-22.1,M,12.0,0302*6D
06/10/2019,23:31:54.621,$GPGGA,233153,4437.5828,N,12402.9428,W,2,08,01.0,21.1,M,-22.1,M,10.0,0302*6E
06/10/2019,23:31:55.889,$GPGGA,233154,4437.5828,N,12402.9429,W,2,08,01.0,21.1,M,-22.1,M,11.0,0302*69
06/10/2019,23:31:56.494,$GPGGA,233155,4437.5828,N,12402.9429,W,2,08,01.0,21.1,M,-22.1,M,12.0,0302*6B
06/10/2019,23:31:57.545,$GPGGA,233156,4437.5828,N,12402.9429,W,2,08,01.0,21.1,M,-22.1,M,10.0,0302*6A
06/10/2019,23:31:58.575,$GPGGA,233157,4437.5828,N,12402.9429,W,2,08,01.0,21.2,M,-22.1,M,11.0,0302*69
06/10/2019,23:31:59.548,$GPGGA,233158,4437.5828,N,12402.9429,W,2,08,01.0,21.2,M,-22.1,M,12.0,0302*65
06/10/2019,23:32:00.533,$GPGGA,233159,4437.5828,N,12402.9429,W,2,08,01.0,21.2,M,-22.1,M,10.0,0302*66
06/10/2019,23:32:01.744,$GPGGA,233200,4437.5828,N,12402.9429,W,2,08,01.0,21.2,M,-22.1,M,11.0,0302*68
06/10/2019,23:32:02.575,$GPGGA,233201,4437.5828,N,12402.9429,W,2,08,01.0,21.2,M,-22.1,M,12.0,0302*6A
06/10/2019,23:32:03.751,$GPGGA,233202,4437.5828,N,12402.9429,W,2,08,01.0,21.2,M,-22.1,M,10.0,0302*6B
06/10/2019,23:32:04.648,$GPGGA,233203,4437.5828,N,12402.9429,W,2,08,01.0,21.2,M,-22.1,M,11.0,0302*6B
06/10/2019,23:32:05.335,$GPGGA,233204,4437.5828,N,12402.9429,W,2,08,01.0,21.3,M,-22.1,M,12.0,0302*6E
06/10/2019,23:32:06.767,$GPGGA,233205,4437.5828,N,12402.9429,W,2,08,01.0,21.3,M,-22.1,M,10.0,0302*6D
06/10/2019,23:32:07.454,$GPGGA,233206,4437.5828,N,12402.9429,W,2,08,01.0,21.3,M,-22.1,M,11.0,0302*6F
06/10/2019,23:32:09.044,$GPGGA,233207,4437.5828,N,12402.9429,W,2,08,01.0,21.3,M,-22.1,M,12.0,0302*6D
06/10/2019,23:32:10.336,$GPGGA,233209,4437.5827,N,12402.9429,W,2,08,01.0,21.4,M,-22.1,M,11.0,0302*68
06/10/2019,23:32:11.772,$GPGGA,233210,4437.5827,N,12402.9429,W,2,08,01.0,21.4,M,-22.1,M,12.0,0302*63
06/10/2019,23:32:12.391,$GPGGA,233211,4437.5827,N,12402.9429,W,2,08,01.0,21.4,M,-22.1,M,10.0,0302*60
06/10/2019,23:32:13.594,$GPGGA,233212,4437.5827,N,12402.9429,W,2,08,01.0,21.4,M,-22.1,M,11.0,0302*62
06/10/2019,23:32:14.597,$GPGGA,233213,4437.5827,N,12402.9429,W,2,08,01.0,21.4,M,-22.1,M,12.0,0302*60
06/10/2019,23:32:15.611,$GPGGA,233214,4437.5827,N,12402.9429,W,2,08,01.0,21.4,M,-22.1,M,10.0,0302*65
06/10/2019,23:32:16.501,$GPGGA,233215,4437.5827,N,12402.9429,W,2,08,01.0,21.4,M,-22.1,M,11.0,0302*65
06/10/2019,23:32:17.694,$GPGGA,233216,4437.5827,N,12402.9429,W,2,08,01.0,21.4,M,-22.1,M,12.0,0302*65
06/10/2019,23:32:18.494,$GPGGA,233217,4437.5827,N,12402.9430,W,2,08,01.0,21.4,M,-22.1,M,10.0,0302*6E
06/10/2019,23:32:19.522,$GPGGA,233218,4437.5827,N,12402.9430,W,2,08,01.0,21.4,M,-22.1,M,11.0,0302*60
06/10/2019,23:32:20.503,$GPGGA,233219,4437.5827,N,12402.9430,W,2,08,01.0,21.4,M,-22.1,M,12.0,0302*62
06/10/2019,23:32:21.685,$GPGGA,233220,4437.5827,N,12402.9430,W,2,08,01.0,21.4,M,-22.1,M,10.0,0302*6A
06/10/2019,23:32:22.495,$GPGGA,233221,4437.5827,N,12402.9430,W,2,08,01.0,21.4,M,-22.1,M,11.0,0302*6A
06/10/2019,23:32:23.569,$GPGGA,233222,4437.5827,N,12402.9430,W,2,08,01.0,21.4,M,-22.1,M,12.0,0302*6A
06/10/2019,23:32:24.748,$GPGGA,233223,4437.5827,N,12402.9430,W,2,08,01.0,21.4,M,-22.1,M,10.0,0302*69
06/10/2019,23:32:26.653,$GPGGA,233225,4437.5827,N,12402.9430,W,2,08,01.0,21.4,M,-22.1,M,12.0,0302*6D
06/10/2019,23:32:27.545,$GPGGA,233226,4437.5827,N,12402.9430,W,2,08,01.0,21.4,M,-22.1,M,10.0,0302*6C
06/10/2019,23:32:29.361,$GPGGA,233228,4437.5827,N,12402.9430,W,2,08,01.0,21.4,M,-22.1,M,12.0,0302*60
06/10/2019,23:32:30.800,$GPGGA,233229,4437.5827,N,12402.9430,W,2,08,01.0,21.4,M,-22.1,M,13.0,0302*60
06/10/2019,23:32:31.685,$GPGGA,233230,4437.5827,N,12402.9430,W,2,08,01.0,21.4,M,-22.1,M,14.0,0302*6F
06/10/2019,23:32:32.496,$GPGGA,233231,4437.5827,N,12402.9430,W,2,08,01.0,21.4,M,-22.1,M,15.0,0302*6F
06/10/2019,23:32:33.411,$GPGGA,233232,4437.5827,N,12402.9430,W,2,08,01.0,21.4,M,-22.1,M,16.0,0302*6F
06/10/2019,23:32:34.799,$GPGGA,233233,4437.5828,N,12402.9430,W,2,08,01.0,21.3,M,-22.1,M,17.0,0302*67
06/10/2019,23:32:35.684,$GPGGA,233234,4437.5828,N,12402.9430,W,2,08,01.0,21.3,M,-22.1,M,18.0,0302*6F
06/10/2019,23:32:36.496,$GPGGA,233235,4437.5828,N,12402.9430,W,2,08,01.0,21.3,M,-22.1,M,19.0,0302*6F
06/10/2019,23:32:37.622,$GPGGA,233236,4437.5828,N,12402.9430,W,2,08,01.0,21.3,M,-22.1,M,20.0,0302*66
06/10/2019,23:32:38.504,$GPGGA,233237,4437.5828,N,12402.9430,W,2,08,01.0,21.3,M,-22.1,M,21.0,0302*66
06/10/2019,23:32:39.642,$GPGGA,233238,4437.5828,N,12402.9430,W,2,08,01.0,21.3,M,-22.1,M,22.0,0302*6A
06/10/2019,23:32:40.436,$GPGGA,233239,4437.5828,N,12402.9430,W,2,08,01.0,21.3,M,-22.1,M,23.0,0302*6A
06/10/2019,23:32:41.773,$GPGGA,233240,4437.5828,N,12402.9430,W,2,08,01.0,21.3,M,-22.1,M,24.0,0302*63
06/10/2019,23:32:42.557,$GPGGA,233241,4437.5828,N,12402.9430,W,2,08,01.0,21.3,M,-22.1,M,25.0,0302*63
06/10/2019,23:32:43.846,$GPGGA,233242,4437.5828,N,12402.9430,W,2,08,01.0,21.3,M,-22.1,M,26.0,0302*63
06/10/2019,23:32:44.548,$GPGGA,233243,4437.5828,N,12402.9430,W,2,08,01.0,21.3,M,-22.1,M,27.0,0302*63
06/10/2019,23:32:45.570,$GPGGA,233244,4437.5828,N,12402.9430,W,2,08,01.0,21.3,M,-22.1,M,28.0,0302*6B
06/10/2019,23:32:46.443,$GPGGA,233245,4437.5828,N,12402.9430,W,2,08,01.0,21.3,M,-22.1,M,29.0,0302*6B
06/10/2019,23:32:47.445,$GPGGA,233246,4437.5828,N,12402.9430,W,2,08,01.0,21.3,M,-22.1,M,30.0,0302*60
06/10/2019,23:32:48.589,$GPGGA,233247,4437.5828,N,12402.9430,W,2,08,01.0,21.3,M,-22.1,M,31.0,0302*60
06/10/2019,23:32:49.522,$GPGGA,233248,4437.5828,N,12402.9430,W,2,08,01.0,21.3,M,-22.1,M,32.0,0302*6C
06/10/2019,23:32:50.607,$GPGGA,233249,4437.5828,N,12402.9430,W,2,08,01.0,21.3,M,-22.1,M,33.0,0302*6C
06/10/2019,23:32:51.494,$GPGGA,233250,4437.5828,N,12402.9430,W,2,08,01.0,21.3,M,-22.1,M,34.0,0302*63
06/10/2019,23:32:52.386,$GPGGA,233251,4437.5828,N,12402.9430,W,2,08,01.0,21.3,M,-22.1,M,35.0,0302*63
06/10/2019,23:32:53.523,$GPGGA,233252,4437.5828,N,12402.9430,W,2,08,01.0,21.3,M,-22.1,M,36.0,0302*63
06/10/2019,23:32:54.608,$GPGGA,233253,4437.5828,N,12402.9430,W,2,08,01.0,21.3,M,-22.1,M,10.0,0302*66
06/10/2019,23:32:55.685,$GPGGA,233254,4437.5828,N,12402.9430,W,2,08,01.0,21.3,M,-22.1,M,11.0,0302*60
06/10/2019,23:32:57.387,$GPGGA,233256,4437.5828,N,12402.9430,W,2,08,01.0,21.3,M,-22.1,M,10.0,0302*63
06/10/2019,23:32:58.625,$GPGGA,233257,4437.5828,N,12402.9430,W,2,08,01.0,21.3,M,-22.1,M,11.0,0302*63
06/10/2019,23:32:59.504,$GPGGA,233258,4437.5828,N,12402.9430,W,2,08,01.0,21.3,M,-22.1,M,12.0,0302*6F
06/10/2019,23:33:00.688,$GPGGA,233259,4437.5828,N,12402.9430,W,2,08,01.0,21.3,M,-22.1,M,10.0,0302*6C
06/10/2019,23:33:01.496,$GPGGA,233300,4437.5828,N,12402.9430,W,2,08,01.0,21.3,M,-22.1,M,11.0,0302*60
06/10/2019,23:33:02.912,$GPGGA,233301,4437.5828,N,12402.9430,W,2,08,01.0,21.3,M,-22.1,M,12.0,0302*62
06/10/2019,23:33:04.505,$GPGGA,233303,4437.5828,N,12402.9430,W,2,08,01.0,21.3,M,-22.1,M,11.0,0302*63
06/10/2019,23:33:05.486,$GPGGA,233304,4437.5828,N,12402.9430,W,2,08,01.0,21.3,M,-22.1,M,12.0,0302*67
06/10/2019,23:33:06.788,$GPGGA,233305,4437.5828,N,12402.9430,W,2,08,01.0,21.3,M,-22.1,M,10.0,0302*64
06/10/2019,23:33:07.524,$GPGGA,233306,4437.5828,N,12402.9430,W,2,08,01.0,21.3,M,-22.1,M,11.0,0302*66
06/10/2019,23:33:08.505,$GPGGA,233307,4437.5828,N,12402.9430,W,2,08,01.0,21.3,M,-22.1,M,12.0,0302*64
06/10/2019,23:33:09.597,$GPGGA,233308,4437.5828,N,12402.9430,W,2,08,01.0,21.3,M,-22.1,M,10.0,0302*69
06/10/2019,23:33:10.600,$GPGGA,233309,4437.5828,N,12402.9430,W,2,08,01.0,21.4,M,-22.1,M,11.0,0302*6E
06/10/2019,23:33:11.628,$GPGGA,233310,4437.5828,N,12402.9431,W,2,07,01.0,21.4,M,-22.1,M,12.0,0302*6B
06/10/2019,23:33:12.505,$GPGGA,233311,4437.5828,N,12402.9431,W,2,07,01.0,21.4,M,-22.1,M,10.0,0302*68
06/10/2019,23:33:13.536,$GPGGA,233312,4437.5828,N,12402.9431,W,2,07,01.0,21.4,M,-22.1,M,11.0,0302*6A
06/10/2019,23:33:14.748,$GPGGA,233313,4437.5828,N,12402.9431,W,2,07,01.0,21.4,M,-22.1,M,12.0,0302*68
06/10/2019,23:33:15.464,$GPGGA,233314,4437.5828,N,12402.9431,W,2,07,01.0,21.5,M,-22.1,M,10.0,0302*6C
06/10/2019,23:33:16.565,$GPGGA,233315,4437.5827,N,12402.9431,W,2,07,01.0,21.5,M,-22.1,M,11.0,0302*63
06/10/2019,23:33:17.537,$GPGGA,233316,4437.5827,N,12402.9431,W,2,07,01.0,21.5,M,-22.1,M,12.0,0302*63
06/10/2019,23:33:18.551,$GPGGA,233317,4437.5827,N,12402.9431,W,2,07,01.0,21.5,M,-22.1,M,10.0,0302*60
06/10/2019,23:33:19.774,$GPGGA,233318,4437.5827,N,12402.9431,W,2,07,01.0,21.5,M,-22.1,M,11.0,0302*6E
06/10/2019,23:33:20.558,$GPGGA,233319,4437.5827,N,12402.9431,W,2,07,01.0,21.5,M,-22.1,M,12.0,0302*6C
06/10/2019,23:33:21.648,$GPGGA,233320,4437.5827,N,12402.9431,W,2,07,01.0,21.5,M,-22.1,M,10.0,0302*64
06/10/2019,23:33:22.838,$GPGGA,233321,4437.5827,N,12402.9431,W,2,07,01.0,21.5,M,-22.1,M,11.0,0302*64
06/10/2019,23:33:23.572,$GPGGA,233322,4437.5827,N,12402.9431,W,2,07,01.0,21.5,M,-22.1,M,12.0,0302*64
06/10/2019,23:33:24.344,$GPGGA,233323,4437.5827,N,12402.9431,W,2,07,01.0,21.5,M,-22.1,M,10.0,0302*67
06/10/2019,23:33:25.846,$GPGGA,233324,4437.5827,N,12402.9431,W,2,07,01.0,21.5,M,-22.1,M,11.0,0302*61
06/10/2019,23:33:27.549,$GPGGA,233326,4437.5827,N,12402.9431,W,2,07,01.0,21.5,M,-22.1,M,10.0,0302*62
06/10/2019,23:33:28.577,$GPGGA,233327,4437.5827,N,12402.9431,W,2,07,01.0,21.5,M,-22.1,M,11.0,0302*62
06/10/2019,23:33:29.444,$GPGGA,233328,4437.5827,N,12402.9431,W,2,07,01.0,21.5,M,-22.1,M,12.0,0302*6E
06/10/2019,23:33:30.649,$GPGGA,233329,4437.5827,N,12402.9431,W,2,07,01.0,21.5,M,-22.1,M,10.0,0302*6D
06/10/2019,23:33:31.449,$GPGGA,233330,4437.5827,N,12402.9431,W,2,07,01.0,21.5,M,-22.1,M,11.0,0302*64
06/10/2019,23:33:32.580,$GPGGA,233331,4437.5827,N,12402.9431,W,2,07,01.0,21.5,M,-22.1,M,12.0,0302*66
06/10/2019,23:33:33.551,$GPGGA,233332,4437.5827,N,12402.9431,W,2,07,01.0,21.5,M,-22.1,M,10.0,0302*67
06/10/2019,23:33:34.840,$GPGGA,233333,4437.5827,N,12402.9431,W,2,07,01.0,21.5,M,-22.1,M,11.0,0302*67
06/10/2019,23:33:35.588,$GPGGA,233334,4437.5827,N,12402.9431,W,2,07,01.0,21.5,M,-22.1,M,12.0,0302*63
06/10/2019,23:33:36.525,$GPGGA,233335,4437.5827,N,12402.9431,W,2,07,01.0,21.5,M,-22.1,M,10.0,0302*60
06/10/2019,23:33:37.604,$GPGGA,233336,4437.5827,N,12402.9431,W,2,07,01.0,21.5,M,-22.1,M,11.0,0302*62
06/10/2019,23:33:38.599,$GPGGA,233337,4437.5827,N,12402.9431,W,2,07,01.0,21.5,M,-22.1,M,12.0,0302*60
06/10/2019,23:33:39.547,$GPGGA,233338,4437.5827,N,12402.9431,W,2,07,01.0,21.5,M,-22.1,M,10.0,0302*6D
06/10/2019,23:33:40.465,$GPGGA,233339,4437.5827,N,12402.9431,W,2,07,01.0,21.5,M,-22.1,M,11.0,0302*6D
06/10/2019,23:33:41.552,$GPGGA,233340,4437.5827,N,12402.9431,W,2,07,01.0,21.5,M,-22.1,M,12.0,0302*60
06/10/2019,23:33:42.538,$GPGGA,233341,4437.5827,N,12402.9431,W,2,07,01.0,21.5,M,-22.1,M,10.0,0302*63
06/10/2019,23:33:43.745,$GPGGA,233342,4437.5827,N,12402.9431,W,2,07,01.0,21.5,M,-22.1,M,11.0,0302*61
06/10/2019,23:33:45.526,$GPGGA,233344,4437.5827,N,12402.9431,W,2,07,01.0,21.5,M,-22.1,M,10.0,0302*66
06/10/2019,23:33:46.609,$GPGGA,233345,4437.5827,N,12402.9431,W,2,07,01.0,21.5,M,-22.1,M,11.0,0302*66
06/10/2019,23:33:47.497,$GPGGA,233346,4437.5827,N,12402.9431,W,2,07,01.0,21.5,M,-22.1,M,12.0,0302*66
06/10/2019,23:33:48.390,$GPGGA,233347,4437.5827,N,12402.9431,W,2,07,01.0,21.5,M,-22.1,M,10.0,0302*65
06/10/2019,23:33:49.615,$GPGGA,233348,4437.5827,N,12402.9431,W,2,07,01.0,21.5,M,-22.1,M,11.0,0302*6B
06/10/2019,23:33:50.508,$GPGGA,233349,4437.5827,N,12402.9431,W,2,07,01.0,21.5,M,-22.1,M,12.0,0302*69
06/10/2019,23:33:51.655,$GPGGA,233350,4437.5827,N,12402.9431,W,2,07,01.0,21.5,M,-22.1,M,10.0,0302*63
06/10/2019,23:33:52.440,$GPGGA,233351,4437.5827,N,12402.9431,W,2,07,01.0,21.5,M,-22.1,M,11.0,0302*63
06/10/2019,23:33:53.572,$GPGGA,233352,4437.5827,N,12402.9431,W,2,07,01.0,21.5,M,-22.1,M,12.0,0302*63
06/10/2019,23:33:54.445,$GPGGA,233353,4437.5827,N,12402.9431,W,2,07,01.0,21.6,M,-22.1,M,10.0,0302*63
06/10/2019,23:33:55.645,$GPGGA,233354,4437.5827,N,12402.9431,W,2,07,01.0,21.6,M,-22.1,M,11.0,0302*65
06/10/2019,23:33:56.552,$GPGGA,233355,4437.5827,N,12402.9431,W,2,07,01.0,21.6,M,-22.1,M,12.0,0302*67
06/10/2019,23:33:57.465,$GPGGA,233356,4437.5827,N,12402.9431,W,2,07,01.0,21.6,M,-22.1,M,10.0,0302*66
06/10/2019,23:33:58.560,$GPGGA,233357,4437.5827,N,12402.9431,W,2,07,01.0,21.6,M,-22.1,M,11.0,0302*66
06/10/2019,23:33:59.850,$GPGGA,233358,4437.5827,N,12402.9431,W,2,07,01.0,21.6,M,-22.1,M,12.0,0302*6A
06/10/2019,23:34:00.554,$GPGGA,233359,4437.5827,N,12402.9431,W,2,07,01.0,21.6,M,-22.1,M,10.0,0302*69
06/10/2019,23:34:01.467,$GPGGA,233400,4437.5827,N,12402.9431,W,2,07,01.0,21.6,M,-22.1,M,11.0,0302*63
06/10/2019,23:34:02.946,$GPGGA,233401,4437.5827,N,12402.9431,W,2,07,01.0,21.6,M,-22.1,M,12.0,0302*61
06/10/2019,23:34:03.744,$GPGGA,233402,4437.5827,N,12402.9432,W,2,07,01.0,21.6,M,-22.1,M,10.0,0302*63
06/10/2019,23:34:04.441,$GPGGA,233403,4437.5827,N,12402.9432,W,2,07,01.0,21.6,M,-22.1,M,11.0,0302*63
06/10/2019,23:34:05.166,$GPGGA,233404,4437.5827,N,12402.9432,W,2,08,01.0,21.6,M,-22.1,M,12.0,0302*68
06/10/2019,23:34:06.610,$GPGGA,233405,4437.5827,N,12402.9432,W,2,08,01.0,21.7,M,-22.1,M,10.0,0302*6A
06/10/2019,23:34:07.598,$GPGGA,233406,4437.5827,N,12402.9432,W,2,08,01.0,21.6,M,-22.1,M,11.0,0302*69
06/10/2019,23:34:08.592,$GPGGA,233407,4437.5827,N,12402.9432,W,2,08,01.0,21.6,M,-22.1,M,12.0,0302*6B
06/10/2019,23:34:09.415,$GPGGA,233408,4437.5827,N,12402.9432,W,2,08,01.0,21.7,M,-22.1,M,10.0,0302*67
06/10/2019,23:34:10.610,$GPGGA,233409,4437.5827,N,12402.9432,W,2,08,01.0,21.7,M,-22.1,M,11.0,0302*67
06/10/2019,23:34:11.500,$GPGGA,233410,4437.5827,N,12402.9432,W,2,08,01.0,21.7,M,-22.1,M,12.0,0302*6C
06/10/2019,23:34:12.999,$GPGGA,233411,4437.5827,N,12402.9432,W,2,07,01.0,21.6,M,-22.1,M,10.0,0302*61
06/10/2019,23:34:13.729,$GPGGA,233412,4437.5827,N,12402.9432,W,2,07,01.0,21.7,M,-22.1,M,11.0,0302*62
06/10/2019,23:34:14.796,$GPGGA,233413,4437.5827,N,12402.9432,W,2,07,01.0,21.6,M,-22.1,M,12.0,0302*61
06/10/2019,23:34:15.618,$GPGGA,233414,4437.5827,N,12402.9432,W,2,07,01.0,21.7,M,-22.1,M,10.0,0302*65
06/10/2019,23:34:16.750,$GPGGA,233415,4437.5827,N,12402.9432,W,2,07,01.0,21.6,M,-22.1,M,11.0,0302*64
06/10/2019,23:34:17.466,$GPGGA,233416,4437.5827,N,12402.9432,W,2,07,01.0,21.6,M,-22.1,M,12.0,0302*64
06/10/2019,23:34:18.748,$GPGGA,233417,4437.5827,N,12402.9432,W,2,07,01.0,21.6,M,-22.1,M,10.0,0302*67
06/10/2019,23:34:19.646,$GPGGA,233418,4437.5827,N,12402.9432,W,2,07,01.0,21.7,M,-22.1,M,11.0,0302*68
06/10/2019,23:34:20.749,$GPGGA,233419,4437.5827,N,12402.9432,W,2,07,01.0,21.7,M,-22.1,M,12.0,0302*6A
06/10/2019,23:34:22.367,$GPGGA,233421,4437.5827,N,12402.9432,W,2,07,01.0,21.7,M,-22.1,M,11.0,0302*62
06/10/2019,23:34:23.752,$GPGGA,233422,4437.5827,N,12402.9432,W,2,07,01.0,21.7,M,-22.1,M,12.0,0302*62
06/10/2019,23:34:25.689,$GPGGA,233424,4437.5827,N,12402.9432,W,2,07,01.0,21.7,M,-22.1,M,11.0,0302*67
06/10/2019,23:34:26.511,$GPGGA,233425,4437.5827,N,12402.9432,W,2,07,01.0,21.7,M,-22.1,M,12.0,0302*65
06/10/2019,23:34:27.577,$GPGGA,233426,4437.5827,N,12402.9432,W,2,07,01.0,21.7,M,-22.1,M,10.0,0302*64
06/10/2019,23:34:28.560,$GPGGA,233427,4437.5827,N,12402.9432,W,2,07,01.0,21.7,M,-22.1,M,11.0,0302*64
06/10/2019,23:34:29.540,$GPGGA,233428,4437.5827,N,12402.9432,W,2,07,01.0,21.7,M,-22.1,M,12.0,0302*68
06/10/2019,23:34:30.553,$GPGGA,233429,4437.5827,N,12402.9432,W,2,07,01.0,21.7,M,-22.1,M,10.0,0302*6B
06/10/2019,23:34:31.367,$GPGGA,233430,4437.5827,N,12402.9432,W,2,07,01.0,21.7,M,-22.1,M,11.0,0302*62
06/10/2019,23:34:32.807,$GPGGA,233431,4437.5827,N,12402.9432,W,2,07,01.0,21.7,M,-22.1,M,12.0,0302*60
06/10/2019,23:34:33.602,$GPGGA,233432,4437.5827,N,12402.9432,W,2,07,01.0,21.7,M,-22.1,M,10.0,0302*61
06/10/2019,23:34:34.501,$GPGGA,233433,4437.5827,N,12402.9432,W,2,07,01.0,21.7,M,-22.1,M,11.0,0302*61
06/10/2019,23:34:35.528,$GPGGA,233434,4437.5827,N,12402.9432,W,2,07,01.0,21.7,M,-22.1,M,12.0,0302*65
06/10/2019,23:34:36.599,$GPGGA,233435,4437.5827,N,12402.9432,W,2,07,01.0,21.7,M,-22.1,M,10.0,0302*66
06/10/2019,23:34:37.501,$GPGGA,233436,4437.5827,N,12402.9432,W,2,07,01.0,21.7,M,-22.1,M,11.0,0302*64
06/10/2019,23:34:38.554,$GPGGA,233437,4437.5827,N,12402.9432,W,2,07,01.0,21.7,M,-22.1,M,12.0,0302*66
06/10/2019,23:34:39.467,$GPGGA,233438,4437.5827,N,12402.9432,W,2,07,01.0,21.7,M,-22.1,M,10.0,0302*6B
06/10/2019,23:34:40.561,$GPGGA,233439,4437.5828,N,12402.9432,W,2,07,01.0,21.7,M,-22.1,M,11.0,0302*64
06/10/2019,23:34:41.540,$GPGGA,233440,4437.5828,N,12402.9432,W,2,07,01.0,21.7,M,-22.1,M,12.0,0302*69
06/10/2019,23:34:42.847,$GPGGA,233441,4437.5828,N,12402.9432,W,2,07,01.0,21.7,M,-22.1,M,10.0,0302*6A
06/10/2019,23:34:43.584,$GPGGA,233442,4437.5828,N,12402.9432,W,2,07,01.0,21.6,M,-22.1,M,11.0,0302*69
06/10/2019,23:34:44.600,$GPGGA,233443,4437.5828,N,12402.9432,W,2,07,01.0,21.7,M,-22.1,M,12.0,0302*6A
06/10/2019,23:34:45.601,$GPGGA,233444,4437.5828,N,12402.9432,W,2,07,01.0,21.7,M,-22.1,M,10.0,0302*6F
06/10/2019,23:34:46.604,$GPGGA,233445,4437.5828,N,12402.9432,W,2,07,01.0,21.7,M,-22.1,M,11.0,0302*6F
06/10/2019,23:34:47.529,$GPGGA,233446,4437.5828,N,12402.9432,W,2,07,01.0,21.7,M,-22.1,M,12.0,0302*6F
06/10/2019,23:34:48.510,$GPGGA,233447,4437.5828,N,12402.9432,W,2,07,01.0,21.7,M,-22.1,M,10.0,0302*6C
06/10/2019,23:34:49.690,$GPGGA,233448,4437.5828,N,12402.9432,W,2,07,01.0,21.7,M,-22.1,M,11.0,0302*62
06/10/2019,23:34:50.502,$GPGGA,233449,4437.5828,N,12402.9432,W,2,07,01.0,21.7,M,-22.1,M,12.0,0302*60
06/10/2019,23:34:51.578,$GPGGA,233450,4437.5828,N,12402.9432,W,2,07,01.0,21.7,M,-22.1,M,10.0,0302*6A
06/10/2019,23:34:52.448,$GPGGA,233451,4437.5828,N,12402.9432,W,2,07,01.0,21.7,M,-22.1,M,11.0,0302*6A
06/10/2019,23:34:53.544,$GPGGA,233452,4437.5828,N,12402.9432,W,2,07,01.0,21.7,M,-22.1,M,12.0,0302*6A
06/10/2019,23:34:54.442,$GPGGA,233453,4437.5828,N,12402.9432,W,2,07,01.0,21.7,M,-22.1,M,10.0,0302*69
06/10/2019,23:34:55.779,$GPGGA,233454,4437.5828,N,12402.9432,W,2,07,01.0,21.7,M,-22.1,M,11.0,0302*6F
06/10/2019,23:34:56.561,$GPGGA,233455,4437.5828,N,12402.9432,W,2,07,01.0,21.7,M,-22.1,M,12.0,0302*6D
06/10/2019,23:34:57.441,$GPGGA,233456,4437.5828,N,12402.9432,W,2,07,01.0,21.7,M,-22.1,M,10.0,0302*6C
06/10/2019,23:34:58.556,$GPGGA,233457,4437.5828,N,12402.9432,W,2,07,01.0,21.7,M,-22.1,M,11.0,0302*6C
06/10/2019,23:34:59.368,$GPGGA,233458,4437.5828,N,12402.9432,W,2,07,01.0,21.7,M,-22.1,M,12.0,0302*60
06/10/2019,23:35:00.759,$GPGGA,233459,4437.5828,N,12402.9432,W,2,07,01.0,21.7,M,-22.1,M,10.0,0302*63
06/10/2019,23:35:01.542,$GPGGA,233500,4437.5828,N,12402.9432,W,2,07,01.0,21.7,M,-22.1,M,11.0,0302*6F
06/10/2019,23:35:02.843,$GPGGA,233501,4437.5828,N,12402.9432,W,2,07,01.0,21.7,M,-22.1,M,12.0,0302*6D
06/10/2019,23:35:03.575,$GPGGA,233502,4437.5828,N,12402.9432,W,2,07,01.0,21.7,M,-22.1,M,10.0,0302*6C
06/10/2019,23:35:04.348,$GPGGA,233503,4437.5828,N,12402.9432,W,2,07,01.0,21.7,M,-22.1,M,11.0,0302*6C
06/10/2019,23:35:05.852,$GPGGA,233504,4437.5828,N,12402.9432,W,2,07,01.0,21.7,M,-22.1,M,12.0,0302*68
06/10/2019,23:35:06.555,$GPGGA,233505,4437.5828,N,12402.9432,W,2,07,01.0,21.7,M,-22.1,M,10.0,0302*6B
06/10/2019,23:35:07.580,$GPGGA,233506,4437.5828,N,12402.9432,W,2,07,01.0,21.8,M,-22.1,M,11.0,0302*66
06/10/2019,23:35:08.450,$GPGGA,233507,4437.5828,N,12402.9432,W,2,07,01.0,21.8,M,-22.1,M,12.0,0302*64
06/10/2019,23:35:09.647,$GPGGA,233508,4437.5828,N,12402.9432,W,2,07,01.0,21.8,M,-22.1,M,10.0,0302*69
06/10/2019,23:35:10.605,$GPGGA,233509,4437.5828,N,12402.9432,W,2,07,01.0,21.8,M,-22.1,M,11.0,0302*69
06/10/2019,23:35:11.918,$GPGGA,233510,4437.5828,N,12402.9432,W,2,07,01.0,21.8,M,-22.1,M,12.0,0302*62
06/10/2019,23:35:12.615,$GPGGA,233511,4437.5828,N,12402.9432,W,2,07,01.0,21.8,M,-22.1,M,10.0,0302*61
06/10/2019,23:35:13.603,$GPGGA,233512,4437.5828,N,12402.9432,W,2,07,01.0,21.8,M,-22.1,M,11.0,0302*63
06/10/2019,23:35:14.603,$GPGGA,233513,4437.5828,N,12402.9432,W,2,07,01.0,21.8,M,-22.1,M,12.0,0302*61
06/10/2019,23:35:15.418,$GPGGA,233514,4437.5828,N,12402.9432,W,2,07,01.0,21.8,M,-22.1,M,10.0,0302*64
06/10/2019,23:35:16.809,$GPGGA,233515,4437.5828,N,12402.9432,W,2,07,01.0,21.8,M,-22.1,M,11.0,0302*64
06/10/2019,23:35:17.700,$GPGGA,233516,4437.5828,N,12402.9432,W,2,07,01.0,21.8,M,-22.1,M,12.0,0302*64
06/10/2019,23:35:18.503,$GPGGA,233517,4437.5828,N,12402.9432,W,2,07,01.0,21.8,M,-22.1,M,10.0,0302*67
06/10/2019,23:35:19.470,$GPGGA,233518,4437.5828,N,12402.9432,W,2,07,01.0,21.8,M,-22.1,M,11.0,0302*69
06/10/2019,23:35:20.760,$GPGGA,233519,4437.5828,N,12402.9432,W,2,07,01.0,21.8,M,-22.1,M,12.0,0302*6B
06/10/2019,23:35:21.652,$GPGGA,233520,4437.5828,N,12402.9432,W,2,07,01.0,21.8,M,-22.1,M,10.0,0302*63
06/10/2019,23:35:22.444,$GPGGA,233521,4437.5828,N,12402.9432,W,2,07,01.0,21.8,M,-22.1,M,11.0,0302*63
06/10/2019,23:35:23.969,$GPGGA,233522,4437.5828,N,12402.9432,W,2,07,01.0,21.8,M,-22.1,M,12.0,0302*63
06/10/2019,23:35:24.651,$GPGGA,233523,4437.5828,N,12402.9432,W,2,07,01.0,21.8,M,-22.1,M,10.0,0302*60
06/10/2019,23:35:25.543,$GPGGA,233524,4437.5828,N,12402.9432,W,2,07,01.0,21.8,M,-22.1,M,11.0,0302*66
06/10/2019,23:35:26.753,$GPGGA,233525,4437.5828,N,12402.9432,W,2,07,01.0,21.8,M,-22.1,M,12.0,0302*64
06/10/2019,23:35:28.370,$GPGGA,233527,4437.5828,N,12402.9432,W,2,07,01.0,21.8,M,-22.1,M,11.0,0302*65
06/10/2019,23:35:29.350,$GPGGA,233528,4437.5828,N,12402.9432,W,2,07,01.0,21.8,M,-22.1,M,12.0,0302*69
06/10/2019,23:35:30.853,$GPGGA,233529,4437.5828,N,12402.9432,W,2,07,01.0,21.8,M,-22.1,M,10.0,0302*6A
06/10/2019,23:35:31.445,$GPGGA,233530,4437.5828,N,12402.9432,W,2,07,01.0,21.8,M,-22.1,M,11.0,0302*63
06/10/2019,23:35:32.780,$GPGGA,233531,4437.5827,N,12402.9432,W,2,07,01.0,21.8,M,-22.1,M,12.0,0302*6E
06/10/2019,23:35:33.400,$GPGGA,233532,4437.5827,N,12402.9432,W,2,07,01.0,21.8,M,-22.1,M,10.0,0302*6F
06/10/2019,23:35:34.705,$GPGGA,233533,4437.5828,N,12402.9432,W,2,07,01.0,21.8,M,-22.1,M,11.0,0302*60
06/10/2019,23:35:35.393,$GPGGA,233534,4437.5828,N,12402.9432,W,2,07,01.0,21.8,M,-22.1,M,12.0,0302*64
06/10/2019,23:35:36.829,$GPGGA,233535,4437.5828,N,12402.9432,W,2,07,01.0,21.8,M,-22.1,M,10.0,0302*67
06/10/2019,23:35:38.400,$GPGGA,233537,4437.5828,N,12402.9432,W,2,07,01.0,21.8,M,-22.1,M,12.0,0302*67
06/10/2019,23:35:39.693,$GPGGA,233538,4437.5828,N,12402.9432,W,2,07,01.0,21.8,M,-22.1,M,10.0,0302*6A
06/10/2019,23:35:40.504,$GPGGA,233539,4437.5828,N,12402.9432,W,2,07,01.0,21.8,M,-22.1,M,11.0,0302*6A
06/10/2019,23:35:41.620,$GPGGA,233540,4437.5827,N,12402.9432,W,2,07,01.0,21.8,M,-22.1,M,12.0,0302*68
06/10/2019,23:35:42.512,$GPGGA,233541,4437.5827,N,12402.9432,W,2,07,01.0,21.8,M,-22.1,M,10.0,0302*6B
06/10/2019,23:35:43.543,$GPGGA,233542,4437.5827,N,12402.9432,W,2,07,01.0,21.8,M,-22.1,M,11.0,0302*69
06/10/2019,23:35:44.754,$GPGGA,233543,4437.5827,N,12402.9432,W,2,07,01.0,21.8,M,-22.1,M,12.0,0302*6B
06/10/2019,23:35:45.576,$GPGGA,233544,4437.5828,N,12402.9432,W,2,07,01.0,21.8,M,-22.1,M,10.0,0302*61
06/10/2019,23:35:46.452,$GPGGA,233545,4437.5828,N,12402.9432,W,2,07,01.0,21.8,M,-22.1,M,11.0,0302*61
06/10/2019,23:35:48.043,$GPGGA,233546,4437.5828,N,12402.9432,W,2,07,01.0,21.8,M,-22.1,M,12.0,0302*61
06/10/2019,23:35:49.345,$GPGGA,233548,4437.5828,N,12402.9432,W,2,07,01.0,21.8,M,-22.1,M,11.0,0302*6C
06/10/2019,23:35:50.781,$GPGGA,233549,4437.5828,N,12402.9432,W,2,07,01.0,21.8,M,-22.1,M,12.0,0302*6E
06/10/2019,23:35:51.453,$GPGGA,233550,4437.5828,N,12402.9432,W,2,07,01.0,21.8,M,-22.1,M,10.0,0302*64
06/10/2019,23:35:52.656,$GPGGA,233551,4437.5828,N,12402.9432,W,2,07,01.0,21.8,M,-22.1,M,11.0,0302*64
06/10/2019,23:35:53.458,$GPGGA,233552,4437.5828,N,12402.9432,W,2,07,01.0,21.8,M,-22.1,M,12.0,0302*64
06/10/2019,23:35:54.585,$GPGGA,233553,4437.5828,N,12402.9432,W,2,07,01.0,21.8,M,-22.1,M,10.0,0302*67
06/10/2019,23:35:55.556,$GPGGA,233554,4437.5828,N,12402.9432,W,2,07,01.0,21.8,M,-22.1,M,11.0,0302*61
06/10/2019,23:35:56.655,$GPGGA,233555,4437.5828,N,12402.9432,W,2,07,01.0,21.8,M,-22.1,M,12.0,0302*63
06/10/2019,23:35:57.457,$GPGGA,233556,4437.5828,N,12402.9432,W,2,07,01.0,21.8,M,-22.1,M,10.0,0302*62
06/10/2019,23:35:58.634,$GPGGA,233557,4437.5828,N,12402.9432,W,2,07,01.0,21.8,M,-22.1,M,11.0,0302*62
06/10/2019,23:35:59.400,$GPGGA,233558,4437.5828,N,12402.9432,W,2,07,01.0,21.9,M,-22.1,M,12.0,0302*6F
06/10/2019,23:36:00.695,$GPGGA,233559,4437.5828,N,12402.9432,W,2,07,01.0,21.9,M,-22.1,M,10.0,0302*6C
06/10/2019,23:36:01.505,$GPGGA,233600,4437.5828,N,12402.9432,W,2,07,01.0,21.9,M,-22.1,M,11.0,0302*62
06/10/2019,23:36:02.634,$GPGGA,233601,4437.5828,N,12402.9432,W,2,07,01.0,21.9,M,-22.1,M,12.0,0302*60
06/10/2019,23:36:03.601,$GPGGA,233602,4437.5828,N,12402.9432,W,2,07,01.0,21.9,M,-22.1,M,10.0,0302*61
06/10/2019,23:36:04.606,$GPGGA,233603,4437.5828,N,12402.9432,W,2,07,01.0,21.9,M,-22.1,M,11.0,0302*61
06/10/2019,23:36:05.595,$GPGGA,233604,4437.5828,N,12402.9432,W,2,07,01.0,21.9,M,-22.1,M,12.0,0302*65
06/10/2019,23:36:06.533,$GPGGA,233605,4437.5828,N,12402.9432,W,2,07,01.0,21.9,M,-22.1,M,10.0,0302*66
06/10/2019,23:36:07.401,$GPGGA,233606,4437.5828,N,12402.9432,W,2,07,01.0,21.9,M,-22.1,M,11.0,0302*64
06/10/2019,23:36:08.606,$GPGGA,233607,4437.5828,N,12402.9432,W,2,07,01.0,21.9,M,-22.1,M,12.0,0302*66
06/10/2019,23:36:09.594,$GPGGA,233608,4437.5828,N,12402.9432,W,2,07,01.0,21.9,M,-22.1,M,10.0,0302*6B
06/10/2019,23:36:10.920,$GPGGA,233609,4437.5828,N,12402.9432,W,2,07,01.0,21.9,M,-22.1,M,11.0,0302*6B
06/10/2019,23:36:11.601,$GPGGA,233610,4437.5828,N,12402.9432,W,2,07,01.0,21.9,M,-22.1,M,12.0,0302*60
06/10/2019,23:36:12.493,$GPGGA,233611,4437.5828,N,12402.9432,W,2,07,01.0,21.9,M,-22.1,M,10.0,0302*63
06/10/2019,23:36:13.596,$GPGGA,233612,4437.5828,N,12402.9432,W,2,07,01.0,21.9,M,-22.1,M,11.0,0302*61
06/10/2019,23:36:14.534,$GPGGA,233613,4437.5828,N,12402.9432,W,2,07,01.0,21.9,M,-22.1,M,12.0,0302*63
06/10/2019,23:36:15.401,$GPGGA,233614,4437.5828,N,12402.9432,W,2,07,01.0,21.9,M,-22.1,M,10.0,0302*66
06/10/2019,23:36:16.696,$GPGGA,233615,4437.5828,N,12402.9432,W,2,07,01.0,21.9,M,-22.1,M,11.0,0302*66
06/10/2019,23:36:17.504,$GPGGA,233616,4437.5828,N,12402.9432,W,2,07,01.0,21.9,M,-22.1,M,09.0,0302*6C
06/10/2019,23:36:18.636,$GPGGA,233617,4437.5828,N,12402.9432,W,2,07,01.0,21.9,M,-22.1,M,10.0,0302*65
06/10/2019,23:36:19.512,$GPGGA,233618,4437.5828,N,12402.9432,W,2,07,01.0,21.9,M,-22.1,M,08.0,0302*63
06/10/2019,23:36:20.696,$GPGGA,233619,4437.5828,N,12402.9432,W,2,07,01.0,21.9,M,-22.1,M,09.0,0302*63
06/10/2019,23:36:21.504,$GPGGA,233620,4437.5828,N,12402.9432,W,2,07,01.0,21.9,M,-22.1,M,10.0,0302*61
06/10/2019,23:36:22.636,$GPGGA,233621,4437.5828,N,12402.9432,W,2,07,01.0,21.9,M,-22.1,M,09.0,0302*68
06/10/2019,23:36:23.512,$GPGGA,233622,4437.5828,N,12402.9432,W,2,07,01.0,21.9,M,-22.1,M,10.0,0302*63
06/10/2019,23:36:24.697,$GPGGA,233623,4437.5828,N,12402.9432,W,2,07,01.0,21.9,M,-22.1,M,09.0,0302*6A
06/10/2019,23:36:25.505,$GPGGA,233624,4437.5828,N,12402.9432,W,2,07,01.0,21.9,M,-22.1,M,10.0,0302*65
06/10/2019,23:36:26.922,$GPGGA,233625,4437.5828,N,12402.9432,W,2,07,01.0,21.9,M,-22.1,M,08.0,0302*6D
06/10/2019,23:36:27.615,$GPGGA,233626,4437.5828,N,12402.9432,W,2,07,01.0,21.9,M,-22.1,M,09.0,0302*6F
06/10/2019,23:36:28.696,$GPGGA,233627,4437.5828,N,12402.9432,W,2,07,01.0,21.9,M,-22.1,M,08.0,0302*6F
06/10/2019,23:36:29.505,$GPGGA,233628,4437.5828,N,12402.9432,W,2,08,01.0,21.9,M,-22.1,M,09.0,0302*6E
06/10/2019,23:36:30.634,$GPGGA,233629,4437.5828,N,12402.9432,W,2,07,01.0,21.9,M,-22.1,M,10.0,0302*68
06/10/2019,23:36:31.513,$GPGGA,233630,4437.5828,N,12402.9432,W,2,07,01.0,21.9,M,-22.1,M,10.0,0302*60
06/10/2019,23:36:32.607,$GPGGA,233631,4437.5828,N,12402.9432,W,2,07,01.0,21.9,M,-22.1,M,11.0,0302*60
06/10/2019,23:36:33.596,$GPGGA,233632,4437.5828,N,12402.9432,W,2,07,01.0,21.9,M,-22.1,M,12.0,0302*60
06/10/2019,23:36:34.836,$GPGGA,233633,4437.5828,N,12402.9432,W,2,07,01.0,21.9,M,-22.1,M,13.0,0302*60
06/10/2019,23:36:35.515,$GPGGA,233634,4437.5828,N,12402.9432,W,2,08,00.9,21.9,M,-22.1,M,14.0,0302*67
06/10/2019,23:36:36.697,$GPGGA,233635,4437.5828,N,12402.9432,W,2,07,01.0,21.9,M,-22.1,M,15.0,0302*60
06/10/2019,23:36:37.396,$GPGGA,233636,4437.5828,N,12402.9432,W,2,07,01.0,22.0,M,-22.1,M,13.0,0302*6F
06/10/2019,23:36:38.635,$GPGGA,233637,4437.5828,N,12402.9432,W,2,07,01.0,22.0,M,-22.1,M,14.0,0302*69
06/10/2019,23:36:39.763,$GPGGA,233638,4437.5828,N,12402.9432,W,2,07,01.0,22.0,M,-22.1,M,12.0,0302*60
06/10/2019,23:36:41.445,$GPGGA,233640,4437.5829,N,12402.9432,W,2,07,01.0,22.0,M,-22.1,M,14.0,0302*68
06/10/2019,23:36:42.756,$GPGGA,233641,4437.5829,N,12402.9431,W,2,07,01.0,22.0,M,-22.1,M,14.0,0302*6A
06/10/2019,23:36:44.474,$GPGGA,233643,4437.5829,N,12402.9431,W,2,07,01.0,22.0,M,-22.1,M,09.0,0302*64
06/10/2019,23:36:45.557,$GPGGA,233644,4437.5828,N,12402.9431,W,2,07,01.0,22.0,M,-22.1,M,10.0,0302*6A
06/10/2019,23:36:47.046,$GPGGA,233645,4437.5828,N,12402.9431,W,2,07,01.0,21.9,M,-22.1,M,08.0,0302*68
06/10/2019,23:36:47.657,$GPGGA,233646,4437.5828,N,12402.9431,W,2,07,01.0,21.9,M,-22.1,M,09.0,0302*6A
06/10/2019,23:36:48.624,$GPGGA,233647,4437.5828,N,12402.9431,W,2,07,01.0,21.9,M,-22.1,M,10.0,0302*63
06/10/2019,23:36:49.403,$GPGGA,233648,4437.5828,N,12402.9431,W,2,07,01.0,21.9,M,-22.1,M,09.0,0302*64
06/10/2019,23:36:50.714,$GPGGA,233649,4437.5828,N,12402.9431,W,2,07,01.0,21.9,M,-22.1,M,10.0,0302*6D
06/10/2019,23:36:51.509,$GPGGA,233650,4437.5828,N,12402.9431,W,2,07,01.0,21.9,M,-22.1,M,11.0,0302*64
06/10/2019,23:36:52.535,$GPGGA,233651,4437.5828,N,12402.9431,W,2,07,01.0,21.9,M,-22.1,M,10.0,0302*64
06/10/2019,23:36:53.402,$GPGGA,233652,4437.5828,N,12402.9431,W,2,07,01.0,21.9,M,-22.1,M,11.0,0302*66
06/10/2019,23:36:54.712,$GPGGA,233653,4437.5828,N,12402.9431,W,2,07,01.0,21.9,M,-22.1,M,09.0,0302*6E
06/10/2019,23:36:55.596,$GPGGA,233654,4437.5828,N,12402.9431,W,2,07,01.0,21.9,M,-22.1,M,10.0,0302*61
06/10/2019,23:36:56.535,$GPGGA,233655,4437.5828,N,12402.9431,W,2,07,01.0,21.8,M,-22.1,M,11.0,0302*60
06/10/2019,23:36:57.403,$GPGGA,233656,4437.5828,N,12402.9431,W,2,07,01.0,21.8,M,-22.1,M,09.0,0302*6A
06/10/2019,23:36:58.712,$GPGGA,233657,4437.5828,N,12402.9431,W,2,07,01.0,21.8,M,-22.1,M,10.0,0302*63
06/10/2019,23:36:59.597,$GPGGA,233658,4437.5828,N,12402.9431,W,2,07,01.0,21.8,M,-22.1,M,09.0,0302*64
06/10/2019,23:37:00.536,$GPGGA,233659,4437.5828,N,12402.9431,W,2,07,01.0,21.8,M,-22.1,M,10.0,0302*6D
06/10/2019,23:37:01.603,$GPGGA,233700,4437.5828,N,12402.9431,W,2,07,01.0,21.8,M,-22.1,M,11.0,0302*61
06/10/2019,23:37:02.608,$GPGGA,233701,4437.5828,N,12402.9431,W,2,07,01.0,21.8,M,-22.1,M,09.0,0302*69
06/10/2019,23:37:03.447,$GPGGA,233702,4437.5828,N,12402.9431,W,2,07,01.0,21.8,M,-22.1,M,10.0,0302*62
06/10/2019,23:37:04.784,$GPGGA,233703,4437.5828,N,12402.9431,W,2,07,01.0,21.8,M,-22.1,M,09.0,0302*6B
06/10/2019,23:37:05.558,$GPGGA,233704,4437.5828,N,12402.9431,W,2,07,01.0,21.8,M,-22.1,M,10.0,0302*64
06/10/2019,23:37:06.548,$GPGGA,233705,4437.5828,N,12402.9431,W,2,07,01.0,21.8,M,-22.1,M,08.0,0302*6C
06/10/2019,23:37:07.947,$GPGGA,233706,4437.5828,N,12402.9431,W,2,07,01.0,21.8,M,-22.1,M,09.0,0302*6E
06/10/2019,23:37:09.476,$GPGGA,233708,4437.5828,N,12402.9430,W,2,07,01.0,21.7,M,-22.1,M,09.0,0302*6E
06/10/2019,23:37:10.568,$GPGGA,233709,4437.5828,N,12402.9430,W,2,07,01.0,21.7,M,-22.1,M,10.0,0302*67
06/10/2019,23:37:11.857,$GPGGA,233710,4437.5828,N,12402.9430,W,2,07,01.0,21.7,M,-22.1,M,08.0,0302*66
06/10/2019,23:37:12.561,$GPGGA,233711,4437.5828,N,12402.9430,W,2,07,01.0,21.7,M,-22.1,M,09.0,0302*66
06/10/2019,23:37:13.578,$GPGGA,233712,4437.5828,N,12402.9430,W,2,07,01.0,21.7,M,-22.1,M,10.0,0302*6D
06/10/2019,23:37:14.568,$GPGGA,233713,4437.5828,N,12402.9430,W,2,07,01.0,21.7,M,-22.1,M,10.0,0302*6C
06/10/2019,23:37:15.651,$GPGGA,233714,4437.5828,N,12402.9430,W,2,07,01.0,21.7,M,-22.1,M,11.0,0302*6A
06/10/2019,23:37:16.449,$GPGGA,233715,4437.5828,N,12402.9430,W,2,07,01.0,21.7,M,-22.1,M,09.0,0302*62
06/10/2019,23:37:17.785,$GPGGA,233716,4437.5828,N,12402.9430,W,2,07,01.0,21.7,M,-22.1,M,10.0,0302*69
06/10/2019,23:37:18.568,$GPGGA,233717,4437.5828,N,12402.9430,W,2,07,01.0,21.7,M,-22.1,M,11.0,0302*69
06/10/2019,23:37:19.549,$GPGGA,233718,4437.5828,N,12402.9430,W,2,07,01.0,21.7,M,-22.1,M,09.0,0302*6F
06/10/2019,23:37:20.758,$GPGGA,233719,4437.5828,N,12402.9430,W,2,07,01.0,21.6,M,-22.1,M,10.0,0302*67
06/10/2019,23:37:21.583,$GPGGA,233720,4437.5828,N,12402.9430,W,2,07,01.0,21.6,M,-22.1,M,11.0,0302*6C
06/10/2019,23:37:22.457,$GPGGA,233721,4437.5828,N,12402.9430,W,2,07,01.0,21.6,M,-22.1,M,11.0,0302*6D
06/10/2019,23:37:24.055,$GPGGA,233722,4437.5828,N,12402.9430,W,2,07,01.0,21.6,M,-22.1,M,12.0,0302*6D
06/10/2019,23:37:24.651,$GPGGA,233723,4437.5828,N,12402.9430,W,2,07,01.0,21.6,M,-22.1,M,09.0,0302*66
