08/21/2019,00:00:01.624,$GPGGA,000001,4737.4666,N,12224.0176,W,2,10,00.9,17.8,M,-18.5,M,11.0,0277*6B
08/21/2019,00:00:02.841,$GPGGA,000002,4737.4666,N,12224.0176,W,2,10,00.9,17.8,M,-18.5,M,12.0,0277*6B
08/21/2019,00:00:03.675,$GPGGA,000003,4737.4666,N,12224.0175,W,2,10,00.9,17.8,M,-18.5,M,13.0,0277*68
08/21/2019,00:00:04.690,$GPGGA,000004,4737.4667,N,12224.0174,W,2,10,00.9,17.9,M,-18.5,M,11.0,0277*6C
08/21/2019,00:00:05.672,$GPGGA,000005,4737.4667,N,12224.0174,W,2,10,00.9,17.9,M,-18.5,M,12.0,0277*6E
08/21/2019,00:00:06.777,$GPGGA,000006,4737.4667,N,12224.0173,W,2,10,00.9,17.9,M,-18.5,M,13.0,0277*6B
08/21/2019,00:00:08.429,$GPGGA,000007,4737.4667,N,12224.0173,W,2,10,00.9,18.0,M,-18.5,M,11.0,0277*6E
08/21/2019,00:00:08.709,$GPGGA,000008,4737.4668,N,12224.0172,W,2,10,00.9,18.0,M,-18.5,M,12.0,0277*6C
08/21/2019,00:00:09.672,$GPGGA,000009,4737.4668,N,12224.0172,W,2,10,00.9,18.0,M,-18.5,M,13.0,0277*6C
08/21/2019,00:00:10.781,$GPGGA,000010,4737.4668,N,12224.0171,W,2,10,00.9,18.0,M,-18.5,M,12.0,0277*66
08/21/2019,00:00:11.673,$GPGGA,000011,4737.4668,N,12224.0171,W,2,10,00.9,18.0,M,-18.5,M,13.0,0277*66
08/21/2019,00:00:12.916,$GPGGA,000012,4737.4669,N,12224.0170,W,2,10,00.9,18.0,M,-18.5,M,12.0,0277*64
08/21/2019,00:00:13.732,$GPGGA,000013,4737.4669,N,12224.0170,W,2,10,00.9,18.1,M,-18.5,M,13.0,0277*65
08/21/2019,00:00:14.777,$GPGGA,000014,4737.4669,N,12224.0169,W,2,10,00.9,18.1,M,-18.5,M,10.0,0277*69
08/21/2019,00:00:15.695,$GPGGA,000015,4737.4669,N,12224.0169,W,2,10,00.9,18.1,M,-18.5,M,11.0,0277*69
08/21/2019,00:00:17.137,$GPGGA,000016,4737.4670,N,12224.0168,W,2,10,00.9,18.1,M,-18.5,M,12.0,0277*60
08/21/2019,00:00:17.783,$GPGGA,000017,4737.4670,N,12224.0168,W,2,10,00.9,18.1,M,-18.5,M,11.0,0277*62
08/21/2019,00:00:19.209,$GPGGA,000018,4737.4670,N,12224.0167,W,2,10,00.9,18.1,M,-18.5,M,12.0,0277*61
08/21/2019,00:00:19.667,$GPGGA,000019,4737.4670,N,12224.0167,W,2,10,00.9,18.1,M,-18.5,M,13.0,0277*61
08/21/2019,00:00:20.772,$GPGGA,000020,4737.4671,N,12224.0166,W,2,10,00.9,18.1,M,-18.5,M,13.0,0277*6B
08/21/2019,00:00:22.024,$GPGGA,000021,4737.4671,N,12224.0166,W,2,10,00.9,18.1,M,-18.5,M,14.0,0277*6D
08/21/2019,00:00:22.852,$GPGGA,000022,4737.4671,N,12224.0166,W,2,10,00.9,18.1,M,-18.5,M,15.0,0277*6F
08/21/2019,00:00:23.624,$GPGGA,000023,4737.4671,N,12224.0165,W,2,10,00.9,18.1,M,-18.5,M,12.0,0277*6A
08/21/2019,00:00:24.789,$GPGGA,000024,4737.4672,N,12224.0165,W,2,10,00.9,18.1,M,-18.5,M,13.0,0277*6F
08/21/2019,00:00:26.236,$GPGGA,000025,4737.4672,N,12224.0164,W,2,10,00.9,18.1,M,-18.5,M,11.0,0277*6D
08/21/2019,00:00:26.867,$GPGGA,000026,4737.4672,N,12224.0164,W,2,10,00.9,18.2,M,-18.5,M,12.0,0277*6E
08/21/2019,00:00:27.630,$GPGGA,000027,4737.4672,N,12224.0163,W,2,10,00.9,18.2,M,-18.5,M,13.0,0277*69
08/21/2019,00:00:28.743,$GPGGA,000028,4737.4672,N,12224.0162,W,2,10,00.9,18.2,M,-18.5,M,11.0,0277*65
08/21/2019,00:00:29.956,$GPGGA,000029,4737.4673,N,12224.0162,W,2,10,00.9,18.2,M,-18.5,M,12.0,0277*66
08/21/2019,00:00:30.850,$GPGGA,000030,4737.4673,N,12224.0162,W,2,10,00.9,18.2,M,-18.5,M,13.0,0277*6F
08/21/2019,00:00:31.935,$GPGGA,000031,4737.4673,N,12224.0161,W,2,10,00.9,18.2,M,-18.5,M,14.0,0277*6A
08/21/2019,00:00:33.012,$GPGGA,000032,4737.4673,N,12224.0161,W,2,10,00.9,18.2,M,-18.5,M,15.0,0277*68
08/21/2019,00:00:33.976,$GPGGA,000033,4737.4673,N,12224.0161,W,2,10,00.9,18.2,M,-18.5,M,16.0,0277*6A
08/21/2019,00:00:34.816,$GPGGA,000034,4737.4674,N,12224.0160,W,2,10,00.9,18.1,M,-18.5,M,13.0,0277*6D
08/21/2019,00:00:35.726,$GPGGA,000035,4737.4674,N,12224.0160,W,2,10,00.9,18.1,M,-18.5,M,14.0,0277*6B
08/21/2019,00:00:36.753,$GPGGA,000036,4737.4674,N,12224.0159,W,2,10,00.9,18.1,M,-18.5,M,15.0,0277*63
08/21/2019,00:00:37.633,$GPGGA,000037,4737.4674,N,12224.0159,W,2,10,00.9,18.1,M,-18.5,M,13.0,0277*64
08/21/2019,00:00:38.950,$GPGGA,000038,4737.4675,N,12224.0158,W,2,10,00.9,18.1,M,-18.5,M,14.0,0277*6C
08/21/2019,00:00:39.667,$GPGGA,000039,4737.4675,N,12224.0158,W,2,09,00.9,18.0,M,-18.5,M,15.0,0277*65
08/21/2019,00:00:40.744,$GPGGA,000040,4737.4675,N,12224.0158,W,2,09,00.9,18.0,M,-18.5,M,13.0,0277*6D
08/21/2019,00:00:41.674,$GPGGA,000041,4737.4676,N,12224.0157,W,2,09,00.9,17.9,M,-18.5,M,14.0,0277*61
08/21/2019,00:00:42.872,$GPGGA,000042,4737.4676,N,12224.0157,W,2,09,00.9,17.9,M,-18.5,M,15.0,0277*63
08/21/2019,00:00:43.620,$GPGGA,000043,4737.4676,N,12224.0157,W,2,09,00.9,17.8,M,-18.5,M,13.0,0277*65
08/21/2019,00:00:44.806,$GPGGA,000044,4737.4676,N,12224.0157,W,2,10,00.9,17.8,M,-18.5,M,14.0,0277*6D
08/21/2019,00:00:45.772,$GPGGA,000045,4737.4677,N,12224.0156,W,2,10,00.9,17.7,M,-18.5,M,12.0,0277*65
08/21/2019,00:00:46.850,$GPGGA,000046,4737.4677,N,12224.0156,W,2,10,00.9,17.7,M,-18.5,M,13.0,0277*67
08/21/2019,00:00:47.626,$GPGGA,000047,4737.4677,N,12224.0156,W,2,10,00.9,17.7,M,-18.5,M,11.0,0277*64
08/21/2019,00:00:49.097,$GPGGA,000048,4737.4677,N,12224.0155,W,2,10,00.9,17.7,M,-18.5,M,12.0,0277*6B
08/21/2019,00:00:49.723,$GPGGA,000049,4737.4678,N,12224.0155,W,2,10,00.9,17.7,M,-18.5,M,13.0,0277*64
08/21/2019,00:00:50.828,$GPGGA,000050,4737.4678,N,12224.0154,W,2,10,00.9,17.7,M,-18.5,M,11.0,0277*6F
08/21/2019,00:00:51.728,$GPGGA,000051,4737.4678,N,12224.0154,W,2,10,00.9,17.7,M,-18.5,M,12.0,0277*6D
08/21/2019,00:00:52.655,$GPGGA,000052,4737.4678,N,12224.0154,W,2,10,00.9,17.7,M,-18.5,M,13.0,0277*6F
08/21/2019,00:00:53.735,$GPGGA,000053,4737.4678,N,12224.0153,W,2,10,00.9,17.7,M,-18.5,M,14.0,0277*6E
08/21/2019,00:00:54.814,$GPGGA,000054,4737.4679,N,12224.0153,W,2,10,00.9,17.7,M,-18.5,M,10.0,0277*6C
08/21/2019,00:00:56.139,$GPGGA,000055,4737.4679,N,12224.0153,W,2,10,00.9,17.7,M,-18.5,M,11.0,0277*6C
08/21/2019,00:00:56.764,$GPGGA,000056,4737.4679,N,12224.0152,W,2,10,00.9,17.8,M,-18.5,M,10.0,0277*60
08/21/2019,00:00:57.690,$GPGGA,000057,4737.4679,N,12224.0152,W,2,10,00.9,17.7,M,-18.5,M,11.0,0277*6F
08/21/2019,00:00:59.038,$GPGGA,000058,4737.4679,N,12224.0152,W,2,10,00.9,17.7,M,-18.5,M,11.0,0277*60
08/21/2019,00:01:00.271,$GPGGA,000059,4737.4679,N,12224.0152,W,2,10,00.9,17.7,M,-18.5,M,12.0,0277*62
08/21/2019,00:01:00.946,$GPGGA,000100,4737.4680,N,12224.0151,W,2,10,00.9,17.8,M,-18.5,M,10.0,0277*67
08/21/2019,00:01:02.042,$GPGGA,000101,4737.4680,N,12224.0151,W,2,10,00.9,17.8,M,-18.5,M,11.0,0277*67
08/21/2019,00:01:03.420,$GPGGA,000102,4737.4680,N,12224.0151,W,2,10,00.9,17.8,M,-18.5,M,11.0,0277*64
08/21/2019,00:01:03.676,$GPGGA,000103,4737.4680,N,12224.0151,W,2,10,00.9,17.8,M,-18.5,M,12.0,0277*66
08/21/2019,00:01:05.171,$GPGGA,000104,4737.4680,N,12224.0150,W,2,10,00.9,17.8,M,-18.5,M,13.0,0277*61
08/21/2019,00:01:05.684,$GPGGA,000105,4737.4680,N,12224.0150,W,2,10,00.9,17.8,M,-18.5,M,11.0,0277*62
08/21/2019,00:01:07.081,$GPGGA,000106,4737.4680,N,12224.0150,W,2,10,00.9,17.8,M,-18.5,M,12.0,0277*62
08/21/2019,00:01:07.954,$GPGGA,000107,4737.4681,N,12224.0149,W,2,10,00.9,17.8,M,-18.5,M,13.0,0277*6B
08/21/2019,00:01:08.694,$GPGGA,000108,4737.4681,N,12224.0149,W,2,10,00.9,17.8,M,-18.5,M,13.0,0277*64
08/21/2019,00:01:09.684,$GPGGA,000109,4737.4681,N,12224.0149,W,2,10,00.9,17.8,M,-18.5,M,14.0,0277*62
08/21/2019,00:01:10.800,$GPGGA,000110,4737.4681,N,12224.0149,W,2,10,00.9,17.8,M,-18.5,M,15.0,0277*6B
08/21/2019,00:01:12.153,$GPGGA,000111,4737.4681,N,12224.0148,W,2,10,00.9,17.8,M,-18.5,M,12.0,0277*6C
08/21/2019,00:01:13.057,$GPGGA,000112,4737.4681,N,12224.0148,W,2,10,00.9,17.8,M,-18.5,M,13.0,0277*6E
08/21/2019,00:01:13.793,$GPGGA,000113,4737.4681,N,12224.0148,W,2,10,00.9,17.8,M,-18.5,M,14.0,0277*68
08/21/2019,00:01:14.860,$GPGGA,000114,4737.4681,N,12224.0147,W,2,10,00.9,17.8,M,-18.5,M,12.0,0277*66
08/21/2019,00:01:15.963,$GPGGA,000115,4737.4682,N,12224.0147,W,2,10,00.9,17.8,M,-18.5,M,13.0,0277*65
08/21/2019,00:01:16.705,$GPGGA,000116,4737.4682,N,12224.0147,W,2,10,00.9,17.8,M,-18.5,M,11.0,0277*64
08/21/2019,00:01:17.832,$GPGGA,000117,4737.4682,N,12224.0147,W,2,10,00.9,17.8,M,-18.5,M,12.0,0277*66
08/21/2019,00:01:19.135,$GPGGA,000118,4737.4682,N,12224.0147,W,2,10,00.9,17.8,M,-18.5,M,10.0,0277*6B
08/21/2019,00:01:19.846,$GPGGA,000119,4737.4682,N,12224.0146,W,2,10,00.9,17.8,M,-18.5,M,11.0,0277*6A
08/21/2019,00:01:20.705,$GPGGA,000120,4737.4682,N,12224.0146,W,2,10,00.9,17.8,M,-18.5,M,12.0,0277*63
08/21/2019,00:01:21.748,$GPGGA,000121,4737.4682,N,12224.0146,W,2,10,00.9,17.8,M,-18.5,M,13.0,0277*63
08/21/2019,00:01:22.846,$GPGGA,000122,4737.4682,N,12224.0146,W,2,10,00.9,17.8,M,-18.5,M,14.0,0277*67
08/21/2019,00:01:23.720,$GPGGA,000123,4737.4682,N,12224.0145,W,2,10,00.9,17.7,M,-18.5,M,11.0,0277*6F
08/21/2019,00:01:24.721,$GPGGA,000124,4737.4682,N,12224.0145,W,2,10,00.9,17.7,M,-18.5,M,12.0,0277*6B
08/21/2019,00:01:25.682,$GPGGA,000125,4737.4683,N,12224.0145,W,2,10,00.9,17.8,M,-18.5,M,13.0,0277*65
08/21/2019,00:01:26.777,$GPGGA,000126,4737.4683,N,12224.0145,W,2,10,00.9,17.8,M,-18.5,M,14.0,0277*61
08/21/2019,00:01:27.870,$GPGGA,000127,4737.4683,N,12224.0145,W,2,10,00.9,17.8,M,-18.5,M,15.0,0277*61
08/21/2019,00:01:28.695,$GPGGA,000128,4737.4683,N,12224.0145,W,2,10,00.9,17.8,M,-18.5,M,16.0,0277*6D
08/21/2019,00:01:29.675,$GPGGA,000129,4737.4683,N,12224.0144,W,2,10,00.9,17.8,M,-18.5,M,13.0,0277*68
08/21/2019,00:01:31.180,$GPGGA,000130,4737.4683,N,12224.0144,W,2,10,00.9,17.7,M,-18.5,M,14.0,0277*68
08/21/2019,00:01:31.677,$GPGGA,000131,4737.4683,N,12224.0144,W,2,10,00.9,17.7,M,-18.5,M,15.0,0277*68
08/21/2019,00:01:32.699,$GPGGA,000132,4737.4683,N,12224.0144,W,2,10,00.9,17.8,M,-18.5,M,12.0,0277*63
08/21/2019,00:01:33.686,$GPGGA,000133,4737.4683,N,12224.0144,W,2,10,00.9,17.8,M,-18.5,M,13.0,0277*63
08/21/2019,00:01:34.787,$GPGGA,000134,4737.4683,N,12224.0144,W,2,10,00.9,17.8,M,-18.5,M,11.0,0277*66
08/21/2019,00:01:35.677,$GPGGA,000135,4737.4683,N,12224.0143,W,2,10,00.9,17.7,M,-18.5,M,12.0,0277*6C
08/21/2019,00:01:36.706,$GPGGA,000136,4737.4683,N,12224.0143,W,2,10,00.9,17.7,M,-18.5,M,10.0,0277*6D
08/21/2019,00:01:37.676,$GPGGA,000137,4737.4684,N,12224.0143,W,2,10,00.9,17.7,M,-18.5,M,11.0,0277*6A
08/21/2019,00:01:38.792,$GPGGA,000138,4737.4684,N,12224.0143,W,2,10,00.9,17.7,M,-18.5,M,12.0,0277*66
08/21/2019,00:01:39.677,$GPGGA,000139,4737.4684,N,12224.0143,W,2,10,00.9,17.7,M,-18.5,M,11.0,0277*64
08/21/2019,00:01:40.772,$GPGGA,000140,4737.4684,N,12224.0143,W,2,10,00.9,17.7,M,-18.5,M,12.0,0277*69
08/21/2019,00:01:41.739,$GPGGA,000141,4737.4684,N,12224.0143,W,2,10,00.9,17.7,M,-18.5,M,13.0,0277*69
08/21/2019,00:01:42.797,$GPGGA,000142,4737.4684,N,12224.0143,W,2,10,00.9,17.6,M,-18.5,M,13.0,0277*6B
08/21/2019,00:01:43.623,$GPGGA,000143,4737.4684,N,12224.0143,W,2,10,00.9,17.6,M,-18.5,M,14.0,0277*6D
08/21/2019,00:01:44.695,$GPGGA,000144,4737.4684,N,12224.0143,W,2,10,00.9,17.6,M,-18.5,M,15.0,0277*6B
08/21/2019,00:01:46.138,$GPGGA,000145,4737.4684,N,12224.0142,W,2,10,00.9,17.6,M,-18.5,M,13.0,0277*6D
08/21/2019,00:01:46.855,$GPGGA,000146,4737.4684,N,12224.0142,W,2,10,00.9,17.6,M,-18.5,M,14.0,0277*69
08/21/2019,00:01:47.669,$GPGGA,000147,4737.4684,N,12224.0142,W,2,10,00.9,17.6,M,-18.5,M,15.0,0277*69
08/21/2019,00:01:48.988,$GPGGA,000148,4737.4684,N,12224.0142,W,2,10,00.9,17.6,M,-18.5,M,12.0,0277*61
08/21/2019,00:01:50.023,$GPGGA,000149,4737.4684,N,12224.0142,W,2,10,00.9,17.5,M,-18.5,M,13.0,0277*62
08/21/2019,00:01:50.892,$GPGGA,000150,4737.4685,N,12224.0142,W,2,10,00.9,17.6,M,-18.5,M,14.0,0277*6F
08/21/2019,00:01:52.083,$GPGGA,000151,4737.4685,N,12224.0142,W,2,10,00.9,17.6,M,-18.5,M,13.0,0277*69
08/21/2019,00:01:53.072,$GPGGA,000152,4737.4685,N,12224.0142,W,2,10,00.9,17.6,M,-18.5,M,14.0,0277*6D
08/21/2019,00:01:54.031,$GPGGA,000153,4737.4685,N,12224.0142,W,2,10,00.9,17.6,M,-18.5,M,15.0,0277*6D
08/21/2019,00:01:54.787,$GPGGA,000154,4737.4685,N,12224.0142,W,2,10,00.9,17.5,M,-18.5,M,16.0,0277*6A
08/21/2019,00:01:56.236,$GPGGA,000155,4737.4685,N,12224.0142,W,2,10,00.9,17.5,M,-18.5,M,17.0,0277*6A
08/21/2019,00:01:56.704,$GPGGA,000156,4737.4685,N,12224.0142,W,2,10,00.9,17.5,M,-18.5,M,18.0,0277*66
08/21/2019,00:01:58.150,$GPGGA,000157,4737.4685,N,12224.0142,W,2,10,00.9,17.5,M,-18.5,M,19.0,0277*66
08/21/2019,00:01:58.890,$GPGGA,000158,4737.4685,N,12224.0142,W,2,09,00.9,17.5,M,-18.5,M,08.0,0277*61
08/21/2019,00:01:59.788,$GPGGA,000159,4737.4685,N,12224.0142,W,2,09,00.9,17.5,M,-18.5,M,09.0,0277*61
08/21/2019,00:02:00.824,$GPGGA,000200,4737.4685,N,12224.0142,W,2,09,00.9,17.5,M,-18.5,M,10.0,0277*66
08/21/2019,00:02:01.687,$GPGGA,000201,4737.4685,N,12224.0143,W,2,10,00.9,17.4,M,-18.5,M,11.0,0277*6E
08/21/2019,00:02:02.783,$GPGGA,000202,4737.4685,N,12224.0143,W,2,10,00.9,17.4,M,-18.5,M,12.0,0277*6E
08/21/2019,00:02:03.905,$GPGGA,000203,4737.4685,N,12224.0143,W,2,10,00.9,17.4,M,-18.5,M,12.0,0277*6F
08/21/2019,00:02:04.914,$GPGGA,000204,4737.4685,N,12224.0143,W,2,10,00.9,17.4,M,-18.5,M,13.0,0277*69
08/21/2019,00:02:05.677,$GPGGA,000205,4737.4685,N,12224.0143,W,2,10,00.9,17.4,M,-18.5,M,10.0,0277*6B
08/21/2019,00:02:06.787,$GPGGA,000206,4737.4685,N,12224.0143,W,2,10,00.9,17.4,M,-18.5,M,11.0,0277*69
08/21/2019,00:02:07.675,$GPGGA,000207,4737.4685,N,12224.0143,W,2,10,00.9,17.4,M,-18.5,M,12.0,0277*6B
08/21/2019,00:02:08.748,$GPGGA,000208,4737.4685,N,12224.0143,W,2,10,00.9,17.4,M,-18.5,M,11.0,0277*67
08/21/2019,00:02:09.689,$GPGGA,000209,4737.4685,N,12224.0143,W,2,10,00.9,17.4,M,-18.5,M,12.0,0277*65
08/21/2019,00:02:10.807,$GPGGA,000210,4737.4685,N,12224.0143,W,2,10,00.9,17.4,M,-18.5,M,12.0,0277*6D
08/21/2019,00:02:11.672,$GPGGA,000211,4737.4685,N,12224.0143,W,2,10,00.9,17.4,M,-18.5,M,13.0,0277*6D
08/21/2019,00:02:12.708,$GPGGA,000212,4737.4685,N,12224.0143,W,2,10,00.9,17.4,M,-18.5,M,14.0,0277*69
08/21/2019,00:02:13.688,$GPGGA,000213,4737.4685,N,12224.0144,W,2,10,00.9,17.4,M,-18.5,M,11.0,0277*6A
08/21/2019,00:02:14.778,$GPGGA,000214,4737.4685,N,12224.0144,W,2,10,00.9,17.4,M,-18.5,M,12.0,0277*6E
08/21/2019,00:02:15.738,$GPGGA,000215,4737.4685,N,12224.0144,W,2,10,00.9,17.4,M,-18.5,M,13.0,0277*6E
08/21/2019,00:02:16.758,$GPGGA,000216,4737.4685,N,12224.0144,W,2,10,00.9,17.4,M,-18.5,M,14.0,0277*6A
08/21/2019,00:02:17.810,$GPGGA,000217,4737.4685,N,12224.0144,W,2,10,00.9,17.4,M,-18.5,M,11.0,0277*6E
08/21/2019,00:02:18.745,$GPGGA,000218,4737.4685,N,12224.0144,W,2,10,00.9,17.4,M,-18.5,M,12.0,0277*62
08/21/2019,00:02:19.624,$GPGGA,000219,4737.4685,N,12224.0144,W,2,09,00.9,17.4,M,-18.5,M,13.0,0277*6A
08/21/2019,00:02:20.759,$GPGGA,000220,4737.4685,N,12224.0145,W,2,09,00.9,17.4,M,-18.5,M,11.0,0277*63
08/21/2019,00:02:21.732,$GPGGA,000221,4737.4685,N,12224.0145,W,2,10,00.9,17.4,M,-18.5,M,12.0,0277*69
08/21/2019,00:02:22.832,$GPGGA,000222,4737.4685,N,12224.0145,W,2,10,00.9,17.4,M,-18.5,M,13.0,0277*6B
08/21/2019,00:02:23.732,$GPGGA,000223,4737.4685,N,12224.0145,W,2,10,00.9,17.4,M,-18.5,M,14.0,0277*6D
08/21/2019,00:02:24.800,$GPGGA,000224,4737.4685,N,12224.0145,W,2,10,00.9,17.4,M,-18.5,M,15.0,0277*6B
08/21/2019,00:02:26.043,$GPGGA,000225,4737.4685,N,12224.0146,W,2,10,00.9,17.4,M,-18.5,M,11.0,0277*6D
08/21/2019,00:02:26.779,$GPGGA,000226,4737.4685,N,12224.0146,W,2,10,00.9,17.4,M,-18.5,M,12.0,0277*6D
08/21/2019,00:02:27.683,$GPGGA,000227,4737.4685,N,12224.0146,W,2,10,00.9,17.4,M,-18.5,M,10.0,0277*6E
08/21/2019,00:02:28.704,$GPGGA,000228,4737.4685,N,12224.0146,W,2,10,00.9,17.4,M,-18.5,M,11.0,0277*60
08/21/2019,00:02:30.503,$GPGGA,000229,4737.4685,N,12224.0147,W,2,10,00.9,17.4,M,-18.5,M,10.0,0277*61
08/21/2019,00:02:30.947,$GPGGA,000230,4737.4684,N,12224.0147,W,2,10,00.9,17.4,M,-18.5,M,11.0,0277*69
08/21/2019,00:02:31.680,$GPGGA,000231,4737.4684,N,12224.0147,W,2,10,00.9,17.4,M,-18.5,M,12.0,0277*6B
08/21/2019,00:02:32.748,$GPGGA,000232,4737.4684,N,12224.0147,W,2,10,00.9,17.4,M,-18.5,M,12.0,0277*68
08/21/2019,00:02:33.688,$GPGGA,000233,4737.4684,N,12224.0148,W,2,10,00.9,17.4,M,-18.5,M,13.0,0277*67
08/21/2019,00:02:35.051,$GPGGA,000234,4737.4684,N,12224.0148,W,2,10,00.9,17.4,M,-18.5,M,14.0,0277*67
08/21/2019,00:02:35.625,$GPGGA,000235,4737.4684,N,12224.0148,W,2,10,00.9,17.4,M,-18.5,M,12.0,0277*60
08/21/2019,00:02:36.759,$GPGGA,000236,4737.4684,N,12224.0148,W,2,10,00.9,17.4,M,-18.5,M,13.0,0277*62
08/21/2019,00:02:37.869,$GPGGA,000237,4737.4684,N,12224.0149,W,2,10,00.9,17.4,M,-18.5,M,14.0,0277*65
08/21/2019,00:02:38.820,$GPGGA,000238,4737.4684,N,12224.0149,W,2,10,00.9,17.4,M,-18.5,M,12.0,0277*6C
08/21/2019,00:02:39.828,$GPGGA,000239,4737.4684,N,12224.0149,W,2,10,00.9,17.3,M,-18.5,M,13.0,0277*6B
08/21/2019,00:02:40.784,$GPGGA,000240,4737.4684,N,12224.0149,W,2,10,00.9,17.3,M,-18.5,M,14.0,0277*62
08/21/2019,00:02:42.021,$GPGGA,000241,4737.4684,N,12224.0150,W,2,10,00.9,17.3,M,-18.5,M,12.0,0277*6D
08/21/2019,00:02:43.140,$GPGGA,000242,4737.4684,N,12224.0150,W,2,10,00.9,17.3,M,-18.5,M,13.0,0277*6F
08/21/2019,00:02:44.277,$GPGGA,000243,4737.4684,N,12224.0150,W,2,10,00.9,17.3,M,-18.5,M,14.0,0277*69
08/21/2019,00:02:44.963,$GPGGA,000244,4737.4683,N,12224.0151,W,2,10,00.9,17.3,M,-18.5,M,12.0,0277*6E
08/21/2019,00:02:45.924,$GPGGA,000245,4737.4683,N,12224.0151,W,2,10,00.9,17.3,M,-18.5,M,13.0,0277*6E
08/21/2019,00:02:47.130,$GPGGA,000246,4737.4683,N,12224.0151,W,2,10,00.9,17.3,M,-18.5,M,14.0,0277*6A
08/21/2019,00:02:47.974,$GPGGA,000247,4737.4683,N,12224.0152,W,2,10,00.9,17.3,M,-18.5,M,15.0,0277*69
08/21/2019,00:02:48.758,$GPGGA,000248,4737.4683,N,12224.0152,W,2,10,00.9,17.3,M,-18.5,M,16.0,0277*65
08/21/2019,00:02:50.089,$GPGGA,000249,4737.4683,N,12224.0152,W,2,10,00.9,17.3,M,-18.5,M,17.0,0277*65
08/21/2019,00:02:51.128,$GPGGA,000250,4737.4683,N,12224.0152,W,2,10,00.9,17.3,M,-18.5,M,18.0,0277*62
08/21/2019,00:02:51.923,$GPGGA,000251,4737.4683,N,12224.0153,W,2,10,00.9,17.3,M,-18.5,M,19.0,0277*63
08/21/2019,00:02:52.895,$GPGGA,000252,4737.4683,N,12224.0153,W,2,10,00.9,17.3,M,-18.5,M,20.0,0277*6A
08/21/2019,00:02:53.679,$GPGGA,000253,4737.4683,N,12224.0154,W,2,10,00.9,17.3,M,-18.5,M,21.0,0277*6D
08/21/2019,00:02:55.110,$GPGGA,000254,4737.4683,N,12224.0154,W,2,10,00.9,17.3,M,-18.5,M,22.0,0277*69
08/21/2019,00:02:55.683,$GPGGA,000255,4737.4682,N,12224.0154,W,2,10,00.9,17.3,M,-18.5,M,20.0,0277*6B
08/21/2019,00:02:56.886,$GPGGA,000256,4737.4682,N,12224.0155,W,2,10,00.9,17.3,M,-18.5,M,21.0,0277*68
08/21/2019,00:02:57.645,$GPGGA,000257,4737.4682,N,12224.0155,W,2,10,00.9,17.3,M,-18.5,M,22.0,0277*6A
08/21/2019,00:02:58.822,$GPGGA,000258,4737.4682,N,12224.0155,W,2,10,00.9,17.3,M,-18.5,M,11.0,0277*65
08/21/2019,00:02:59.681,$GPGGA,000259,4737.4682,N,12224.0156,W,2,10,00.9,17.3,M,-18.5,M,12.0,0277*64
08/21/2019,00:03:00.744,$GPGGA,000300,4737.4682,N,12224.0156,W,2,10,00.9,17.3,M,-18.5,M,12.0,0277*69
08/21/2019,00:03:01.645,$GPGGA,000301,4737.4681,N,12224.0156,W,2,10,00.9,17.2,M,-18.5,M,13.0,0277*6B
08/21/2019,00:03:02.886,$GPGGA,000302,4737.4681,N,12224.0157,W,2,10,00.9,17.2,M,-18.5,M,10.0,0277*6A
08/21/2019,00:03:03.692,$GPGGA,000303,4737.4681,N,12224.0157,W,2,10,00.9,17.2,M,-18.5,M,11.0,0277*6A
08/21/2019,00:03:04.759,$GPGGA,000304,4737.4681,N,12224.0158,W,2,10,00.9,17.2,M,-18.5,M,12.0,0277*61
08/21/2019,00:03:05.633,$GPGGA,000305,4737.4681,N,12224.0158,W,2,10,00.9,17.2,M,-18.5,M,11.0,0277*63
08/21/2019,00:03:06.823,$GPGGA,000306,4737.4681,N,12224.0158,W,2,10,00.9,17.2,M,-18.5,M,12.0,0277*63
08/21/2019,00:03:07.675,$GPGGA,000307,4737.4681,N,12224.0159,W,2,10,00.9,17.2,M,-18.5,M,13.0,0277*62
08/21/2019,00:03:08.735,$GPGGA,000308,4737.4680,N,12224.0159,W,2,10,00.9,17.2,M,-18.5,M,14.0,0277*6B
08/21/2019,00:03:09.789,$GPGGA,000309,4737.4680,N,12224.0160,W,2,10,00.9,17.2,M,-18.5,M,15.0,0277*61
08/21/2019,00:03:10.928,$GPGGA,000310,4737.4680,N,12224.0160,W,2,10,00.9,17.2,M,-18.5,M,16.0,0277*6A
08/21/2019,00:03:11.577,$GPGGA,000311,4737.4680,N,12224.0161,W,2,10,00.9,17.2,M,-18.5,M,17.0,0277*6B
08/21/2019,00:03:12.722,$GPGGA,000312,4737.4680,N,12224.0161,W,2,10,00.9,17.2,M,-18.5,M,18.0,0277*67
08/21/2019,00:03:13.691,$GPGGA,000313,4737.4680,N,12224.0162,W,2,10,00.9,17.2,M,-18.5,M,19.0,0277*64
08/21/2019,00:03:14.790,$GPGGA,000314,4737.4680,N,12224.0162,W,2,10,00.9,17.2,M,-18.5,M,20.0,0277*69
08/21/2019,00:03:15.739,$GPGGA,000315,4737.4679,N,12224.0163,W,2,10,00.9,17.2,M,-18.5,M,21.0,0277*6E
08/21/2019,00:03:16.700,$GPGGA,000316,4737.4679,N,12224.0163,W,2,10,00.9,17.2,M,-18.5,M,22.0,0277*6E
08/21/2019,00:03:17.889,$GPGGA,000317,4737.4679,N,12224.0164,W,2,10,00.9,17.2,M,-18.5,M,22.0,0277*68
08/21/2019,00:03:18.824,$GPGGA,000318,4737.4679,N,12224.0164,W,2,10,00.9,17.2,M,-18.5,M,23.0,0277*66
08/21/2019,00:03:20.064,$GPGGA,000319,4737.4679,N,12224.0165,W,2,10,00.9,17.2,M,-18.5,M,24.0,0277*61
08/21/2019,00:03:20.782,$GPGGA,000320,4737.4679,N,12224.0165,W,2,10,00.9,17.2,M,-18.5,M,12.0,0277*6E
08/21/2019,00:03:21.938,$GPGGA,000321,4737.4679,N,12224.0165,W,2,10,00.9,17.2,M,-18.5,M,13.0,0277*6E
08/21/2019,00:03:22.836,$GPGGA,000322,4737.4678,N,12224.0166,W,2,10,00.9,17.2,M,-18.5,M,14.0,0277*68
08/21/2019,00:03:23.934,$GPGGA,000323,4737.4678,N,12224.0167,W,2,10,00.9,17.1,M,-18.5,M,12.0,0277*6D
08/21/2019,00:03:24.709,$GPGGA,000324,4737.4678,N,12224.0167,W,2,10,00.9,17.1,M,-18.5,M,13.0,0277*6B
08/21/2019,00:03:25.684,$GPGGA,000325,4737.4678,N,12224.0168,W,2,10,00.9,17.1,M,-18.5,M,14.0,0277*62
08/21/2019,00:03:26.980,$GPGGA,000326,4737.4678,N,12224.0168,W,2,10,00.9,17.1,M,-18.5,M,12.0,0277*67
08/21/2019,00:03:27.850,$GPGGA,000327,4737.4678,N,12224.0169,W,2,10,00.9,17.1,M,-18.5,M,13.0,0277*66
08/21/2019,00:03:29.060,$GPGGA,000328,4737.4677,N,12224.0169,W,2,10,00.9,17.1,M,-18.5,M,14.0,0277*61
08/21/2019,00:03:29.741,$GPGGA,000329,4737.4677,N,12224.0170,W,2,10,00.9,17.1,M,-18.5,M,12.0,0277*6E
08/21/2019,00:03:30.931,$GPGGA,000330,4737.4677,N,12224.0170,W,2,10,00.9,17.1,M,-18.5,M,13.0,0277*67
08/21/2019,00:03:31.675,$GPGGA,000331,4737.4677,N,12224.0171,W,2,10,00.9,17.1,M,-18.5,M,14.0,0277*60
08/21/2019,00:03:32.662,$GPGGA,000332,4737.4677,N,12224.0171,W,2,10,00.9,17.1,M,-18.5,M,12.0,0277*65
08/21/2019,00:03:33.633,$GPGGA,000333,4737.4677,N,12224.0172,W,2,10,00.9,17.1,M,-18.5,M,13.0,0277*66
08/21/2019,00:03:35.025,$GPGGA,000334,4737.4676,N,12224.0172,W,2,10,00.9,17.1,M,-18.5,M,14.0,0277*67
08/21/2019,00:03:36.087,$GPGGA,000335,4737.4676,N,12224.0173,W,2,10,00.9,17.1,M,-18.5,M,12.0,0277*61
08/21/2019,00:03:36.902,$GPGGA,000336,4737.4676,N,12224.0173,W,2,10,00.9,17.1,M,-18.5,M,13.0,0277*63
08/21/2019,00:03:37.953,$GPGGA,000337,4737.4676,N,12224.0174,W,2,10,00.9,17.1,M,-18.5,M,14.0,0277*62
08/21/2019,00:03:38.877,$GPGGA,000338,4737.4676,N,12224.0175,W,2,10,00.9,17.1,M,-18.5,M,12.0,0277*6A
08/21/2019,00:03:39.780,$GPGGA,000339,4737.4675,N,12224.0175,W,2,10,00.9,17.1,M,-18.5,M,13.0,0277*69
08/21/2019,00:03:41.024,$GPGGA,000340,4737.4675,N,12224.0176,W,2,10,00.9,17.1,M,-18.5,M,14.0,0277*63
08/21/2019,00:03:41.967,$GPGGA,000341,4737.4675,N,12224.0176,W,2,10,00.9,17.1,M,-18.5,M,12.0,0277*64
08/21/2019,00:03:42.785,$GPGGA,000342,4737.4675,N,12224.0177,W,2,10,00.9,17.1,M,-18.5,M,13.0,0277*67
08/21/2019,00:03:43.755,$GPGGA,000343,4737.4675,N,12224.0177,W,2,10,00.9,17.1,M,-18.5,M,14.0,0277*61
08/21/2019,00:03:44.662,$GPGGA,000344,4737.4675,N,12224.0178,W,2,10,00.9,17.1,M,-18.5,M,12.0,0277*6F
08/21/2019,00:03:45.742,$GPGGA,000345,4737.4674,N,12224.0179,W,2,10,00.9,17.1,M,-18.5,M,13.0,0277*6F
08/21/2019,00:03:46.824,$GPGGA,000346,4737.4674,N,12224.0179,W,2,10,00.9,17.1,M,-18.5,M,14.0,0277*6B
08/21/2019,00:03:47.633,$GPGGA,000347,4737.4674,N,12224.0180,W,2,10,00.9,17.1,M,-18.5,M,12.0,0277*6A
08/21/2019,00:03:48.661,$GPGGA,000348,4737.4674,N,12224.0181,W,2,10,00.9,17.1,M,-18.5,M,13.0,0277*65
08/21/2019,00:03:49.793,$GPGGA,000349,4737.4674,N,12224.0181,W,2,10,00.9,17.1,M,-18.5,M,14.0,0277*63
08/21/2019,00:03:50.782,$GPGGA,000350,4737.4673,N,12224.0182,W,2,10,00.9,17.1,M,-18.5,M,12.0,0277*69
08/21/2019,00:03:51.676,$GPGGA,000351,4737.4673,N,12224.0182,W,2,10,00.9,17.1,M,-18.5,M,13.0,0277*69
08/21/2019,00:03:52.953,$GPGGA,000352,4737.4673,N,12224.0183,W,2,10,00.9,17.1,M,-18.5,M,14.0,0277*6C
08/21/2019,00:03:53.735,$GPGGA,000353,4737.4673,N,12224.0184,W,2,10,00.9,17.1,M,-18.5,M,12.0,0277*6C
08/21/2019,00:03:54.869,$GPGGA,000354,4737.4673,N,12224.0184,W,2,10,00.9,17.1,M,-18.5,M,13.0,0277*6A
08/21/2019,00:03:55.622,$GPGGA,000355,4737.4672,N,12224.0185,W,2,10,00.9,17.1,M,-18.5,M,14.0,0277*6C
08/21/2019,00:03:56.712,$GPGGA,000356,4737.4672,N,12224.0186,W,2,10,00.9,17.1,M,-18.5,M,12.0,0277*6A
08/21/2019,00:03:57.699,$GPGGA,000357,4737.4672,N,12224.0186,W,2,10,00.9,17.1,M,-18.5,M,13.0,0277*6A
08/21/2019,00:03:58.782,$GPGGA,000358,4737.4672,N,12224.0187,W,2,10,00.9,17.1,M,-18.5,M,11.0,0277*66
08/21/2019,00:03:59.698,$GPGGA,000359,4737.4672,N,12224.0187,W,2,10,00.9,17.1,M,-18.5,M,12.0,0277*64
08/21/2019,00:04:00.938,$GPGGA,000400,4737.4671,N,12224.0188,W,2,10,00.9,17.1,M,-18.5,M,10.0,0277*61
08/21/2019,00:04:01.713,$GPGGA,000401,4737.4671,N,12224.0189,W,2,10,00.9,17.1,M,-18.5,M,11.0,0277*60
08/21/2019,00:04:02.786,$GPGGA,000402,4737.4671,N,12224.0189,W,2,10,00.9,17.1,M,-18.5,M,12.0,0277*60
08/21/2019,00:04:03.677,$GPGGA,000403,4737.4671,N,12224.0190,W,2,10,00.9,17.1,M,-18.5,M,13.0,0277*68
08/21/2019,00:04:04.711,$GPGGA,000404,4737.4671,N,12224.0191,W,2,10,00.9,17.1,M,-18.5,M,14.0,0277*69
08/21/2019,00:04:05.714,$GPGGA,000405,4737.4670,N,12224.0191,W,2,10,00.9,17.1,M,-18.5,M,15.0,0277*68
08/21/2019,00:04:06.816,$GPGGA,000406,4737.4670,N,12224.0192,W,2,10,00.9,17.1,M,-18.5,M,12.0,0277*6F
08/21/2019,00:04:07.634,$GPGGA,000407,4737.4670,N,12224.0193,W,2,10,00.9,17.1,M,-18.5,M,13.0,0277*6E
08/21/2019,00:04:08.662,$GPGGA,000408,4737.4670,N,12224.0194,W,2,10,00.9,17.1,M,-18.5,M,14.0,0277*61
08/21/2019,00:04:09.962,$GPGGA,000409,4737.4670,N,12224.0194,W,2,10,00.9,17.1,M,-18.5,M,13.0,0277*67
08/21/2019,00:04:10.902,$GPGGA,000410,4737.4670,N,12224.0195,W,2,10,00.9,17.1,M,-18.5,M,14.0,0277*69
08/21/2019,00:04:11.653,$GPGGA,000411,4737.4669,N,12224.0195,W,2,10,00.9,17.1,M,-18.5,M,15.0,0277*61
08/21/2019,00:04:12.665,$GPGGA,000412,4737.4669,N,12224.0196,W,2,10,00.9,17.1,M,-18.5,M,13.0,0277*67
08/21/2019,00:04:13.637,$GPGGA,000413,4737.4669,N,12224.0197,W,2,10,00.9,17.1,M,-18.5,M,14.0,0277*60
08/21/2019,00:04:14.738,$GPGGA,000414,4737.4669,N,12224.0197,W,2,10,00.9,17.1,M,-18.5,M,15.0,0277*66
08/21/2019,00:04:16.057,$GPGGA,000415,4737.4668,N,12224.0198,W,2,10,00.9,17.1,M,-18.5,M,13.0,0277*6F
08/21/2019,00:04:16.715,$GPGGA,000416,4737.4668,N,12224.0199,W,2,10,00.9,17.0,M,-18.5,M,14.0,0277*6B
08/21/2019,00:04:17.682,$GPGGA,000417,4737.4668,N,12224.0200,W,2,10,00.9,17.0,M,-18.5,M,15.0,0277*68
08/21/2019,00:04:18.850,$GPGGA,000418,4737.4668,N,12224.0200,W,2,10,00.9,17.0,M,-18.5,M,13.0,0277*61
08/21/2019,00:04:19.687,$GPGGA,000419,4737.4668,N,12224.0201,W,2,10,00.9,17.1,M,-18.5,M,14.0,0277*67
08/21/2019,00:04:20.607,$GPGGA,000420,4737.4668,N,12224.0201,W,2,10,00.9,17.1,M,-18.5,M,15.0,0277*6C
08/21/2019,00:04:21.635,$GPGGA,000421,4737.4667,N,12224.0202,W,2,10,00.9,17.1,M,-18.5,M,13.0,0277*67
08/21/2019,00:04:22.803,$GPGGA,000422,4737.4667,N,12224.0203,W,2,10,00.9,17.1,M,-18.5,M,14.0,0277*62
08/21/2019,00:04:23.742,$GPGGA,000423,4737.4667,N,12224.0204,W,2,10,00.9,17.1,M,-18.5,M,15.0,0277*65
08/21/2019,00:04:24.665,$GPGGA,000424,4737.4667,N,12224.0204,W,2,10,00.9,17.1,M,-18.5,M,13.0,0277*64
08/21/2019,00:04:25.636,$GPGGA,000425,4737.4667,N,12224.0205,W,2,10,00.9,17.1,M,-18.5,M,14.0,0277*63
08/21/2019,00:04:26.840,$GPGGA,000426,4737.4666,N,12224.0206,W,2,10,00.9,17.1,M,-18.5,M,15.0,0277*63
08/21/2019,00:04:27.688,$GPGGA,000427,4737.4666,N,12224.0207,W,2,10,00.9,17.1,M,-18.5,M,13.0,0277*65
08/21/2019,00:04:28.710,$GPGGA,000428,4737.4666,N,12224.0207,W,2,10,00.9,17.1,M,-18.5,M,14.0,0277*6D
08/21/2019,00:04:29.683,$GPGGA,000429,4737.4666,N,12224.0208,W,2,10,00.9,17.1,M,-18.5,M,15.0,0277*62
08/21/2019,00:04:30.816,$GPGGA,000430,4737.4666,N,12224.0209,W,2,10,00.9,17.1,M,-18.5,M,13.0,0277*6D
08/21/2019,00:04:31.853,$GPGGA,000431,4737.4665,N,12224.0209,W,2,10,00.9,17.1,M,-18.5,M,14.0,0277*68
08/21/2019,00:04:32.759,$GPGGA,000432,4737.4665,N,12224.0210,W,2,10,00.9,17.1,M,-18.5,M,15.0,0277*62
08/21/2019,00:04:33.694,$GPGGA,000433,4737.4665,N,12224.0211,W,2,10,00.9,17.1,M,-18.5,M,13.0,0277*64
08/21/2019,00:04:34.971,$GPGGA,000434,4737.4665,N,12224.0211,W,2,10,00.9,17.1,M,-18.5,M,14.0,0277*64
08/21/2019,00:04:35.598,$GPGGA,000435,4737.4665,N,12224.0212,W,2,10,00.9,17.1,M,-18.5,M,15.0,0277*67
08/21/2019,00:04:36.714,$GPGGA,000436,4737.4665,N,12224.0213,W,2,10,00.9,17.1,M,-18.5,M,13.0,0277*63
08/21/2019,00:04:37.683,$GPGGA,000437,4737.4664,N,12224.0214,W,2,10,00.9,17.1,M,-18.5,M,14.0,0277*63
08/21/2019,00:04:38.797,$GPGGA,000438,4737.4664,N,12224.0215,W,2,10,00.9,17.1,M,-18.5,M,15.0,0277*6C
08/21/2019,00:04:39.680,$GPGGA,000439,4737.4664,N,12224.0215,W,2,10,00.9,17.1,M,-18.5,M,13.0,0277*6B
08/21/2019,00:04:40.714,$GPGGA,000440,4737.4664,N,12224.0216,W,2,10,00.9,17.1,M,-18.5,M,14.0,0277*61
08/21/2019,00:04:41.683,$GPGGA,000441,4737.4664,N,12224.0216,W,2,10,00.9,17.1,M,-18.5,M,15.0,0277*61
08/21/2019,00:04:42.798,$GPGGA,000442,4737.4663,N,12224.0217,W,2,10,00.9,17.1,M,-18.5,M,16.0,0277*67
08/21/2019,00:04:43.630,$GPGGA,000443,4737.4663,N,12224.0218,W,2,10,00.9,17.1,M,-18.5,M,14.0,0277*6B
08/21/2019,00:04:44.655,$GPGGA,000444,4737.4663,N,12224.0219,W,2,10,00.9,17.1,M,-18.5,M,15.0,0277*6C
08/21/2019,00:04:45.681,$GPGGA,000445,4737.4663,N,12224.0220,W,2,10,00.9,17.0,M,-18.5,M,13.0,0277*60
08/21/2019,00:04:46.758,$GPGGA,000446,4737.4663,N,12224.0220,W,2,10,00.9,17.1,M,-18.5,M,14.0,0277*65
08/21/2019,00:04:47.637,$GPGGA,000447,4737.4663,N,12224.0221,W,2,10,00.9,17.1,M,-18.5,M,15.0,0277*64
08/21/2019,00:04:48.655,$GPGGA,000448,4737.4663,N,12224.0222,W,2,10,00.9,17.1,M,-18.5,M,13.0,0277*6E
08/21/2019,00:04:49.646,$GPGGA,000449,4737.4662,N,12224.0222,W,2,10,00.9,17.1,M,-18.5,M,14.0,0277*69
08/21/2019,00:04:50.738,$GPGGA,000450,4737.4662,N,12224.0223,W,2,10,00.9,17.1,M,-18.5,M,15.0,0277*61
08/21/2019,00:04:51.687,$GPGGA,000451,4737.4662,N,12224.0224,W,2,10,00.9,17.0,M,-18.5,M,12.0,0277*61
08/21/2019,00:04:52.717,$GPGGA,000452,4737.4662,N,12224.0224,W,2,10,00.9,17.0,M,-18.5,M,13.0,0277*63
08/21/2019,00:04:53.684,$GPGGA,000453,4737.4662,N,12224.0225,W,2,10,00.9,17.0,M,-18.5,M,14.0,0277*64
08/21/2019,00:04:54.908,$GPGGA,000454,4737.4661,N,12224.0226,W,2,10,00.9,17.0,M,-18.5,M,13.0,0277*64
08/21/2019,00:04:55.686,$GPGGA,000455,4737.4661,N,12224.0227,W,2,10,00.9,17.0,M,-18.5,M,14.0,0277*63
08/21/2019,00:04:56.831,$GPGGA,000456,4737.4661,N,12224.0228,W,2,10,00.9,17.0,M,-18.5,M,15.0,0277*6E
08/21/2019,00:04:57.839,$GPGGA,000457,4737.4661,N,12224.0228,W,2,10,00.9,17.0,M,-18.5,M,13.0,0277*69
08/21/2019,00:04:58.797,$GPGGA,000458,4737.4661,N,12224.0229,W,2,10,00.9,17.0,M,-18.5,M,14.0,0277*60
08/21/2019,00:04:59.587,$GPGGA,000459,4737.4661,N,12224.0229,W,2,10,00.9,17.0,M,-18.5,M,15.0,0277*60
08/21/2019,00:05:01.263,$GPGGA,000500,4737.4661,N,12224.0230,W,2,10,00.9,17.0,M,-18.5,M,13.0,0277*63
08/21/2019,00:05:01.684,$GPGGA,000501,4737.4660,N,12224.0231,W,2,10,00.9,17.0,M,-18.5,M,14.0,0277*65
08/21/2019,00:05:02.853,$GPGGA,000502,4737.4660,N,12224.0232,W,2,10,00.9,17.0,M,-18.5,M,15.0,0277*64
08/21/2019,00:05:03.688,$GPGGA,000503,4737.4660,N,12224.0233,W,2,10,00.9,17.0,M,-18.5,M,16.0,0277*67
08/21/2019,00:05:04.714,$GPGGA,000504,4737.4660,N,12224.0233,W,2,10,00.9,16.9,M,-18.5,M,14.0,0277*6A
08/21/2019,00:05:05.777,$GPGGA,000505,4737.4660,N,12224.0234,W,2,10,00.9,16.9,M,-18.5,M,15.0,0277*6D
08/21/2019,00:05:06.846,$GPGGA,000506,4737.4660,N,12224.0234,W,2,10,00.9,17.0,M,-18.5,M,13.0,0277*60
08/21/2019,00:05:07.649,$GPGGA,000507,4737.4659,N,12224.0235,W,2,10,00.9,17.0,M,-18.5,M,14.0,0277*6D
08/21/2019,00:05:08.656,$GPGGA,000508,4737.4659,N,12224.0236,W,2,10,00.9,17.0,M,-18.5,M,15.0,0277*60
08/21/2019,00:05:09.952,$GPGGA,000509,4737.4659,N,12224.0237,W,2,10,00.9,17.0,M,-18.5,M,13.0,0277*66
08/21/2019,00:05:10.776,$GPGGA,000510,4737.4659,N,12224.0238,W,2,09,00.9,16.9,M,-18.5,M,14.0,0277*66
08/21/2019,00:05:11.846,$GPGGA,000511,4737.4659,N,12224.0238,W,2,10,00.9,16.9,M,-18.5,M,15.0,0277*6E
08/21/2019,00:05:12.667,$GPGGA,000512,4737.4659,N,12224.0239,W,2,10,00.9,16.9,M,-18.5,M,16.0,0277*6F
08/21/2019,00:05:13.638,$GPGGA,000513,4737.4659,N,12224.0240,W,2,10,00.9,16.9,M,-18.5,M,17.0,0277*61
08/21/2019,00:05:14.866,$GPGGA,000514,4737.4658,N,12224.0240,W,2,10,00.9,16.9,M,-18.5,M,18.0,0277*68
08/21/2019,00:05:15.688,$GPGGA,000515,4737.4658,N,12224.0241,W,2,10,00.9,16.9,M,-18.5,M,19.0,0277*69
08/21/2019,00:05:16.609,$GPGGA,000516,4737.4658,N,12224.0242,W,2,10,00.9,16.9,M,-18.5,M,20.0,0277*63
08/21/2019,00:05:17.642,$GPGGA,000517,4737.4658,N,12224.0243,W,2,10,00.9,16.9,M,-18.5,M,21.0,0277*62
08/21/2019,00:05:18.757,$GPGGA,000518,4737.4658,N,12224.0244,W,2,10,00.9,16.9,M,-18.5,M,22.0,0277*69
08/21/2019,00:05:20.060,$GPGGA,000519,4737.4658,N,12224.0244,W,2,10,00.9,16.9,M,-18.5,M,23.0,0277*69
08/21/2019,00:05:20.814,$GPGGA,000520,4737.4658,N,12224.0245,W,2,10,00.9,16.9,M,-18.5,M,24.0,0277*65
08/21/2019,00:05:21.700,$GPGGA,000521,4737.4657,N,12224.0246,W,2,10,00.9,16.9,M,-18.5,M,21.0,0277*6D
08/21/2019,00:05:22.979,$GPGGA,000522,4737.4657,N,12224.0247,W,2,10,00.9,16.8,M,-18.5,M,22.0,0277*6D
08/21/2019,00:05:23.689,$GPGGA,000523,4737.4657,N,12224.0247,W,2,10,00.9,16.8,M,-18.5,M,23.0,0277*6D
08/21/2019,00:05:24.655,$GPGGA,000524,4737.4657,N,12224.0248,W,2,10,00.9,16.8,M,-18.5,M,24.0,0277*62
08/21/2019,00:05:25.696,$GPGGA,000525,4737.4657,N,12224.0249,W,2,10,00.9,16.8,M,-18.5,M,14.0,0277*61
08/21/2019,00:05:26.785,$GPGGA,000526,4737.4657,N,12224.0249,W,2,10,00.9,16.8,M,-18.5,M,15.0,0277*63
08/21/2019,00:05:27.681,$GPGGA,000527,4737.4657,N,12224.0250,W,2,10,00.9,16.8,M,-18.5,M,13.0,0277*6C
08/21/2019,00:05:29.217,$GPGGA,000528,4737.4656,N,12224.0251,W,2,10,00.9,16.8,M,-18.5,M,14.0,0277*64
08/21/2019,00:05:29.776,$GPGGA,000529,4737.4656,N,12224.0252,W,2,10,00.9,16.8,M,-18.5,M,15.0,0277*67
08/21/2019,00:05:30.741,$GPGGA,000530,4737.4656,N,12224.0253,W,2,10,00.9,16.8,M,-18.5,M,13.0,0277*68
08/21/2019,00:05:31.633,$GPGGA,000531,4737.4656,N,12224.0253,W,2,10,00.9,16.8,M,-18.5,M,14.0,0277*6E
08/21/2019,00:05:32.668,$GPGGA,000532,4737.4656,N,12224.0254,W,2,10,00.9,16.8,M,-18.5,M,15.0,0277*6B
08/21/2019,00:05:33.639,$GPGGA,000533,4737.4656,N,12224.0255,W,2,10,00.9,16.8,M,-18.5,M,12.0,0277*6C
08/21/2019,00:05:34.862,$GPGGA,000534,4737.4656,N,12224.0255,W,2,10,00.9,16.8,M,-18.5,M,13.0,0277*6A
08/21/2019,00:05:35.680,$GPGGA,000535,4737.4656,N,12224.0256,W,2,10,00.9,16.8,M,-18.5,M,14.0,0277*6F
08/21/2019,00:05:36.705,$GPGGA,000536,4737.4656,N,12224.0257,W,2,10,00.9,16.8,M,-18.5,M,13.0,0277*6A
08/21/2019,00:05:37.646,$GPGGA,000537,4737.4655,N,12224.0258,W,2,10,00.9,16.7,M,-18.5,M,14.0,0277*6F
08/21/2019,00:05:38.740,$GPGGA,000538,4737.4655,N,12224.0258,W,2,10,00.9,16.7,M,-18.5,M,15.0,0277*61
08/21/2019,00:05:39.698,$GPGGA,000539,4737.4655,N,12224.0259,W,2,10,00.9,16.8,M,-18.5,M,13.0,0277*68
08/21/2019,00:05:40.666,$GPGGA,000540,4737.4655,N,12224.0260,W,2,10,00.9,16.8,M,-18.5,M,14.0,0277*6B
08/21/2019,00:05:41.686,$GPGGA,000541,4737.4655,N,12224.0261,W,2,10,00.9,16.8,M,-18.5,M,15.0,0277*6A
08/21/2019,00:05:42.799,$GPGGA,000542,4737.4655,N,12224.0262,W,2,10,00.9,16.7,M,-18.5,M,13.0,0277*63
08/21/2019,00:05:43.634,$GPGGA,000543,4737.4655,N,12224.0262,W,2,10,00.9,16.7,M,-18.5,M,14.0,0277*65
08/21/2019,00:05:44.893,$GPGGA,000544,4737.4655,N,12224.0263,W,2,10,00.9,16.7,M,-18.5,M,12.0,0277*65
08/21/2019,00:05:45.981,$GPGGA,000545,4737.4654,N,12224.0263,W,2,10,00.9,16.8,M,-18.5,M,13.0,0277*6B
08/21/2019,00:05:46.933,$GPGGA,000546,4737.4654,N,12224.0264,W,2,10,00.9,16.8,M,-18.5,M,14.0,0277*68
08/21/2019,00:05:48.050,$GPGGA,000547,4737.4654,N,12224.0265,W,2,10,00.9,16.8,M,-18.5,M,12.0,0277*6E
08/21/2019,00:05:49.372,$GPGGA,000548,4737.4654,N,12224.0266,W,2,10,00.9,16.7,M,-18.5,M,13.0,0277*6C
08/21/2019,00:05:49.695,$GPGGA,000549,4737.4654,N,12224.0266,W,2,10,00.9,16.7,M,-18.5,M,14.0,0277*6A
08/21/2019,00:05:51.272,$GPGGA,000550,4737.4654,N,12224.0267,W,2,10,00.9,16.7,M,-18.5,M,12.0,0277*65
08/21/2019,00:05:52.314,$GPGGA,000551,4737.4654,N,12224.0267,W,2,10,00.9,16.7,M,-18.5,M,13.0,0277*65
08/21/2019,00:05:53.437,$GPGGA,000552,4737.4654,N,12224.0268,W,2,10,00.9,16.8,M,-18.5,M,14.0,0277*61
08/21/2019,00:05:53.640,$GPGGA,000553,4737.4654,N,12224.0269,W,2,10,00.9,16.8,M,-18.5,M,13.0,0277*66
08/21/2019,00:05:54.780,$GPGGA,000554,4737.4653,N,12224.0270,W,2,10,00.9,16.7,M,-18.5,M,14.0,0277*66
08/21/2019,00:05:55.830,$GPGGA,000555,4737.4653,N,12224.0271,W,2,10,00.9,16.7,M,-18.5,M,15.0,0277*67
08/21/2019,00:05:57.037,$GPGGA,000556,4737.4653,N,12224.0271,W,2,10,00.9,16.7,M,-18.5,M,12.0,0277*63
08/21/2019,00:05:57.649,$GPGGA,000557,4737.4653,N,12224.0272,W,2,10,00.9,16.7,M,-18.5,M,13.0,0277*60
08/21/2019,00:05:58.741,$GPGGA,000558,4737.4653,N,12224.0272,W,2,10,00.9,16.7,M,-18.5,M,14.0,0277*68
08/21/2019,00:05:59.634,$GPGGA,000559,4737.4653,N,12224.0273,W,2,10,00.9,16.7,M,-18.5,M,13.0,0277*6F
08/21/2019,00:06:01.176,$GPGGA,000600,4737.4653,N,12224.0274,W,2,10,00.9,16.7,M,-18.5,M,14.0,0277*60
08/21/2019,00:06:01.640,$GPGGA,000601,4737.4653,N,12224.0275,W,2,10,00.9,16.7,M,-18.5,M,15.0,0277*61
08/21/2019,00:06:03.051,$GPGGA,000602,4737.4652,N,12224.0276,W,2,10,00.9,16.6,M,-18.5,M,12.0,0277*66
08/21/2019,00:06:03.682,$GPGGA,000603,4737.4652,N,12224.0276,W,2,10,00.9,16.7,M,-18.5,M,13.0,0277*67
08/21/2019,00:06:04.658,$GPGGA,000604,4737.4653,N,12224.0276,W,2,10,00.9,16.7,M,-18.5,M,14.0,0277*66
08/21/2019,00:06:05.641,$GPGGA,000605,4737.4653,N,12224.0277,W,2,10,00.9,16.7,M,-18.5,M,12.0,0277*60
08/21/2019,00:06:07.119,$GPGGA,000606,4737.4652,N,12224.0278,W,2,10,00.9,16.7,M,-18.5,M,13.0,0277*6C
08/21/2019,00:06:07.638,$GPGGA,000607,4737.4652,N,12224.0279,W,2,10,00.9,16.6,M,-18.5,M,14.0,0277*6A
08/21/2019,00:06:08.658,$GPGGA,000608,4737.4652,N,12224.0280,W,2,10,00.9,16.6,M,-18.5,M,12.0,0277*65
08/21/2019,00:06:09.651,$GPGGA,000609,4737.4652,N,12224.0280,W,2,10,00.9,16.6,M,-18.5,M,13.0,0277*65
08/21/2019,00:06:10.850,$GPGGA,000610,4737.4652,N,12224.0281,W,2,10,00.9,16.7,M,-18.5,M,14.0,0277*6A
08/21/2019,00:06:11.679,$GPGGA,000611,4737.4652,N,12224.0281,W,2,10,00.9,16.7,M,-18.5,M,12.0,0277*6D
08/21/2019,00:06:12.858,$GPGGA,000612,4737.4652,N,12224.0283,W,2,10,00.9,16.7,M,-18.5,M,13.0,0277*6D
08/21/2019,00:06:13.781,$GPGGA,000613,4737.4652,N,12224.0283,W,2,10,00.9,16.6,M,-18.5,M,12.0,0277*6C
08/21/2019,00:06:14.851,$GPGGA,000614,4737.4651,N,12224.0284,W,2,10,00.9,16.6,M,-18.5,M,13.0,0277*6E
08/21/2019,00:06:15.691,$GPGGA,000615,4737.4652,N,12224.0284,W,2,10,00.9,16.6,M,-18.5,M,10.0,0277*6F
08/21/2019,00:06:16.718,$GPGGA,000616,4737.4652,N,12224.0285,W,2,10,00.9,16.6,M,-18.5,M,11.0,0277*6C
08/21/2019,00:06:17.602,$GPGGA,000617,4737.4652,N,12224.0285,W,2,10,00.9,16.6,M,-18.5,M,10.0,0277*6C
08/21/2019,00:06:18.787,$GPGGA,000618,4737.4651,N,12224.0286,W,2,10,00.9,16.6,M,-18.5,M,11.0,0277*62
08/21/2019,00:06:19.691,$GPGGA,000619,4737.4651,N,12224.0287,W,2,10,00.9,16.5,M,-18.5,M,11.0,0277*61
08/21/2019,00:06:20.944,$GPGGA,000620,4737.4651,N,12224.0288,W,2,10,00.9,16.5,M,-18.5,M,12.0,0277*67
08/21/2019,00:06:21.668,$GPGGA,000621,4737.4651,N,12224.0289,W,2,10,00.9,16.6,M,-18.5,M,10.0,0277*66
08/21/2019,00:06:22.815,$GPGGA,000622,4737.4651,N,12224.0289,W,2,10,00.9,16.6,M,-18.5,M,11.0,0277*64
08/21/2019,00:06:23.635,$GPGGA,000623,4737.4651,N,12224.0290,W,2,10,00.9,16.6,M,-18.5,M,11.0,0277*6D
08/21/2019,00:06:24.659,$GPGGA,000624,4737.4651,N,12224.0291,W,2,10,00.9,16.6,M,-18.5,M,12.0,0277*68
08/21/2019,00:06:25.681,$GPGGA,000625,4737.4651,N,12224.0292,W,2,10,00.9,16.6,M,-18.5,M,13.0,0277*6B
08/21/2019,00:06:26.756,$GPGGA,000626,4737.4651,N,12224.0292,W,2,10,00.9,16.6,M,-18.5,M,11.0,0277*6A
08/21/2019,00:06:28.151,$GPGGA,000627,4737.4651,N,12224.0292,W,2,10,00.9,16.6,M,-18.5,M,12.0,0277*68
08/21/2019,00:06:28.908,$GPGGA,000628,4737.4651,N,12224.0293,W,2,10,00.9,16.6,M,-18.5,M,13.0,0277*67
08/21/2019,00:06:29.699,$GPGGA,000629,4737.4651,N,12224.0294,W,2,10,00.9,16.6,M,-18.5,M,13.0,0277*61
08/21/2019,00:06:30.980,$GPGGA,000630,4737.4651,N,12224.0295,W,2,10,00.9,16.6,M,-18.5,M,14.0,0277*6F
08/21/2019,00:06:32.009,$GPGGA,000631,4737.4650,N,12224.0296,W,2,10,00.9,16.6,M,-18.5,M,15.0,0277*6D
08/21/2019,00:06:32.713,$GPGGA,000632,4737.4651,N,12224.0297,W,2,10,00.9,16.6,M,-18.5,M,16.0,0277*6D
08/21/2019,00:06:33.741,$GPGGA,000633,4737.4651,N,12224.0297,W,2,10,00.9,16.6,M,-18.5,M,17.0,0277*6D
08/21/2019,00:06:34.941,$GPGGA,000634,4737.4651,N,12224.0297,W,2,10,00.9,16.6,M,-18.5,M,18.0,0277*65
08/21/2019,00:06:35.636,$GPGGA,000635,4737.4650,N,12224.0298,W,2,10,00.9,16.6,M,-18.5,M,19.0,0277*6B
08/21/2019,00:06:36.978,$GPGGA,000636,4737.4650,N,12224.0299,W,2,10,00.9,16.6,M,-18.5,M,16.0,0277*66
08/21/2019,00:06:38.205,$GPGGA,000637,4737.4650,N,12224.0300,W,2,10,00.9,16.6,M,-18.5,M,17.0,0277*67
08/21/2019,00:06:39.214,$GPGGA,000638,4737.4650,N,12224.0300,W,2,10,00.9,16.6,M,-18.5,M,18.0,0277*67
08/21/2019,00:06:39.599,$GPGGA,000639,4737.4650,N,12224.0301,W,2,10,00.9,16.6,M,-18.5,M,16.0,0277*69
08/21/2019,00:06:41.061,$GPGGA,000640,4737.4650,N,12224.0301,W,2,10,00.9,16.6,M,-18.5,M,17.0,0277*66
08/21/2019,00:06:41.743,$GPGGA,000641,4737.4650,N,12224.0302,W,2,10,00.9,16.6,M,-18.5,M,18.0,0277*6B
08/21/2019,00:06:42.756,$GPGGA,000642,4737.4650,N,12224.0303,W,2,10,00.9,16.6,M,-18.5,M,16.0,0277*67
08/21/2019,00:06:43.852,$GPGGA,000643,4737.4650,N,12224.0304,W,2,10,00.9,16.6,M,-18.5,M,17.0,0277*60
08/21/2019,00:06:44.719,$GPGGA,000644,4737.4650,N,12224.0304,W,2,10,00.9,16.6,M,-18.5,M,12.0,0277*62
08/21/2019,00:06:45.899,$GPGGA,000645,4737.4650,N,12224.0305,W,2,10,00.9,16.6,M,-18.5,M,13.0,0277*63
08/21/2019,00:06:46.832,$GPGGA,000646,4737.4650,N,12224.0305,W,2,10,00.9,16.7,M,-18.5,M,11.0,0277*63
08/21/2019,00:06:48.002,$GPGGA,000647,4737.4650,N,12224.0306,W,2,10,00.9,16.7,M,-18.5,M,12.0,0277*62
08/21/2019,00:06:49.511,$GPGGA,000648,4737.4650,N,12224.0307,W,2,10,00.9,16.7,M,-18.5,M,13.0,0277*6D
08/21/2019,00:06:49.689,$GPGGA,000649,4737.4650,N,12224.0307,W,2,10,00.9,16.7,M,-18.5,M,11.0,0277*6E
08/21/2019,00:06:51.027,$GPGGA,000650,4737.4650,N,12224.0308,W,2,10,00.9,16.7,M,-18.5,M,12.0,0277*6A
08/21/2019,00:06:52.036,$GPGGA,000651,4737.4650,N,12224.0309,W,2,10,00.9,16.7,M,-18.5,M,13.0,0277*6B
08/21/2019,00:06:52.671,$GPGGA,000652,4737.4650,N,12224.0310,W,2,10,00.9,16.7,M,-18.5,M,13.0,0277*60
08/21/2019,00:06:54.131,$GPGGA,000653,4737.4650,N,12224.0310,W,2,10,00.9,16.7,M,-18.5,M,14.0,0277*66
08/21/2019,00:06:55.156,$GPGGA,000654,4737.4650,N,12224.0311,W,2,10,00.9,16.7,M,-18.5,M,15.0,0277*61
08/21/2019,00:06:55.995,$GPGGA,000655,4737.4650,N,12224.0311,W,2,10,00.9,16.8,M,-18.5,M,13.0,0277*69
08/21/2019,00:06:56.835,$GPGGA,000656,4737.4650,N,12224.0312,W,2,10,00.9,16.8,M,-18.5,M,14.0,0277*6E
08/21/2019,00:06:57.908,$GPGGA,000657,4737.4650,N,12224.0312,W,2,10,00.9,16.8,M,-18.5,M,15.0,0277*6E
08/21/2019,00:06:58.893,$GPGGA,000658,4737.4650,N,12224.0313,W,2,10,00.9,16.7,M,-18.5,M,13.0,0277*69
08/21/2019,00:06:59.586,$GPGGA,000659,4737.4650,N,12224.0314,W,2,10,00.9,16.7,M,-18.5,M,14.0,0277*68
08/21/2019,00:07:00.726,$GPGGA,000700,4737.4650,N,12224.0315,W,2,10,00.9,16.7,M,-18.5,M,15.0,0277*65
08/21/2019,00:07:01.818,$GPGGA,000701,4737.4650,N,12224.0315,W,2,10,00.9,16.7,M,-18.5,M,13.0,0277*62
08/21/2019,00:07:02.762,$GPGGA,000702,4737.4650,N,12224.0316,W,2,10,00.9,16.7,M,-18.5,M,14.0,0277*65
08/21/2019,00:07:03.586,$GPGGA,000703,4737.4650,N,12224.0317,W,2,10,00.9,16.7,M,-18.5,M,12.0,0277*63
08/21/2019,00:07:04.675,$GPGGA,000704,4737.4650,N,12224.0317,W,2,10,00.9,16.7,M,-18.5,M,13.0,0277*65
08/21/2019,00:07:05.643,$GPGGA,000705,4737.4650,N,12224.0318,W,2,10,00.9,16.7,M,-18.5,M,11.0,0277*69
08/21/2019,00:07:06.744,$GPGGA,000706,4737.4650,N,12224.0318,W,2,10,00.9,16.7,M,-18.5,M,12.0,0277*69
08/21/2019,00:07:07.640,$GPGGA,000707,4737.4650,N,12224.0319,W,2,10,00.9,16.8,M,-18.5,M,10.0,0277*64
08/21/2019,00:07:08.770,$GPGGA,000708,4737.4650,N,12224.0320,W,2,10,00.9,16.8,M,-18.5,M,11.0,0277*60
08/21/2019,00:07:09.701,$GPGGA,000709,4737.4650,N,12224.0320,W,2,10,00.9,16.7,M,-18.5,M,10.0,0277*6F
08/21/2019,00:07:10.789,$GPGGA,000710,4737.4650,N,12224.0321,W,2,10,00.9,16.7,M,-18.5,M,11.0,0277*67
08/21/2019,00:07:11.935,$GPGGA,000711,4737.4650,N,12224.0321,W,2,10,00.9,16.7,M,-18.5,M,11.0,0277*66
08/21/2019,00:07:12.673,$GPGGA,000712,4737.4650,N,12224.0322,W,2,10,00.9,16.8,M,-18.5,M,12.0,0277*6A
08/21/2019,00:07:13.655,$GPGGA,000713,4737.4650,N,12224.0322,W,2,10,00.9,16.8,M,-18.5,M,13.0,0277*6A
08/21/2019,00:07:14.905,$GPGGA,000714,4737.4650,N,12224.0323,W,2,10,00.9,16.8,M,-18.5,M,11.0,0277*6E
08/21/2019,00:07:15.651,$GPGGA,000715,4737.4649,N,12224.0324,W,2,10,00.9,16.7,M,-18.5,M,12.0,0277*6C
08/21/2019,00:07:16.909,$GPGGA,000716,4737.4650,N,12224.0324,W,2,10,00.9,16.7,M,-18.5,M,13.0,0277*66
08/21/2019,00:07:17.892,$GPGGA,000717,4737.4650,N,12224.0325,W,2,10,00.9,16.8,M,-18.5,M,13.0,0277*69
08/21/2019,00:07:19.071,$GPGGA,000718,4737.4650,N,12224.0325,W,2,10,00.9,16.8,M,-18.5,M,14.0,0277*61
08/21/2019,00:07:19.702,$GPGGA,000719,4737.4650,N,12224.0326,W,2,10,00.9,16.8,M,-18.5,M,15.0,0277*62
08/21/2019,00:07:20.929,$GPGGA,000720,4737.4649,N,12224.0327,W,2,10,00.9,16.8,M,-18.5,M,12.0,0277*66
08/21/2019,00:07:21.756,$GPGGA,000721,4737.4649,N,12224.0327,W,2,10,00.9,16.7,M,-18.5,M,13.0,0277*69
08/21/2019,00:07:22.988,$GPGGA,000722,4737.4650,N,12224.0328,W,2,10,00.9,16.7,M,-18.5,M,11.0,0277*6F
08/21/2019,00:07:23.638,$GPGGA,000723,4737.4650,N,12224.0328,W,2,10,00.9,16.8,M,-18.5,M,12.0,0277*62
08/21/2019,00:07:24.834,$GPGGA,000724,4737.4650,N,12224.0328,W,2,10,00.9,16.8,M,-18.5,M,13.0,0277*64
08/21/2019,00:07:25.654,$GPGGA,000725,4737.4649,N,12224.0329,W,2,10,00.9,16.8,M,-18.5,M,11.0,0277*6E
08/21/2019,00:07:26.842,$GPGGA,000726,4737.4649,N,12224.0330,W,2,10,00.9,16.7,M,-18.5,M,12.0,0277*69
08/21/2019,00:07:27.649,$GPGGA,000727,4737.4649,N,12224.0330,W,2,10,00.9,16.7,M,-18.5,M,13.0,0277*69
08/21/2019,00:07:28.673,$GPGGA,000728,4737.4650,N,12224.0331,W,2,10,00.9,16.8,M,-18.5,M,14.0,0277*67
08/21/2019,00:07:29.791,$GPGGA,000729,4737.4650,N,12224.0331,W,2,10,00.9,16.8,M,-18.5,M,15.0,0277*67
08/21/2019,00:07:31.236,$GPGGA,000730,4737.4650,N,12224.0332,W,2,10,00.9,16.8,M,-18.5,M,16.0,0277*6F
08/21/2019,00:07:31.849,$GPGGA,000731,4737.4649,N,12224.0333,W,2,10,00.9,16.8,M,-18.5,M,13.0,0277*62
08/21/2019,00:07:32.693,$GPGGA,000732,4737.4649,N,12224.0333,W,2,10,00.9,16.8,M,-18.5,M,14.0,0277*66
08/21/2019,00:07:33.685,$GPGGA,000733,4737.4650,N,12224.0333,W,2,10,00.9,16.8,M,-18.5,M,15.0,0277*6E
08/21/2019,00:07:34.925,$GPGGA,000734,4737.4650,N,12224.0334,W,2,10,00.9,16.8,M,-18.5,M,13.0,0277*68
08/21/2019,00:07:35.638,$GPGGA,000735,4737.4650,N,12224.0334,W,2,10,00.9,16.8,M,-18.5,M,14.0,0277*6E
08/21/2019,00:07:36.672,$GPGGA,000736,4737.4649,N,12224.0335,W,2,10,00.9,16.8,M,-18.5,M,15.0,0277*65
08/21/2019,00:07:37.732,$GPGGA,000737,4737.4649,N,12224.0336,W,2,10,00.9,16.8,M,-18.5,M,13.0,0277*61
08/21/2019,00:07:39.006,$GPGGA,000738,4737.4649,N,12224.0336,W,2,10,00.9,16.8,M,-18.5,M,14.0,0277*69
08/21/2019,00:07:39.929,$GPGGA,000739,4737.4650,N,12224.0337,W,2,10,00.9,16.8,M,-18.5,M,15.0,0277*60
08/21/2019,00:07:40.783,$GPGGA,000740,4737.4650,N,12224.0337,W,2,10,00.9,16.8,M,-18.5,M,13.0,0277*68
08/21/2019,00:07:41.702,$GPGGA,000741,4737.4650,N,12224.0338,W,2,10,00.9,16.8,M,-18.5,M,14.0,0277*61
08/21/2019,00:07:42.796,$GPGGA,000742,4737.4649,N,12224.0338,W,2,10,00.9,16.8,M,-18.5,M,15.0,0277*6B
08/21/2019,00:07:43.639,$GPGGA,000743,4737.4649,N,12224.0338,W,2,10,00.9,16.8,M,-18.5,M,13.0,0277*6C
08/21/2019,00:07:44.865,$GPGGA,000744,4737.4650,N,12224.0339,W,2,10,00.9,16.8,M,-18.5,M,14.0,0277*65
08/21/2019,00:07:45.645,$GPGGA,000745,4737.4650,N,12224.0339,W,2,10,00.9,16.8,M,-18.5,M,15.0,0277*65
08/21/2019,00:07:46.759,$GPGGA,000746,4737.4650,N,12224.0340,W,2,10,00.9,16.8,M,-18.5,M,13.0,0277*6E
08/21/2019,00:07:47.642,$GPGGA,000747,4737.4650,N,12224.0341,W,2,10,00.9,16.8,M,-18.5,M,14.0,0277*69
08/21/2019,00:07:48.662,$GPGGA,000748,4737.4650,N,12224.0341,W,2,10,00.9,16.8,M,-18.5,M,15.0,0277*67
08/21/2019,00:07:49.846,$GPGGA,000749,4737.4650,N,12224.0342,W,2,10,00.9,16.8,M,-18.5,M,13.0,0277*63
08/21/2019,00:07:50.790,$GPGGA,000750,4737.4650,N,12224.0342,W,2,09,00.9,16.8,M,-18.5,M,14.0,0277*64
08/21/2019,00:07:51.699,$GPGGA,000751,4737.4650,N,12224.0342,W,2,09,00.9,16.8,M,-18.5,M,12.0,0277*63
08/21/2019,00:07:52.713,$GPGGA,000752,4737.4650,N,12224.0343,W,2,10,00.9,16.8,M,-18.5,M,13.0,0277*68
08/21/2019,00:07:53.805,$GPGGA,000753,4737.4650,N,12224.0343,W,2,10,00.9,16.8,M,-18.5,M,11.0,0277*6B
08/21/2019,00:07:54.747,$GPGGA,000754,4737.4650,N,12224.0344,W,2,10,00.9,16.8,M,-18.5,M,12.0,0277*68
08/21/2019,00:07:55.980,$GPGGA,000755,4737.4650,N,12224.0344,W,2,10,00.9,16.8,M,-18.5,M,13.0,0277*68
08/21/2019,00:07:56.663,$GPGGA,000756,4737.4650,N,12224.0345,W,2,10,00.9,16.8,M,-18.5,M,11.0,0277*68
08/21/2019,00:07:57.655,$GPGGA,000757,4737.4650,N,12224.0345,W,2,10,00.9,16.8,M,-18.5,M,12.0,0277*6A
08/21/2019,00:07:58.868,$GPGGA,000758,4737.4650,N,12224.0346,W,2,10,00.9,16.8,M,-18.5,M,13.0,0277*67
08/21/2019,00:07:59.772,$GPGGA,000759,4737.4650,N,12224.0346,W,2,10,00.9,16.8,M,-18.5,M,14.0,0277*61
08/21/2019,00:08:00.663,$GPGGA,000800,4737.4650,N,12224.0347,W,2,10,00.9,16.8,M,-18.5,M,10.0,0277*67
08/21/2019,00:08:01.692,$GPGGA,000801,4737.4650,N,12224.0347,W,2,10,00.9,16.8,M,-18.5,M,11.0,0277*67
08/21/2019,00:08:03.132,$GPGGA,000802,4737.4650,N,12224.0347,W,2,10,00.9,16.8,M,-18.5,M,12.0,0277*67
08/21/2019,00:08:03.814,$GPGGA,000803,4737.4650,N,12224.0348,W,2,10,00.9,16.7,M,-18.5,M,13.0,0277*67
08/21/2019,00:08:04.724,$GPGGA,000804,4737.4650,N,12224.0348,W,2,10,00.9,16.7,M,-18.5,M,12.0,0277*61
08/21/2019,00:08:05.696,$GPGGA,000805,4737.4650,N,12224.0349,W,2,10,00.9,16.8,M,-18.5,M,13.0,0277*6F
08/21/2019,00:08:06.832,$GPGGA,000806,4737.4650,N,12224.0349,W,2,10,00.9,16.8,M,-18.5,M,14.0,0277*6B
08/21/2019,00:08:07.697,$GPGGA,000807,4737.4650,N,12224.0349,W,2,10,00.9,16.8,M,-18.5,M,14.0,0277*6A
08/21/2019,00:08:09.108,$GPGGA,000808,4737.4650,N,12224.0350,W,2,10,00.9,16.8,M,-18.5,M,15.0,0277*6C
08/21/2019,00:08:09.704,$GPGGA,000809,4737.4650,N,12224.0350,W,2,10,00.9,16.8,M,-18.5,M,16.0,0277*6E
08/21/2019,00:08:11.171,$GPGGA,000810,4737.4650,N,12224.0351,W,2,10,00.9,16.8,M,-18.5,M,13.0,0277*62
08/21/2019,00:08:11.769,$GPGGA,000811,4737.4650,N,12224.0351,W,2,10,00.9,16.8,M,-18.5,M,14.0,0277*64
08/21/2019,00:08:13.252,$GPGGA,000812,4737.4650,N,12224.0351,W,2,10,00.9,16.8,M,-18.5,M,15.0,0277*66
08/21/2019,00:08:13.702,$GPGGA,000813,4737.4650,N,12224.0352,W,2,10,00.9,16.8,M,-18.5,M,13.0,0277*62
08/21/2019,00:08:15.250,$GPGGA,000814,4737.4650,N,12224.0352,W,2,10,00.9,16.8,M,-18.5,M,14.0,0277*62
08/21/2019,00:08:15.590,$GPGGA,000815,4737.4650,N,12224.0352,W,2,10,00.9,16.9,M,-18.5,M,15.0,0277*63
08/21/2019,00:08:16.790,$GPGGA,000816,4737.4650,N,12224.0353,W,2,10,00.9,16.9,M,-18.5,M,13.0,0277*67
08/21/2019,00:08:17.694,$GPGGA,000817,4737.4650,N,12224.0353,W,2,10,00.9,16.8,M,-18.5,M,14.0,0277*60
08/21/2019,00:08:19.367,$GPGGA,000818,4737.4650,N,12224.0353,W,2,10,00.9,16.9,M,-18.5,M,15.0,0277*6F
08/21/2019,00:08:19.649,$GPGGA,000819,4737.4650,N,12224.0354,W,2,10,00.9,16.9,M,-18.5,M,13.0,0277*6F
08/21/2019,00:08:21.082,$GPGGA,000820,4737.4650,N,12224.0354,W,2,10,00.9,16.9,M,-18.5,M,14.0,0277*62
08/21/2019,00:08:22.156,$GPGGA,000821,4737.4650,N,12224.0355,W,2,10,00.9,16.9,M,-18.5,M,15.0,0277*63
08/21/2019,00:08:22.796,$GPGGA,000822,4737.4650,N,12224.0355,W,2,10,00.9,16.9,M,-18.5,M,13.0,0277*66
08/21/2019,00:08:23.640,$GPGGA,000823,4737.4650,N,12224.0355,W,2,10,00.9,16.9,M,-18.5,M,14.0,0277*60
08/21/2019,00:08:24.933,$GPGGA,000824,4737.4650,N,12224.0355,W,2,10,00.9,16.9,M,-18.5,M,15.0,0277*66
08/21/2019,00:08:25.654,$GPGGA,000825,4737.4650,N,12224.0356,W,2,10,00.9,16.9,M,-18.5,M,16.0,0277*67
08/21/2019,00:08:26.973,$GPGGA,000826,4737.4650,N,12224.0356,W,2,10,00.9,16.9,M,-18.5,M,17.0,0277*65
08/21/2019,00:08:27.890,$GPGGA,000827,4737.4650,N,12224.0356,W,2,10,00.9,16.9,M,-18.5,M,18.0,0277*6B
08/21/2019,00:08:28.828,$GPGGA,000828,4737.4650,N,12224.0357,W,2,10,00.9,16.9,M,-18.5,M,19.0,0277*64
08/21/2019,00:08:29.731,$GPGGA,000829,4737.4650,N,12224.0357,W,2,10,00.9,16.9,M,-18.5,M,20.0,0277*6F
08/21/2019,00:08:31.210,$GPGGA,000830,4737.4650,N,12224.0357,W,2,10,00.9,16.9,M,-18.5,M,21.0,0277*66
08/21/2019,00:08:31.667,$GPGGA,000831,4737.4650,N,12224.0358,W,2,10,00.9,16.9,M,-18.5,M,22.0,0277*6B
08/21/2019,00:08:32.714,$GPGGA,000832,4737.4650,N,12224.0358,W,2,10,00.9,16.9,M,-18.5,M,23.0,0277*69
08/21/2019,00:08:33.654,$GPGGA,000833,4737.4650,N,12224.0358,W,2,10,00.9,16.9,M,-18.5,M,24.0,0277*6F
08/21/2019,00:08:34.911,$GPGGA,000834,4737.4650,N,12224.0358,W,2,10,00.9,16.9,M,-18.5,M,22.0,0277*6E
08/21/2019,00:08:35.640,$GPGGA,000835,4737.4650,N,12224.0359,W,2,10,00.9,16.9,M,-18.5,M,23.0,0277*6F
08/21/2019,00:08:36.724,$GPGGA,000836,4737.4650,N,12224.0359,W,2,10,00.9,16.9,M,-18.5,M,12.0,0277*6E
08/21/2019,00:08:37.705,$GPGGA,000837,4737.4650,N,12224.0359,W,2,10,00.9,16.9,M,-18.5,M,13.0,0277*6E
08/21/2019,00:08:38.797,$GPGGA,000838,4737.4650,N,12224.0359,W,2,10,00.9,16.9,M,-18.5,M,14.0,0277*66
08/21/2019,00:08:39.689,$GPGGA,000839,4737.4650,N,12224.0360,W,2,10,00.9,16.9,M,-18.5,M,12.0,0277*6B
08/21/2019,00:08:41.051,$GPGGA,000840,4737.4650,N,12224.0360,W,2,10,00.9,16.9,M,-18.5,M,13.0,0277*64
08/21/2019,00:08:41.704,$GPGGA,000841,4737.4650,N,12224.0360,W,2,10,00.9,16.9,M,-18.5,M,11.0,0277*67
08/21/2019,00:08:42.812,$GPGGA,000842,4737.4650,N,12224.0360,W,2,10,00.9,16.9,M,-18.5,M,12.0,0277*67
08/21/2019,00:08:43.641,$GPGGA,000843,4737.4650,N,12224.0360,W,2,10,00.9,16.9,M,-18.5,M,10.0,0277*64
08/21/2019,00:08:44.665,$GPGGA,000844,4737.4650,N,12224.0361,W,2,10,00.9,16.9,M,-18.5,M,11.0,0277*63
08/21/2019,00:08:45.647,$GPGGA,000845,4737.4650,N,12224.0361,W,2,10,00.9,16.9,M,-18.5,M,12.0,0277*61
08/21/2019,00:08:46.761,$GPGGA,000846,4737.4650,N,12224.0361,W,2,10,00.9,16.9,M,-18.5,M,11.0,0277*61
08/21/2019,00:08:47.644,$GPGGA,000847,4737.4650,N,12224.0361,W,2,10,00.9,16.9,M,-18.5,M,12.0,0277*63
08/21/2019,00:08:48.665,$GPGGA,000848,4737.4650,N,12224.0361,W,2,10,00.9,16.9,M,-18.5,M,13.0,0277*6D
08/21/2019,00:08:49.648,$GPGGA,000849,4737.4650,N,12224.0361,W,2,10,00.9,16.9,M,-18.5,M,14.0,0277*6B
08/21/2019,00:08:51.532,$GPGGA,000850,4737.4650,N,12224.0362,W,2,10,00.9,16.9,M,-18.5,M,15.0,0277*61
08/21/2019,00:08:51.532,$GPGGA,000851,4737.4650,N,12224.0362,W,2,10,00.9,16.9,M,-18.5,M,16.0,0277*63
08/21/2019,00:08:52.677,$GPGGA,000852,4737.4650,N,12224.0362,W,2,10,00.9,16.9,M,-18.5,M,17.0,0277*61
08/21/2019,00:08:53.951,$GPGGA,000853,4737.4650,N,12224.0362,W,2,10,00.9,16.9,M,-18.5,M,18.0,0277*6F
08/21/2019,00:08:54.868,$GPGGA,000854,4737.4650,N,12224.0362,W,2,10,00.9,16.9,M,-18.5,M,19.0,0277*69
08/21/2019,00:08:55.945,$GPGGA,000855,4737.4650,N,12224.0362,W,2,10,00.9,16.9,M,-18.5,M,20.0,0277*62
08/21/2019,00:08:56.617,$GPGGA,000856,4737.4650,N,12224.0363,W,2,10,00.9,16.9,M,-18.5,M,21.0,0277*61
08/21/2019,00:08:57.706,$GPGGA,000857,4737.4650,N,12224.0363,W,2,10,00.9,16.9,M,-18.5,M,21.0,0277*60
08/21/2019,00:08:59.206,$GPGGA,000858,4737.4650,N,12224.0363,W,2,10,00.9,16.9,M,-18.5,M,22.0,0277*6C
08/21/2019,00:08:59.591,$GPGGA,000859,4737.4650,N,12224.0363,W,2,10,00.9,17.0,M,-18.5,M,11.0,0277*65
08/21/2019,00:09:01.016,$GPGGA,000900,4737.4650,N,12224.0363,W,2,10,00.9,17.0,M,-18.5,M,12.0,0277*6B
08/21/2019,00:09:01.760,$GPGGA,000901,4737.4650,N,12224.0363,W,2,10,00.9,17.0,M,-18.5,M,13.0,0277*6B
08/21/2019,00:09:03.516,$GPGGA,000902,4737.4650,N,12224.0363,W,2,10,00.9,17.0,M,-18.5,M,11.0,0277*6A
08/21/2019,00:09:03.699,$GPGGA,000903,4737.4650,N,12224.0363,W,2,10,00.9,17.0,M,-18.5,M,12.0,0277*68
08/21/2019,00:09:04.954,$GPGGA,000904,4737.4650,N,12224.0363,W,2,10,00.9,17.0,M,-18.5,M,13.0,0277*6E
08/21/2019,00:09:05.648,$GPGGA,000905,4737.4650,N,12224.0363,W,2,10,00.9,17.0,M,-18.5,M,13.0,0277*6F
08/21/2019,00:09:07.040,$GPGGA,000906,4737.4649,N,12224.0363,W,2,10,00.9,17.0,M,-18.5,M,14.0,0277*63
08/21/2019,00:09:07.645,$GPGGA,000907,4737.4649,N,12224.0363,W,2,10,00.9,17.0,M,-18.5,M,11.0,0277*67
08/21/2019,00:09:08.666,$GPGGA,000908,4737.4650,N,12224.0363,W,2,10,00.9,17.0,M,-18.5,M,12.0,0277*63
08/21/2019,00:09:09.859,$GPGGA,000909,4737.4650,N,12224.0363,W,2,10,00.9,17.0,M,-18.5,M,13.0,0277*63
08/21/2019,00:09:10.823,$GPGGA,000910,4737.4650,N,12224.0363,W,2,10,00.9,17.0,M,-18.5,M,11.0,0277*69
08/21/2019,00:09:11.659,$GPGGA,000911,4737.4649,N,12224.0363,W,2,10,00.9,17.0,M,-18.5,M,12.0,0277*63
08/21/2019,00:09:13.017,$GPGGA,000912,4737.4649,N,12224.0363,W,2,10,00.9,17.0,M,-18.5,M,13.0,0277*61
08/21/2019,00:09:13.829,$GPGGA,000913,4737.4649,N,12224.0363,W,2,10,00.9,17.0,M,-18.5,M,14.0,0277*67
08/21/2019,00:09:14.802,$GPGGA,000914,4737.4649,N,12224.0363,W,2,10,00.9,17.0,M,-18.5,M,15.0,0277*61
08/21/2019,00:09:15.610,$GPGGA,000915,4737.4649,N,12224.0363,W,2,10,00.9,17.1,M,-18.5,M,12.0,0277*66
08/21/2019,00:09:17.088,$GPGGA,000916,4737.4649,N,12224.0363,W,2,10,00.9,17.1,M,-18.5,M,13.0,0277*64
08/21/2019,00:09:17.651,$GPGGA,000917,4737.4649,N,12224.0363,W,2,10,00.9,17.1,M,-18.5,M,11.0,0277*67
08/21/2019,00:09:18.877,$GPGGA,000918,4737.4649,N,12224.0363,W,2,10,00.9,17.1,M,-18.5,M,12.0,0277*6B
08/21/2019,00:09:19.649,$GPGGA,000919,4737.4649,N,12224.0362,W,2,10,00.9,17.1,M,-18.5,M,10.0,0277*69
08/21/2019,00:09:20.677,$GPGGA,000920,4737.4649,N,12224.0362,W,2,10,00.9,17.1,M,-18.5,M,11.0,0277*62
08/21/2019,00:09:21.657,$GPGGA,000921,4737.4649,N,12224.0362,W,2,10,00.9,17.1,M,-18.5,M,12.0,0277*60
08/21/2019,00:09:22.752,$GPGGA,000922,4737.4649,N,12224.0362,W,2,10,00.9,17.1,M,-18.5,M,13.0,0277*62
08/21/2019,00:09:23.644,$GPGGA,000923,4737.4649,N,12224.0362,W,2,10,00.9,17.1,M,-18.5,M,10.0,0277*60
08/21/2019,00:09:24.814,$GPGGA,000924,4737.4649,N,12224.0362,W,2,10,00.9,17.1,M,-18.5,M,11.0,0277*66
08/21/2019,00:09:25.749,$GPGGA,000925,4737.4649,N,12224.0362,W,2,10,00.9,17.1,M,-18.5,M,11.0,0277*67
08/21/2019,00:09:26.841,$GPGGA,000926,4737.4649,N,12224.0362,W,2,10,00.9,17.1,M,-18.5,M,12.0,0277*67
08/21/2019,00:09:27.604,$GPGGA,000927,4737.4649,N,12224.0361,W,2,10,00.9,17.1,M,-18.5,M,13.0,0277*64
08/21/2019,00:09:28.618,$GPGGA,000928,4737.4649,N,12224.0361,W,2,10,00.9,17.1,M,-18.5,M,11.0,0277*69
08/21/2019,00:09:29.707,$GPGGA,000929,4737.4648,N,12224.0361,W,2,10,00.9,17.1,M,-18.5,M,12.0,0277*6A
08/21/2019,00:09:30.879,$GPGGA,000930,4737.4648,N,12224.0361,W,2,10,00.9,17.1,M,-18.5,M,13.0,0277*63
08/21/2019,00:09:31.700,$GPGGA,000931,4737.4649,N,12224.0361,W,2,10,00.9,17.1,M,-18.5,M,14.0,0277*64
08/21/2019,00:09:32.728,$GPGGA,000932,4737.4648,N,12224.0360,W,2,10,00.9,17.1,M,-18.5,M,15.0,0277*66
08/21/2019,00:09:33.697,$GPGGA,000933,4737.4648,N,12224.0360,W,2,10,00.9,17.1,M,-18.5,M,16.0,0277*64
08/21/2019,00:09:34.751,$GPGGA,000934,4737.4648,N,12224.0360,W,2,10,00.9,17.2,M,-18.5,M,17.0,0277*61
08/21/2019,00:09:35.675,$GPGGA,000935,4737.4648,N,12224.0360,W,2,10,00.9,17.2,M,-18.5,M,18.0,0277*6F
08/21/2019,00:09:36.934,$GPGGA,000936,4737.4648,N,12224.0359,W,2,10,00.9,17.2,M,-18.5,M,19.0,0277*67
08/21/2019,00:09:37.609,$GPGGA,000937,4737.4648,N,12224.0359,W,2,10,00.9,17.2,M,-18.5,M,20.0,0277*6C
08/21/2019,00:09:38.811,$GPGGA,000938,4737.4648,N,12224.0359,W,2,10,00.9,17.2,M,-18.5,M,21.0,0277*62
08/21/2019,00:09:39.644,$GPGGA,000939,4737.4648,N,12224.0359,W,2,10,00.9,17.2,M,-18.5,M,22.0,0277*60
08/21/2019,00:09:40.807,$GPGGA,000940,4737.4648,N,12224.0359,W,2,10,00.9,17.2,M,-18.5,M,22.0,0277*6E
08/21/2019,00:09:41.659,$GPGGA,000941,4737.4648,N,12224.0358,W,2,10,00.9,17.2,M,-18.5,M,23.0,0277*6F
08/21/2019,00:09:43.239,$GPGGA,000942,4737.4648,N,12224.0358,W,2,10,00.9,17.2,M,-18.5,M,11.0,0277*6D
08/21/2019,00:09:43.977,$GPGGA,000943,4737.4648,N,12224.0357,W,2,10,00.9,17.1,M,-18.5,M,12.0,0277*63
08/21/2019,00:09:44.717,$GPGGA,000944,4737.4647,N,12224.0357,W,2,10,00.9,17.1,M,-18.5,M,10.0,0277*69
08/21/2019,00:09:45.657,$GPGGA,000945,4737.4647,N,12224.0357,W,2,10,00.9,17.2,M,-18.5,M,11.0,0277*6A
08/21/2019,00:09:46.753,$GPGGA,000946,4737.4647,N,12224.0357,W,2,10,00.9,17.2,M,-18.5,M,12.0,0277*6A
08/21/2019,00:09:47.656,$GPGGA,000947,4737.4647,N,12224.0356,W,2,10,00.9,17.2,M,-18.5,M,11.0,0277*69
08/21/2019,00:09:48.676,$GPGGA,000948,4737.4647,N,12224.0356,W,2,10,00.9,17.2,M,-18.5,M,12.0,0277*65
08/21/2019,00:09:49.708,$GPGGA,000949,4737.4647,N,12224.0356,W,2,10,00.9,17.2,M,-18.5,M,13.0,0277*65
08/21/2019,00:09:50.998,$GPGGA,000950,4737.4647,N,12224.0355,W,2,10,00.9,17.2,M,-18.5,M,13.0,0277*6E
08/21/2019,00:09:51.693,$GPGGA,000951,4737.4647,N,12224.0355,W,2,10,00.9,17.2,M,-18.5,M,14.0,0277*68
08/21/2019,00:09:52.785,$GPGGA,000952,4737.4647,N,12224.0355,W,2,10,00.9,17.2,M,-18.5,M,15.0,0277*6A
08/21/2019,00:09:54.019,$GPGGA,000953,4737.4647,N,12224.0354,W,2,10,00.9,17.2,M,-18.5,M,12.0,0277*6D
08/21/2019,00:09:55.034,$GPGGA,000954,4737.4646,N,12224.0354,W,2,10,00.9,17.2,M,-18.5,M,13.0,0277*6A
