07/18/2019,21:07:41.766,$GPGGA,210741,4437.5846,N,12402.8856,W,2,08,00.9,22.0,M,-22.1,M,13.0,0272*69
07/18/2019,21:07:42.686,$GPGGA,210742,4437.5846,N,12402.8856,W,2,08,00.9,22.0,M,-22.1,M,10.0,0272*69
07/18/2019,21:07:43.636,$GPGGA,210743,4437.5846,N,12402.8856,W,2,08,00.9,22.0,M,-22.1,M,11.0,0272*69
07/18/2019,21:07:44.665,$GPGGA,210744,4437.5846,N,12402.8856,W,2,08,00.9,22.0,M,-22.1,M,12.0,0272*6D
07/18/2019,21:07:45.718,$GPGGA,210745,4437.5846,N,12402.8856,W,2,08,00.9,22.0,M,-22.1,M,10.0,0272*6E
07/18/2019,21:07:46.710,$GPGGA,210746,4437.5846,N,12402.8856,W,2,08,00.9,22.0,M,-22.1,M,11.0,0272*6C
07/18/2019,21:07:47.698,$GPGGA,210747,4437.5846,N,12402.8857,W,2,08,00.9,22.0,M,-22.1,M,12.0,0272*6F
07/18/2019,21:07:48.676,$GPGGA,210748,4437.5846,N,12402.8857,W,2,08,00.9,22.0,M,-22.1,M,10.0,0272*62
07/18/2019,21:07:49.758,$GPGGA,210749,4437.5846,N,12402.8858,W,2,08,00.9,22.0,M,-22.1,M,11.0,0272*6D
07/18/2019,21:07:50.670,$GPGGA,210750,4437.5846,N,12402.8858,W,2,08,00.9,22.0,M,-22.1,M,12.0,0272*66
07/18/2019,21:07:51.696,$GPGGA,210751,4437.5846,N,12402.8859,W,2,08,00.9,22.0,M,-22.1,M,10.0,0272*64
07/18/2019,21:07:52.670,$GPGGA,210752,4437.5846,N,12402.8859,W,2,08,00.9,22.0,M,-22.1,M,11.0,0272*66
07/18/2019,21:07:53.770,$GPGGA,210753,4437.5846,N,12402.8859,W,2,08,00.9,22.0,M,-22.1,M,12.0,0272*64
07/18/2019,21:07:54.666,$GPGGA,210754,4437.5846,N,12402.8860,W,2,08,00.9,22.0,M,-22.1,M,10.0,0272*6B
07/18/2019,21:07:55.647,$GPGGA,210755,4437.5846,N,12402.8860,W,2,08,00.9,22.0,M,-22.1,M,11.0,0272*6B
07/18/2019,21:07:56.620,$GPGGA,210756,4437.5845,N,12402.8860,W,2,08,00.9,22.0,M,-22.1,M,12.0,0272*68
07/18/2019,21:07:57.761,$GPGGA,210757,4437.5845,N,12402.8860,W,2,08,00.9,22.0,M,-22.1,M,10.0,0272*6B
07/18/2019,21:07:58.674,$GPGGA,210758,4437.5845,N,12402.8860,W,2,08,00.9,22.0,M,-22.1,M,11.0,0272*65
07/18/2019,21:07:59.697,$GPGGA,210759,4437.5846,N,12402.8860,W,2,08,00.9,22.0,M,-22.1,M,12.0,0272*64
07/18/2019,21:08:00.666,$GPGGA,210800,4437.5846,N,12402.8860,W,2,08,00.9,22.0,M,-22.1,M,10.0,0272*65
07/18/2019,21:08:01.715,$GPGGA,210801,4437.5846,N,12402.8860,W,2,08,00.9,22.0,M,-22.1,M,11.0,0272*65
07/18/2019,21:08:02.620,$GPGGA,210802,4437.5846,N,12402.8860,W,2,08,00.9,22.0,M,-22.1,M,12.0,0272*65
07/18/2019,21:08:03.735,$GPGGA,210803,4437.5847,N,12402.8859,W,2,08,00.9,22.0,M,-22.1,M,10.0,0272*6D
07/18/2019,21:08:04.665,$GPGGA,210804,4437.5847,N,12402.8859,W,2,08,00.9,22.0,M,-22.1,M,11.0,0272*6B
07/18/2019,21:08:05.820,$GPGGA,210805,4437.5847,N,12402.8859,W,2,08,00.9,22.0,M,-22.1,M,12.0,0272*69
07/18/2019,21:08:06.667,$GPGGA,210806,4437.5847,N,12402.8858,W,2,08,00.9,22.0,M,-22.1,M,10.0,0272*69
07/18/2019,21:08:07.744,$GPGGA,210807,4437.5847,N,12402.8858,W,2,08,00.9,22.0,M,-22.1,M,11.0,0272*69
07/18/2019,21:08:08.620,$GPGGA,210808,4437.5846,N,12402.8858,W,2,08,00.9,22.1,M,-22.1,M,12.0,0272*65
07/18/2019,21:08:09.763,$GPGGA,210809,4437.5846,N,12402.8857,W,2,08,00.9,22.1,M,-22.1,M,10.0,0272*69
07/18/2019,21:08:10.620,$GPGGA,210810,4437.5845,N,12402.8857,W,2,08,00.9,22.1,M,-22.1,M,11.0,0272*63
07/18/2019,21:08:11.736,$GPGGA,210811,4437.5846,N,12402.8857,W,2,08,00.9,22.1,M,-22.1,M,12.0,0272*62
07/18/2019,21:08:12.627,$GPGGA,210812,4437.5846,N,12402.8856,W,2,08,00.9,22.1,M,-22.1,M,10.0,0272*62
07/18/2019,21:08:13.759,$GPGGA,210813,4437.5846,N,12402.8856,W,2,08,00.9,22.1,M,-22.1,M,11.0,0272*62
07/18/2019,21:08:14.620,$GPGGA,210814,4437.5846,N,12402.8856,W,2,08,00.9,22.1,M,-22.1,M,12.0,0272*66
07/18/2019,21:08:15.636,$GPGGA,210815,4437.5846,N,12402.8855,W,2,08,00.9,22.1,M,-22.1,M,10.0,0272*66
07/18/2019,21:08:16.617,$GPGGA,210816,4437.5846,N,12402.8856,W,2,08,00.9,22.1,M,-22.1,M,11.0,0272*67
07/18/2019,21:08:17.762,$GPGGA,210817,4437.5846,N,12402.8856,W,2,08,00.9,22.1,M,-22.1,M,12.0,0272*65
07/18/2019,21:08:18.621,$GPGGA,210818,4437.5846,N,12402.8856,W,2,08,00.9,22.1,M,-22.1,M,10.0,0272*68
07/18/2019,21:08:19.687,$GPGGA,210819,4437.5846,N,12402.8856,W,2,08,00.9,22.1,M,-22.1,M,11.0,0272*68
07/18/2019,21:08:20.621,$GPGGA,210820,4437.5846,N,12402.8856,W,2,08,00.9,22.1,M,-22.1,M,12.0,0272*61
07/18/2019,21:08:21.718,$GPGGA,210821,4437.5846,N,12402.8856,W,2,08,00.9,22.0,M,-22.1,M,10.0,0272*63
07/18/2019,21:08:22.672,$GPGGA,210822,4437.5846,N,12402.8856,W,2,08,00.9,22.0,M,-22.1,M,11.0,0272*61
07/18/2019,21:08:23.694,$GPGGA,210823,4437.5846,N,12402.8857,W,2,08,00.9,22.0,M,-22.1,M,12.0,0272*62
07/18/2019,21:08:24.666,$GPGGA,210824,4437.5846,N,12402.8857,W,2,08,00.9,22.1,M,-22.1,M,10.0,0272*66
07/18/2019,21:08:25.820,$GPGGA,210825,4437.5846,N,12402.8857,W,2,08,00.9,22.1,M,-22.1,M,11.0,0272*66
07/18/2019,21:08:26.621,$GPGGA,210826,4437.5846,N,12402.8857,W,2,08,00.9,22.1,M,-22.1,M,12.0,0272*66
07/18/2019,21:08:27.743,$GPGGA,210827,4437.5846,N,12402.8857,W,2,08,00.9,22.1,M,-22.1,M,10.0,0272*65
07/18/2019,21:08:28.617,$GPGGA,210828,4437.5846,N,12402.8857,W,2,08,00.9,22.1,M,-22.1,M,11.0,0272*6B
07/18/2019,21:08:29.760,$GPGGA,210829,4437.5846,N,12402.8857,W,2,08,00.9,22.1,M,-22.1,M,12.0,0272*69
07/18/2019,21:08:30.668,$GPGGA,210830,4437.5846,N,12402.8857,W,2,08,00.9,22.1,M,-22.1,M,10.0,0272*63
07/18/2019,21:08:31.698,$GPGGA,210831,4437.5846,N,12402.8857,W,2,08,00.9,22.1,M,-22.1,M,11.0,0272*63
07/18/2019,21:08:32.672,$GPGGA,210832,4437.5846,N,12402.8857,W,2,08,00.9,22.1,M,-22.1,M,12.0,0272*63
07/18/2019,21:08:33.771,$GPGGA,210833,4437.5846,N,12402.8857,W,2,08,00.9,22.1,M,-22.1,M,10.0,0272*60
07/18/2019,21:08:34.679,$GPGGA,210834,4437.5846,N,12402.8857,W,2,08,00.9,22.1,M,-22.1,M,11.0,0272*66
07/18/2019,21:08:35.687,$GPGGA,210835,4437.5846,N,12402.8857,W,2,08,00.9,22.1,M,-22.1,M,12.0,0272*64
07/18/2019,21:08:36.667,$GPGGA,210836,4437.5846,N,12402.8857,W,2,08,00.9,22.1,M,-22.1,M,10.0,0272*65
07/18/2019,21:08:37.821,$GPGGA,210837,4437.5846,N,12402.8857,W,2,08,00.9,22.1,M,-22.1,M,11.0,0272*65
07/18/2019,21:08:38.713,$GPGGA,210838,4437.5847,N,12402.8857,W,2,08,00.9,22.1,M,-22.1,M,12.0,0272*68
07/18/2019,21:08:39.688,$GPGGA,210839,4437.5847,N,12402.8857,W,2,08,00.9,22.1,M,-22.1,M,09.0,0272*63
07/18/2019,21:08:40.718,$GPGGA,210840,4437.5847,N,12402.8857,W,2,08,00.9,22.1,M,-22.1,M,10.0,0272*65
07/18/2019,21:08:41.761,$GPGGA,210841,4437.5847,N,12402.8856,W,2,08,00.9,22.1,M,-22.1,M,11.0,0272*64
07/18/2019,21:08:42.724,$GPGGA,210842,4437.5846,N,12402.8856,W,2,08,00.9,22.1,M,-22.1,M,09.0,0272*6F
07/18/2019,21:08:43.688,$GPGGA,210843,4437.5846,N,12402.8856,W,2,08,00.9,22.1,M,-22.1,M,10.0,0272*66
07/18/2019,21:08:44.717,$GPGGA,210844,4437.5846,N,12402.8856,W,2,08,00.9,22.1,M,-22.1,M,11.0,0272*60
07/18/2019,21:08:45.760,$GPGGA,210845,4437.5846,N,12402.8856,W,2,08,00.9,22.1,M,-22.1,M,09.0,0272*68
07/18/2019,21:08:46.721,$GPGGA,210846,4437.5846,N,12402.8856,W,2,08,00.9,22.1,M,-22.1,M,10.0,0272*63
07/18/2019,21:08:47.644,$GPGGA,210847,4437.5846,N,12402.8856,W,2,08,00.9,22.1,M,-22.1,M,11.0,0272*63
07/18/2019,21:08:48.667,$GPGGA,210848,4437.5846,N,12402.8856,W,2,08,00.9,22.1,M,-22.1,M,09.0,0272*65
07/18/2019,21:08:49.761,$GPGGA,210849,4437.5846,N,12402.8856,W,2,08,00.9,22.1,M,-22.1,M,10.0,0272*6C
07/18/2019,21:08:50.678,$GPGGA,210850,4437.5846,N,12402.8856,W,2,08,00.9,22.1,M,-22.1,M,11.0,0272*65
07/18/2019,21:08:51.688,$GPGGA,210851,4437.5846,N,12402.8856,W,2,08,00.9,22.1,M,-22.1,M,09.0,0272*6D
07/18/2019,21:08:52.629,$GPGGA,210852,4437.5846,N,12402.8856,W,2,08,00.9,22.1,M,-22.1,M,10.0,0272*66
07/18/2019,21:08:53.822,$GPGGA,210853,4437.5846,N,12402.8856,W,2,08,00.9,22.1,M,-22.1,M,11.0,0272*66
07/18/2019,21:08:54.622,$GPGGA,210854,4437.5846,N,12402.8856,W,2,08,00.9,22.1,M,-22.1,M,09.0,0272*68
07/18/2019,21:08:55.638,$GPGGA,210855,4437.5846,N,12402.8856,W,2,08,00.9,22.1,M,-22.1,M,10.0,0272*61
07/18/2019,21:08:56.679,$GPGGA,210856,4437.5846,N,12402.8855,W,2,08,00.9,22.1,M,-22.1,M,11.0,0272*60
07/18/2019,21:08:57.763,$GPGGA,210857,4437.5846,N,12402.8856,W,2,08,00.9,22.1,M,-22.1,M,09.0,0272*6B
07/18/2019,21:08:58.638,$GPGGA,210858,4437.5846,N,12402.8855,W,2,08,00.9,22.1,M,-22.1,M,10.0,0272*6F
07/18/2019,21:08:59.688,$GPGGA,210859,4437.5846,N,12402.8855,W,2,08,00.9,22.1,M,-22.1,M,11.0,0272*6F
07/18/2019,21:09:00.619,$GPGGA,210900,4437.5846,N,12402.8856,W,2,08,00.9,22.1,M,-22.1,M,09.0,0272*68
07/18/2019,21:09:01.772,$GPGGA,210901,4437.5846,N,12402.8856,W,2,08,00.9,22.1,M,-22.1,M,10.0,0272*61
07/18/2019,21:09:02.674,$GPGGA,210902,4437.5846,N,12402.8856,W,2,08,00.9,22.1,M,-22.1,M,11.0,0272*63
07/18/2019,21:09:03.700,$GPGGA,210903,4437.5846,N,12402.8856,W,2,08,00.9,22.1,M,-22.1,M,09.0,0272*6B
07/18/2019,21:09:04.669,$GPGGA,210904,4437.5846,N,12402.8856,W,2,08,00.9,22.1,M,-22.1,M,10.0,0272*64
07/18/2019,21:09:05.773,$GPGGA,210905,4437.5846,N,12402.8856,W,2,08,00.9,22.1,M,-22.1,M,11.0,0272*64
07/18/2019,21:09:06.669,$GPGGA,210906,4437.5846,N,12402.8856,W,2,08,00.9,22.1,M,-22.1,M,09.0,0272*6E
07/18/2019,21:09:07.656,$GPGGA,210907,4437.5846,N,12402.8856,W,2,08,00.9,22.1,M,-22.1,M,10.0,0272*67
07/18/2019,21:09:08.618,$GPGGA,210908,4437.5846,N,12402.8856,W,2,08,00.9,22.1,M,-22.1,M,11.0,0272*69
07/18/2019,21:09:09.811,$GPGGA,210909,4437.5846,N,12402.8856,W,2,08,00.9,22.1,M,-22.1,M,09.0,0272*61
07/18/2019,21:09:10.623,$GPGGA,210910,4437.5846,N,12402.8856,W,2,08,00.9,22.1,M,-22.1,M,10.0,0272*61
07/18/2019,21:09:11.640,$GPGGA,210911,4437.5846,N,12402.8856,W,2,08,00.9,22.1,M,-22.1,M,11.0,0272*61
07/18/2019,21:09:12.694,$GPGGA,210912,4437.5846,N,12402.8856,W,2,08,00.9,22.1,M,-22.1,M,09.0,0272*6B
07/18/2019,21:09:13.713,$GPGGA,210913,4437.5846,N,12402.8856,W,2,08,00.9,22.1,M,-22.1,M,10.0,0272*62
07/18/2019,21:09:14.669,$GPGGA,210914,4437.5846,N,12402.8856,W,2,08,00.9,22.1,M,-22.1,M,11.0,0272*64
07/18/2019,21:09:15.689,$GPGGA,210915,4437.5846,N,12402.8856,W,2,08,00.9,22.1,M,-22.1,M,09.0,0272*6C
07/18/2019,21:09:16.719,$GPGGA,210916,4437.5846,N,12402.8856,W,2,08,00.9,22.1,M,-22.1,M,10.0,0272*67
07/18/2019,21:09:17.773,$GPGGA,210917,4437.5846,N,12402.8856,W,2,08,00.9,22.1,M,-22.1,M,11.0,0272*67
07/18/2019,21:09:18.669,$GPGGA,210918,4437.5846,N,12402.8856,W,2,08,00.9,22.1,M,-22.1,M,09.0,0272*61
07/18/2019,21:09:19.739,$GPGGA,210919,4437.5846,N,12402.8856,W,2,08,00.9,22.2,M,-22.1,M,10.0,0272*6B
07/18/2019,21:09:20.669,$GPGGA,210920,4437.5846,N,12402.8856,W,2,08,00.9,22.2,M,-22.1,M,11.0,0272*60
07/18/2019,21:09:21.722,$GPGGA,210921,4437.5846,N,12402.8856,W,2,08,00.9,22.2,M,-22.1,M,09.0,0272*68
07/18/2019,21:09:22.624,$GPGGA,210922,4437.5846,N,12402.8856,W,2,08,00.9,22.2,M,-22.1,M,10.0,0272*63
07/18/2019,21:09:23.690,$GPGGA,210923,4437.5846,N,12402.8856,W,2,08,00.9,22.2,M,-22.1,M,11.0,0272*63
07/18/2019,21:09:24.620,$GPGGA,210924,4437.5846,N,12402.8856,W,2,08,00.9,22.2,M,-22.1,M,09.0,0272*6D
07/18/2019,21:09:25.763,$GPGGA,210925,4437.5847,N,12402.8855,W,2,08,00.9,22.2,M,-22.1,M,10.0,0272*66
07/18/2019,21:09:26.670,$GPGGA,210926,4437.5847,N,12402.8855,W,2,08,00.9,22.2,M,-22.1,M,11.0,0272*64
07/18/2019,21:09:27.657,$GPGGA,210927,4437.5847,N,12402.8855,W,2,08,00.9,22.2,M,-22.1,M,09.0,0272*6C
07/18/2019,21:09:28.730,$GPGGA,210928,4437.5847,N,12402.8855,W,2,08,00.9,22.2,M,-22.1,M,10.0,0272*6B
07/18/2019,21:09:29.813,$GPGGA,210929,4437.5847,N,12402.8855,W,2,08,00.9,22.2,M,-22.1,M,11.0,0272*6B
07/18/2019,21:09:30.669,$GPGGA,210930,4437.5847,N,12402.8855,W,2,08,00.9,22.2,M,-22.1,M,09.0,0272*6A
07/18/2019,21:09:31.640,$GPGGA,210931,4437.5847,N,12402.8855,W,2,08,00.9,22.2,M,-22.1,M,10.0,0272*63
07/18/2019,21:09:32.720,$GPGGA,210932,4437.5847,N,12402.8855,W,2,08,00.9,22.2,M,-22.1,M,11.0,0272*61
07/18/2019,21:09:33.714,$GPGGA,210933,4437.5847,N,12402.8855,W,2,08,00.9,22.2,M,-22.1,M,09.0,0272*69
07/18/2019,21:09:34.670,$GPGGA,210934,4437.5846,N,12402.8855,W,2,08,00.9,22.2,M,-22.1,M,10.0,0272*67
07/18/2019,21:09:35.691,$GPGGA,210935,4437.5846,N,12402.8855,W,2,08,00.9,22.2,M,-22.1,M,11.0,0272*67
07/18/2019,21:09:36.731,$GPGGA,210936,4437.5846,N,12402.8855,W,2,08,00.9,22.2,M,-22.1,M,09.0,0272*6D
07/18/2019,21:09:37.719,$GPGGA,210937,4437.5846,N,12402.8855,W,2,08,00.9,22.2,M,-22.1,M,10.0,0272*64
07/18/2019,21:09:38.671,$GPGGA,210938,4437.5847,N,12402.8855,W,2,08,00.9,22.2,M,-22.1,M,11.0,0272*6B
07/18/2019,21:09:39.690,$GPGGA,210939,4437.5847,N,12402.8855,W,2,08,00.9,22.2,M,-22.1,M,09.0,0272*63
07/18/2019,21:09:40.626,$GPGGA,210940,4437.5847,N,12402.8855,W,2,08,00.9,22.2,M,-22.1,M,10.0,0272*65
07/18/2019,21:09:41.763,$GPGGA,210941,4437.5847,N,12402.8855,W,2,08,00.9,22.2,M,-22.1,M,11.0,0272*65
07/18/2019,21:09:42.675,$GPGGA,210942,4437.5847,N,12402.8855,W,2,08,00.9,22.2,M,-22.1,M,09.0,0272*6F
07/18/2019,21:09:43.690,$GPGGA,210943,4437.5847,N,12402.8855,W,2,08,00.9,22.2,M,-22.1,M,10.0,0272*66
07/18/2019,21:09:44.630,$GPGGA,210944,4437.5847,N,12402.8855,W,2,08,00.9,22.2,M,-22.1,M,11.0,0272*60
07/18/2019,21:09:45.724,$GPGGA,210945,4437.5847,N,12402.8855,W,2,08,00.9,22.2,M,-22.1,M,09.0,0272*68
07/18/2019,21:09:46.625,$GPGGA,210946,4437.5846,N,12402.8855,W,2,08,00.9,22.2,M,-22.1,M,10.0,0272*62
07/18/2019,21:09:47.741,$GPGGA,210947,4437.5846,N,12402.8856,W,2,08,00.9,22.3,M,-22.1,M,11.0,0272*60
07/18/2019,21:09:48.671,$GPGGA,210948,4437.5846,N,12402.8856,W,2,08,00.9,22.3,M,-22.1,M,09.0,0272*66
07/18/2019,21:09:49.824,$GPGGA,210949,4437.5846,N,12402.8856,W,2,08,00.9,22.3,M,-22.1,M,10.0,0272*6F
07/18/2019,21:09:50.715,$GPGGA,210950,4437.5847,N,12402.8856,W,2,08,00.9,22.2,M,-22.1,M,11.0,0272*66
07/18/2019,21:09:51.690,$GPGGA,210951,4437.5847,N,12402.8856,W,2,08,00.9,22.2,M,-22.1,M,09.0,0272*6E
07/18/2019,21:09:52.730,$GPGGA,210952,4437.5847,N,12402.8856,W,2,08,00.9,22.3,M,-22.1,M,10.0,0272*64
07/18/2019,21:09:53.713,$GPGGA,210953,4437.5847,N,12402.8856,W,2,08,00.9,22.3,M,-22.1,M,11.0,0272*64
07/18/2019,21:09:54.670,$GPGGA,210954,4437.5847,N,12402.8856,W,2,08,00.9,22.3,M,-22.1,M,09.0,0272*6A
07/18/2019,21:09:55.690,$GPGGA,210955,4437.5847,N,12402.8856,W,2,08,00.9,22.3,M,-22.1,M,10.0,0272*63
07/18/2019,21:09:56.721,$GPGGA,210956,4437.5847,N,12402.8856,W,2,08,00.9,22.3,M,-22.1,M,11.0,0272*61
07/18/2019,21:09:57.693,$GPGGA,210957,4437.5847,N,12402.8856,W,2,08,00.9,22.3,M,-22.1,M,09.0,0272*69
07/18/2019,21:09:58.640,$GPGGA,210958,4437.5847,N,12402.8856,W,2,08,00.9,22.3,M,-22.1,M,10.0,0272*6E
07/18/2019,21:09:59.703,$GPGGA,210959,4437.5846,N,12402.8857,W,2,08,00.9,22.3,M,-22.1,M,11.0,0272*6E
07/18/2019,21:10:00.671,$GPGGA,211000,4437.5846,N,12402.8857,W,2,08,00.9,22.3,M,-22.1,M,09.0,0272*63
07/18/2019,21:10:01.814,$GPGGA,211001,4437.5846,N,12402.8857,W,2,08,00.9,22.3,M,-22.1,M,10.0,0272*6A
07/18/2019,21:10:02.691,$GPGGA,211002,4437.5846,N,12402.8857,W,2,08,00.9,22.3,M,-22.1,M,11.0,0272*68
07/18/2019,21:10:03.691,$GPGGA,211003,4437.5846,N,12402.8857,W,2,08,00.9,22.3,M,-22.1,M,09.0,0272*60
07/18/2019,21:10:04.621,$GPGGA,211004,4437.5846,N,12402.8857,W,2,08,00.9,22.3,M,-22.1,M,10.0,0272*6F
07/18/2019,21:10:05.775,$GPGGA,211005,4437.5846,N,12402.8857,W,2,08,00.9,22.3,M,-22.1,M,11.0,0272*6F
07/18/2019,21:10:06.670,$GPGGA,211006,4437.5846,N,12402.8857,W,2,08,00.9,22.3,M,-22.1,M,09.0,0272*65
07/18/2019,21:10:07.658,$GPGGA,211007,4437.5846,N,12402.8857,W,2,08,00.9,22.3,M,-22.1,M,10.0,0272*6C
07/18/2019,21:10:08.632,$GPGGA,211008,4437.5847,N,12402.8857,W,2,08,00.9,22.3,M,-22.1,M,11.0,0272*63
07/18/2019,21:10:09.716,$GPGGA,211009,4437.5847,N,12402.8857,W,2,08,00.9,22.3,M,-22.1,M,09.0,0272*6B
07/18/2019,21:10:10.716,$GPGGA,211010,4437.5847,N,12402.8857,W,2,08,00.9,22.3,M,-22.1,M,10.0,0272*6B
07/18/2019,21:10:11.691,$GPGGA,211011,4437.5847,N,12402.8857,W,2,08,00.9,22.3,M,-22.1,M,11.0,0272*6B
07/18/2019,21:10:12.649,$GPGGA,211012,4437.5847,N,12402.8857,W,2,08,00.9,22.3,M,-22.1,M,09.0,0272*61
07/18/2019,21:10:13.725,$GPGGA,211013,4437.5847,N,12402.8857,W,2,08,00.9,22.3,M,-22.1,M,10.0,0272*68
07/18/2019,21:10:14.626,$GPGGA,211014,4437.5847,N,12402.8857,W,2,08,00.9,22.3,M,-22.1,M,11.0,0272*6E
07/18/2019,21:10:15.661,$GPGGA,211015,4437.5846,N,12402.8857,W,2,08,00.9,22.3,M,-22.1,M,09.0,0272*67
07/18/2019,21:10:16.721,$GPGGA,211016,4437.5846,N,12402.8856,W,2,08,00.9,22.3,M,-22.1,M,10.0,0272*6D
07/18/2019,21:10:17.775,$GPGGA,211017,4437.5846,N,12402.8856,W,2,08,00.9,22.4,M,-22.1,M,08.0,0272*62
07/18/2019,21:10:18.672,$GPGGA,211018,4437.5846,N,12402.8856,W,2,08,00.9,22.4,M,-22.1,M,09.0,0272*6C
07/18/2019,21:10:19.692,$GPGGA,211019,4437.5847,N,12402.8856,W,2,08,00.9,22.4,M,-22.1,M,10.0,0272*64
07/18/2019,21:10:20.622,$GPGGA,211020,4437.5846,N,12402.8856,W,2,08,00.9,22.4,M,-22.1,M,11.0,0272*6E
07/18/2019,21:10:21.776,$GPGGA,211021,4437.5846,N,12402.8856,W,2,08,00.9,22.4,M,-22.1,M,12.0,0272*6C
07/18/2019,21:10:22.677,$GPGGA,211022,4437.5847,N,12402.8856,W,2,08,00.9,22.4,M,-22.1,M,13.0,0272*6F
07/18/2019,21:10:23.694,$GPGGA,211023,4437.5847,N,12402.8856,W,2,08,00.9,22.4,M,-22.1,M,10.0,0272*6D
07/18/2019,21:10:24.672,$GPGGA,211024,4437.5847,N,12402.8855,W,2,08,00.9,22.4,M,-22.1,M,11.0,0272*68
07/18/2019,21:10:25.826,$GPGGA,211025,4437.5847,N,12402.8855,W,2,08,00.9,22.4,M,-22.1,M,12.0,0272*6A
07/18/2019,21:10:26.716,$GPGGA,211026,4437.5847,N,12402.8855,W,2,08,00.9,22.4,M,-22.1,M,10.0,0272*6B
07/18/2019,21:10:27.693,$GPGGA,211027,4437.5847,N,12402.8855,W,2,08,00.9,22.4,M,-22.1,M,11.0,0272*6B
07/18/2019,21:10:28.732,$GPGGA,211028,4437.5846,N,12402.8855,W,2,08,00.9,22.4,M,-22.1,M,12.0,0272*66
07/18/2019,21:10:29.816,$GPGGA,211029,4437.5846,N,12402.8855,W,2,08,00.9,22.4,M,-22.1,M,10.0,0272*65
07/18/2019,21:10:30.672,$GPGGA,211030,4437.5846,N,12402.8855,W,2,08,00.9,22.5,M,-22.1,M,11.0,0272*6D
07/18/2019,21:10:31.743,$GPGGA,211031,4437.5846,N,12402.8855,W,2,08,00.9,22.5,M,-22.1,M,12.0,0272*6F
07/18/2019,21:10:32.676,$GPGGA,211032,4437.5846,N,12402.8856,W,2,08,00.9,22.5,M,-22.1,M,10.0,0272*6D
07/18/2019,21:10:33.725,$GPGGA,211033,4437.5846,N,12402.8856,W,2,08,00.9,22.4,M,-22.1,M,11.0,0272*6C
07/18/2019,21:10:34.641,$GPGGA,211034,4437.5847,N,12402.8856,W,2,08,00.9,22.4,M,-22.1,M,12.0,0272*69
07/18/2019,21:10:35.693,$GPGGA,211035,4437.5847,N,12402.8855,W,2,08,00.9,22.4,M,-22.1,M,10.0,0272*69
07/18/2019,21:10:36.673,$GPGGA,211036,4437.5847,N,12402.8855,W,2,08,00.9,22.5,M,-22.1,M,11.0,0272*6A
07/18/2019,21:10:37.767,$GPGGA,211037,4437.5847,N,12402.8855,W,2,08,00.9,22.5,M,-22.1,M,12.0,0272*68
07/18/2019,21:10:38.717,$GPGGA,211038,4437.5847,N,12402.8855,W,2,08,00.9,22.5,M,-22.1,M,10.0,0272*65
07/18/2019,21:10:39.703,$GPGGA,211039,4437.5847,N,12402.8855,W,2,08,00.9,22.5,M,-22.1,M,11.0,0272*65
07/18/2019,21:10:40.673,$GPGGA,211040,4437.5846,N,12402.8855,W,2,08,00.9,22.4,M,-22.1,M,12.0,0272*68
07/18/2019,21:10:41.717,$GPGGA,211041,4437.5846,N,12402.8855,W,2,08,00.9,22.4,M,-22.1,M,10.0,0272*6B
07/18/2019,21:10:42.678,$GPGGA,211042,4437.5846,N,12402.8855,W,2,08,00.9,22.4,M,-22.1,M,11.0,0272*69
07/18/2019,21:10:43.743,$GPGGA,211043,4437.5846,N,12402.8855,W,2,08,00.9,22.4,M,-22.1,M,12.0,0272*6B
07/18/2019,21:10:44.673,$GPGGA,211044,4437.5846,N,12402.8855,W,2,08,00.9,22.4,M,-22.1,M,10.0,0272*6E
07/18/2019,21:10:45.726,$GPGGA,211045,4437.5846,N,12402.8855,W,2,08,00.9,22.4,M,-22.1,M,11.0,0272*6E
07/18/2019,21:10:46.728,$GPGGA,211046,4437.5846,N,12402.8855,W,2,08,00.9,22.4,M,-22.1,M,12.0,0272*6E
07/18/2019,21:10:47.647,$GPGGA,211047,4437.5846,N,12402.8855,W,2,08,00.9,22.4,M,-22.1,M,10.0,0272*6D
07/18/2019,21:10:48.673,$GPGGA,211048,4437.5846,N,12402.8855,W,2,08,00.9,22.4,M,-22.1,M,11.0,0272*63
07/18/2019,21:10:49.718,$GPGGA,211049,4437.5846,N,12402.8855,W,2,08,00.9,22.4,M,-22.1,M,12.0,0272*61
07/18/2019,21:10:50.675,$GPGGA,211050,4437.5846,N,12402.8855,W,2,08,00.9,22.4,M,-22.1,M,10.0,0272*6B
07/18/2019,21:10:51.694,$GPGGA,211051,4437.5846,N,12402.8855,W,2,08,00.9,22.4,M,-22.1,M,11.0,0272*6B
07/18/2019,21:10:52.635,$GPGGA,211052,4437.5846,N,12402.8855,W,2,08,00.9,22.4,M,-22.1,M,12.0,0272*6B
07/18/2019,21:10:53.719,$GPGGA,211053,4437.5846,N,12402.8855,W,2,08,00.9,22.4,M,-22.1,M,10.0,0272*68
07/18/2019,21:10:54.639,$GPGGA,211054,4437.5846,N,12402.8856,W,2,08,00.9,22.4,M,-22.1,M,11.0,0272*6D
07/18/2019,21:10:55.657,$GPGGA,211055,4437.5846,N,12402.8856,W,2,08,00.9,22.4,M,-22.1,M,12.0,0272*6F
07/18/2019,21:10:56.624,$GPGGA,211056,4437.5847,N,12402.8856,W,2,08,00.9,22.4,M,-22.1,M,10.0,0272*6F
07/18/2019,21:10:57.768,$GPGGA,211057,4437.5847,N,12402.8855,W,2,08,00.9,22.4,M,-22.1,M,11.0,0272*6C
07/18/2019,21:10:58.679,$GPGGA,211058,4437.5847,N,12402.8855,W,2,08,00.9,22.4,M,-22.1,M,12.0,0272*60
07/18/2019,21:10:59.693,$GPGGA,211059,4437.5847,N,12402.8855,W,2,08,00.9,22.4,M,-22.1,M,10.0,0272*63
07/18/2019,21:11:00.623,$GPGGA,211100,4437.5847,N,12402.8855,W,2,08,00.9,22.4,M,-22.1,M,11.0,0272*6F
07/18/2019,21:11:01.777,$GPGGA,211101,4437.5847,N,12402.8855,W,2,08,00.9,22.4,M,-22.1,M,12.0,0272*6D
07/18/2019,21:11:02.679,$GPGGA,211102,4437.5847,N,12402.8855,W,2,08,00.9,22.4,M,-22.1,M,10.0,0272*6C
07/18/2019,21:11:03.705,$GPGGA,211103,4437.5847,N,12402.8855,W,2,08,00.9,22.4,M,-22.1,M,11.0,0272*6C
07/18/2019,21:11:04.683,$GPGGA,211104,4437.5847,N,12402.8855,W,2,08,00.9,22.4,M,-22.1,M,12.0,0272*68
07/18/2019,21:11:05.817,$GPGGA,211105,4437.5846,N,12402.8855,W,2,08,00.9,22.4,M,-22.1,M,10.0,0272*6A
07/18/2019,21:11:06.673,$GPGGA,211106,4437.5846,N,12402.8855,W,2,08,00.9,22.4,M,-22.1,M,11.0,0272*68
07/18/2019,21:11:07.667,$GPGGA,211107,4437.5846,N,12402.8855,W,2,08,00.9,22.4,M,-22.1,M,12.0,0272*6A
07/18/2019,21:11:08.634,$GPGGA,211108,4437.5846,N,12402.8855,W,2,08,00.9,22.4,M,-22.1,M,10.0,0272*67
07/18/2019,21:11:09.727,$GPGGA,211109,4437.5846,N,12402.8855,W,2,08,00.9,22.4,M,-22.1,M,11.0,0272*67
07/18/2019,21:11:10.644,$GPGGA,211110,4437.5846,N,12402.8855,W,2,08,00.9,22.4,M,-22.1,M,12.0,0272*6C
07/18/2019,21:11:11.694,$GPGGA,211111,4437.5846,N,12402.8855,W,2,08,00.9,22.4,M,-22.1,M,10.0,0272*6F
07/18/2019,21:11:12.684,$GPGGA,211112,4437.5846,N,12402.8855,W,2,08,00.9,22.4,M,-22.1,M,11.0,0272*6D
07/18/2019,21:11:13.768,$GPGGA,211113,4437.5846,N,12402.8856,W,2,08,00.9,22.4,M,-22.1,M,12.0,0272*6C
07/18/2019,21:11:14.629,$GPGGA,211114,4437.5846,N,12402.8856,W,2,08,00.9,22.4,M,-22.1,M,10.0,0272*69
07/18/2019,21:11:15.746,$GPGGA,211115,4437.5846,N,12402.8856,W,2,08,00.9,22.4,M,-22.1,M,11.0,0272*69
07/18/2019,21:11:16.627,$GPGGA,211116,4437.5846,N,12402.8856,W,2,08,00.9,22.4,M,-22.1,M,12.0,0272*69
07/18/2019,21:11:17.806,$GPGGA,211117,4437.5846,N,12402.8856,W,2,08,00.9,22.4,M,-22.1,M,10.0,0272*6A
07/18/2019,21:11:18.673,$GPGGA,211118,4437.5846,N,12402.8856,W,2,08,00.9,22.4,M,-22.1,M,11.0,0272*64
07/18/2019,21:11:19.656,$GPGGA,211119,4437.5847,N,12402.8856,W,2,08,00.9,22.4,M,-22.1,M,12.0,0272*67
07/18/2019,21:11:20.724,$GPGGA,211120,4437.5847,N,12402.8856,W,2,08,00.9,22.4,M,-22.1,M,10.0,0272*6F
07/18/2019,21:11:21.728,$GPGGA,211121,4437.5847,N,12402.8856,W,2,08,00.9,22.4,M,-22.1,M,11.0,0272*6F
07/18/2019,21:11:22.628,$GPGGA,211122,4437.5847,N,12402.8856,W,2,08,00.9,22.4,M,-22.1,M,12.0,0272*6F
07/18/2019,21:11:23.645,$GPGGA,211123,4437.5847,N,12402.8856,W,2,08,00.9,22.4,M,-22.1,M,10.0,0272*6C
07/18/2019,21:11:24.674,$GPGGA,211124,4437.5846,N,12402.8856,W,2,08,00.9,22.3,M,-22.1,M,11.0,0272*6C
07/18/2019,21:11:25.721,$GPGGA,211125,4437.5846,N,12402.8856,W,2,08,00.9,22.3,M,-22.1,M,12.0,0272*6E
07/18/2019,21:11:26.674,$GPGGA,211126,4437.5846,N,12402.8856,W,2,08,00.9,22.4,M,-22.1,M,10.0,0272*68
07/18/2019,21:11:27.697,$GPGGA,211127,4437.5847,N,12402.8856,W,2,08,00.9,22.3,M,-22.1,M,11.0,0272*6E
07/18/2019,21:11:28.627,$GPGGA,211128,4437.5847,N,12402.8856,W,2,08,00.9,22.3,M,-22.1,M,12.0,0272*62
07/18/2019,21:11:29.779,$GPGGA,211129,4437.5847,N,12402.8856,W,2,08,00.9,22.3,M,-22.1,M,10.0,0272*61
07/18/2019,21:11:30.674,$GPGGA,211130,4437.5847,N,12402.8856,W,2,08,00.9,22.3,M,-22.1,M,11.0,0272*68
07/18/2019,21:11:31.695,$GPGGA,211131,4437.5847,N,12402.8856,W,2,08,00.9,22.3,M,-22.1,M,09.0,0272*60
07/18/2019,21:11:32.636,$GPGGA,211132,4437.5847,N,12402.8856,W,2,08,00.9,22.3,M,-22.1,M,10.0,0272*6B
07/18/2019,21:11:33.728,$GPGGA,211133,4437.5847,N,12402.8856,W,2,08,00.9,22.3,M,-22.1,M,08.0,0272*63
07/18/2019,21:11:34.629,$GPGGA,211134,4437.5847,N,12402.8856,W,2,08,00.9,22.3,M,-22.1,M,09.0,0272*65
07/18/2019,21:11:35.645,$GPGGA,211135,4437.5847,N,12402.8856,W,2,08,00.9,22.3,M,-22.1,M,10.0,0272*6C
07/18/2019,21:11:36.687,$GPGGA,211136,4437.5847,N,12402.8856,W,2,08,00.9,22.3,M,-22.1,M,10.0,0272*6F
07/18/2019,21:11:37.768,$GPGGA,211137,4437.5847,N,12402.8856,W,2,08,00.9,22.3,M,-22.1,M,11.0,0272*6F
07/18/2019,21:11:38.645,$GPGGA,211138,4437.5847,N,12402.8856,W,2,08,00.9,22.3,M,-22.1,M,12.0,0272*63
07/18/2019,21:11:39.646,$GPGGA,211139,4437.5847,N,12402.8856,W,2,08,00.9,22.3,M,-22.1,M,10.0,0272*60
07/18/2019,21:11:40.725,$GPGGA,211140,4437.5847,N,12402.8856,W,2,08,00.9,22.3,M,-22.1,M,11.0,0272*6F
07/18/2019,21:11:41.719,$GPGGA,211141,4437.5847,N,12402.8856,W,2,08,00.9,22.2,M,-22.1,M,12.0,0272*6C
07/18/2019,21:11:42.680,$GPGGA,211142,4437.5847,N,12402.8856,W,2,08,00.9,22.2,M,-22.1,M,10.0,0272*6D
07/18/2019,21:11:43.695,$GPGGA,211143,4437.5847,N,12402.8856,W,2,08,00.9,22.2,M,-22.1,M,11.0,0272*6D
07/18/2019,21:11:44.636,$GPGGA,211144,4437.5847,N,12402.8856,W,2,08,00.9,22.2,M,-22.1,M,12.0,0272*69
07/18/2019,21:11:45.729,$GPGGA,211145,4437.5847,N,12402.8856,W,2,08,00.9,22.2,M,-22.1,M,10.0,0272*6A
07/18/2019,21:11:46.629,$GPGGA,211146,4437.5847,N,12402.8856,W,2,08,00.9,22.2,M,-22.1,M,11.0,0272*68
07/18/2019,21:11:47.756,$GPGGA,211147,4437.5846,N,12402.8856,W,2,08,00.9,22.2,M,-22.1,M,12.0,0272*6B
07/18/2019,21:11:48.627,$GPGGA,211148,4437.5846,N,12402.8856,W,2,08,00.9,22.2,M,-22.1,M,10.0,0272*66
07/18/2019,21:11:49.779,$GPGGA,211149,4437.5846,N,12402.8856,W,2,08,00.9,22.2,M,-22.1,M,11.0,0272*66
07/18/2019,21:11:50.674,$GPGGA,211150,4437.5846,N,12402.8856,W,2,08,00.9,22.2,M,-22.1,M,12.0,0272*6D
07/18/2019,21:11:51.696,$GPGGA,211151,4437.5847,N,12402.8856,W,2,08,00.9,22.2,M,-22.1,M,10.0,0272*6F
07/18/2019,21:11:52.637,$GPGGA,211152,4437.5847,N,12402.8856,W,2,08,00.9,22.2,M,-22.1,M,11.0,0272*6D
07/18/2019,21:11:53.829,$GPGGA,211153,4437.5847,N,12402.8856,W,2,08,00.9,22.2,M,-22.1,M,12.0,0272*6F
07/18/2019,21:11:54.630,$GPGGA,211154,4437.5847,N,12402.8856,W,2,08,00.9,22.2,M,-22.1,M,10.0,0272*6A
07/18/2019,21:11:55.646,$GPGGA,211155,4437.5847,N,12402.8856,W,2,08,00.9,22.2,M,-22.1,M,11.0,0272*6A
07/18/2019,21:11:56.635,$GPGGA,211156,4437.5847,N,12402.8856,W,2,08,00.9,22.2,M,-22.1,M,12.0,0272*6A
07/18/2019,21:11:57.742,$GPGGA,211157,4437.5847,N,12402.8856,W,2,08,00.9,22.2,M,-22.1,M,10.0,0272*69
07/18/2019,21:11:58.676,$GPGGA,211158,4437.5846,N,12402.8856,W,2,08,00.9,22.2,M,-22.1,M,11.0,0272*66
07/18/2019,21:11:59.708,$GPGGA,211159,4437.5846,N,12402.8856,W,2,08,00.9,22.2,M,-22.1,M,12.0,0272*64
07/18/2019,21:12:00.676,$GPGGA,211200,4437.5846,N,12402.8856,W,2,08,00.9,22.2,M,-22.1,M,10.0,0272*69
07/18/2019,21:12:01.720,$GPGGA,211201,4437.5846,N,12402.8856,W,2,08,00.9,22.2,M,-22.1,M,11.0,0272*69
07/18/2019,21:12:02.682,$GPGGA,211202,4437.5846,N,12402.8856,W,2,08,00.9,22.2,M,-22.1,M,12.0,0272*69
07/18/2019,21:12:03.746,$GPGGA,211203,4437.5846,N,12402.8856,W,2,08,00.9,22.2,M,-22.1,M,10.0,0272*6A
07/18/2019,21:12:04.678,$GPGGA,211204,4437.5846,N,12402.8856,W,2,08,00.9,22.2,M,-22.1,M,11.0,0272*6C
07/18/2019,21:12:05.719,$GPGGA,211205,4437.5846,N,12402.8856,W,2,08,00.9,22.2,M,-22.1,M,12.0,0272*6E
07/18/2019,21:12:06.630,$GPGGA,211206,4437.5846,N,12402.8856,W,2,08,00.9,22.2,M,-22.1,M,10.0,0272*6F
07/18/2019,21:12:07.651,$GPGGA,211207,4437.5846,N,12402.8856,W,2,08,00.9,22.2,M,-22.1,M,11.0,0272*6F
07/18/2019,21:12:08.594,$GPGGA,211208,4437.5846,N,12402.8856,W,2,08,00.9,22.2,M,-22.1,M,12.0,0272*63
07/18/2019,21:12:09.770,$GPGGA,211209,4437.5846,N,12402.8856,W,2,08,00.9,22.2,M,-22.1,M,10.0,0272*60
07/18/2019,21:12:10.646,$GPGGA,211210,4437.5846,N,12402.8856,W,2,08,00.9,22.2,M,-22.1,M,11.0,0272*69
07/18/2019,21:12:11.658,$GPGGA,211211,4437.5846,N,12402.8856,W,2,08,00.9,22.1,M,-22.1,M,12.0,0272*68
07/18/2019,21:12:12.638,$GPGGA,211212,4437.5846,N,12402.8856,W,2,08,00.9,22.1,M,-22.1,M,10.0,0272*69
07/18/2019,21:12:13.822,$GPGGA,211213,4437.5846,N,12402.8856,W,2,08,00.9,22.1,M,-22.1,M,11.0,0272*69
07/18/2019,21:12:14.631,$GPGGA,211214,4437.5846,N,12402.8856,W,2,08,00.9,22.1,M,-22.1,M,12.0,0272*6D
07/18/2019,21:12:15.657,$GPGGA,211215,4437.5846,N,12402.8856,W,2,08,00.9,22.1,M,-22.1,M,10.0,0272*6E
07/18/2019,21:12:16.727,$GPGGA,211216,4437.5846,N,12402.8856,W,2,08,00.9,22.1,M,-22.1,M,11.0,0272*6C
07/18/2019,21:12:17.781,$GPGGA,211217,4437.5846,N,12402.8856,W,2,08,00.9,22.1,M,-22.1,M,12.0,0272*6E
07/18/2019,21:12:18.675,$GPGGA,211218,4437.5846,N,12402.8856,W,2,08,00.9,22.1,M,-22.1,M,10.0,0272*63
07/18/2019,21:12:19.698,$GPGGA,211219,4437.5846,N,12402.8856,W,2,08,00.9,22.1,M,-22.1,M,11.0,0272*63
07/18/2019,21:12:20.638,$GPGGA,211220,4437.5846,N,12402.8856,W,2,08,00.9,22.1,M,-22.1,M,12.0,0272*6A
07/18/2019,21:12:21.728,$GPGGA,211221,4437.5846,N,12402.8856,W,2,08,00.9,22.1,M,-22.1,M,10.0,0272*69
07/18/2019,21:12:22.632,$GPGGA,211222,4437.5846,N,12402.8856,W,2,08,00.9,22.1,M,-22.1,M,11.0,0272*6B
07/18/2019,21:12:23.659,$GPGGA,211223,4437.5846,N,12402.8856,W,2,08,00.9,22.1,M,-22.1,M,12.0,0272*69
07/18/2019,21:12:24.628,$GPGGA,211224,4437.5846,N,12402.8856,W,2,08,00.9,22.1,M,-22.1,M,10.0,0272*6C
07/18/2019,21:12:25.721,$GPGGA,211225,4437.5846,N,12402.8856,W,2,08,00.9,22.1,M,-22.1,M,11.0,0272*6C
07/18/2019,21:12:26.645,$GPGGA,211226,4437.5846,N,12402.8856,W,2,08,00.9,22.1,M,-22.1,M,12.0,0272*6C
07/18/2019,21:12:27.658,$GPGGA,211227,4437.5846,N,12402.8856,W,2,08,00.9,22.1,M,-22.1,M,10.0,0272*6F
07/18/2019,21:12:28.627,$GPGGA,211228,4437.5846,N,12402.8856,W,2,08,00.9,22.1,M,-22.1,M,11.0,0272*61
07/18/2019,21:12:29.781,$GPGGA,211229,4437.5846,N,12402.8856,W,2,08,00.9,22.1,M,-22.1,M,12.0,0272*63
07/18/2019,21:12:30.675,$GPGGA,211230,4437.5846,N,12402.8856,W,2,08,00.9,22.1,M,-22.1,M,10.0,0272*69
07/18/2019,21:12:31.648,$GPGGA,211231,4437.5846,N,12402.8856,W,2,08,00.9,22.1,M,-22.1,M,11.0,0272*69
07/18/2019,21:12:32.640,$GPGGA,211232,4437.5846,N,12402.8856,W,2,08,00.9,22.1,M,-22.1,M,12.0,0272*69
07/18/2019,21:12:33.731,$GPGGA,211233,4437.5846,N,12402.8856,W,2,08,00.9,22.1,M,-22.1,M,10.0,0272*6A
07/18/2019,21:12:34.632,$GPGGA,211234,4437.5846,N,12402.8856,W,2,08,00.9,22.1,M,-22.1,M,11.0,0272*6C
07/18/2019,21:12:35.648,$GPGGA,211235,4437.5846,N,12402.8856,W,2,08,00.9,22.1,M,-22.1,M,12.0,0272*6E
07/18/2019,21:12:36.679,$GPGGA,211236,4437.5846,N,12402.8856,W,2,08,00.9,22.1,M,-22.1,M,10.0,0272*6F
07/18/2019,21:12:37.683,$GPGGA,211237,4437.5846,N,12402.8856,W,2,08,00.9,22.1,M,-22.1,M,11.0,0272*6F
07/18/2019,21:12:38.679,$GPGGA,211238,4437.5846,N,12402.8856,W,2,08,00.9,22.1,M,-22.1,M,12.0,0272*63
07/18/2019,21:12:39.699,$GPGGA,211239,4437.5846,N,12402.8856,W,2,08,00.9,22.1,M,-22.1,M,10.0,0272*60
07/18/2019,21:12:40.628,$GPGGA,211240,4437.5846,N,12402.8856,W,2,08,00.9,22.1,M,-22.1,M,11.0,0272*6F
07/18/2019,21:12:41.672,$GPGGA,211241,4437.5846,N,12402.8856,W,2,08,00.9,22.1,M,-22.1,M,12.0,0272*6D
07/18/2019,21:12:42.698,$GPGGA,211242,4437.5846,N,12402.8856,W,2,08,00.9,22.1,M,-22.1,M,10.0,0272*6C
07/18/2019,21:12:43.649,$GPGGA,211243,4437.5846,N,12402.8856,W,2,08,00.9,22.1,M,-22.1,M,11.0,0272*6C
07/18/2019,21:12:44.584,$GPGGA,211244,4437.5846,N,12402.8856,W,2,08,00.9,22.1,M,-22.1,M,12.0,0272*68
07/18/2019,21:12:45.732,$GPGGA,211245,4437.5846,N,12402.8856,W,2,08,00.9,22.1,M,-22.1,M,10.0,0272*6B
07/18/2019,21:12:46.632,$GPGGA,211246,4437.5846,N,12402.8856,W,2,08,00.9,22.1,M,-22.1,M,11.0,0272*69
07/18/2019,21:12:47.652,$GPGGA,211247,4437.5846,N,12402.8856,W,2,08,00.9,22.1,M,-22.1,M,12.0,0272*6B
07/18/2019,21:12:48.628,$GPGGA,211248,4437.5846,N,12402.8856,W,2,08,00.9,22.1,M,-22.1,M,10.0,0272*66
07/18/2019,21:12:49.721,$GPGGA,211249,4437.5846,N,12402.8856,W,2,08,00.9,22.1,M,-22.1,M,11.0,0272*66
07/18/2019,21:12:50.583,$GPGGA,211250,4437.5846,N,12402.8856,W,2,08,00.9,22.1,M,-22.1,M,12.0,0272*6D
07/18/2019,21:12:51.600,$GPGGA,211251,4437.5846,N,12402.8856,W,2,08,00.9,22.1,M,-22.1,M,10.0,0272*6E
07/18/2019,21:12:52.652,$GPGGA,211252,4437.5846,N,12402.8856,W,2,08,00.9,22.1,M,-22.1,M,11.0,0272*6C
07/18/2019,21:12:53.722,$GPGGA,211253,4437.5846,N,12402.8856,W,2,08,00.9,22.1,M,-22.1,M,12.0,0272*6E
07/18/2019,21:12:54.585,$GPGGA,211254,4437.5846,N,12402.8856,W,2,08,00.9,22.1,M,-22.1,M,10.0,0272*6B
07/18/2019,21:12:55.700,$GPGGA,211255,4437.5846,N,12402.8856,W,2,08,00.9,22.1,M,-22.1,M,11.0,0272*6B
07/18/2019,21:12:56.631,$GPGGA,211256,4437.5846,N,12402.8856,W,2,08,00.9,22.1,M,-22.1,M,12.0,0272*6B
07/18/2019,21:12:57.732,$GPGGA,211257,4437.5846,N,12402.8856,W,2,08,00.9,22.0,M,-22.1,M,10.0,0272*69
07/18/2019,21:12:58.633,$GPGGA,211258,4437.5846,N,12402.8856,W,2,08,00.9,22.0,M,-22.1,M,11.0,0272*67
07/18/2019,21:12:59.649,$GPGGA,211259,4437.5846,N,12402.8856,W,2,08,00.9,22.0,M,-22.1,M,12.0,0272*65
07/18/2019,21:13:00.595,$GPGGA,211300,4437.5846,N,12402.8856,W,2,08,00.9,22.0,M,-22.1,M,10.0,0272*6A
07/18/2019,21:13:01.774,$GPGGA,211301,4437.5846,N,12402.8856,W,2,08,00.9,22.1,M,-22.1,M,11.0,0272*6B
07/18/2019,21:13:02.584,$GPGGA,211302,4437.5846,N,12402.8856,W,2,08,00.9,22.1,M,-22.1,M,12.0,0272*6B
07/18/2019,21:13:03.599,$GPGGA,211303,4437.5846,N,12402.8856,W,2,08,00.9,22.1,M,-22.1,M,10.0,0272*68
07/18/2019,21:13:04.628,$GPGGA,211304,4437.5846,N,12402.8856,W,2,08,00.9,22.1,M,-22.1,M,11.0,0272*6E
07/18/2019,21:13:05.723,$GPGGA,211305,4437.5846,N,12402.8856,W,2,08,00.9,22.1,M,-22.1,M,12.0,0272*6C
07/18/2019,21:13:06.688,$GPGGA,211306,4437.5846,N,12402.8856,W,2,08,00.9,22.1,M,-22.1,M,10.0,0272*6D
07/18/2019,21:13:07.611,$GPGGA,211307,4437.5846,N,12402.8856,W,2,08,00.9,22.1,M,-22.1,M,11.0,0272*6D
07/18/2019,21:13:08.686,$GPGGA,211308,4437.5846,N,12402.8856,W,2,08,00.9,22.1,M,-22.1,M,12.0,0272*61
07/18/2019,21:13:09.773,$GPGGA,211309,4437.5846,N,12402.8856,W,2,08,00.9,22.1,M,-22.1,M,10.0,0272*62
07/18/2019,21:13:10.633,$GPGGA,211310,4437.5846,N,12402.8856,W,2,08,00.9,22.1,M,-22.1,M,11.0,0272*6B
07/18/2019,21:13:11.656,$GPGGA,211311,4437.5846,N,12402.8856,W,2,08,00.9,22.1,M,-22.1,M,12.0,0272*69
07/18/2019,21:13:12.640,$GPGGA,211312,4437.5846,N,12402.8856,W,2,08,00.9,22.1,M,-22.1,M,10.0,0272*68
07/18/2019,21:13:13.722,$GPGGA,211313,4437.5846,N,12402.8856,W,2,08,00.9,22.0,M,-22.1,M,11.0,0272*69
07/18/2019,21:13:14.677,$GPGGA,211314,4437.5846,N,12402.8856,W,2,08,00.9,22.0,M,-22.1,M,12.0,0272*6D
07/18/2019,21:13:15.711,$GPGGA,211315,4437.5846,N,12402.8856,W,2,08,00.9,22.0,M,-22.1,M,10.0,0272*6E
07/18/2019,21:13:16.681,$GPGGA,211316,4437.5846,N,12402.8856,W,2,08,00.9,22.0,M,-22.1,M,11.0,0272*6C
07/18/2019,21:13:17.737,$GPGGA,211317,4437.5846,N,12402.8856,W,2,08,00.9,22.0,M,-22.1,M,12.0,0272*6E
07/18/2019,21:13:18.636,$GPGGA,211318,4437.5846,N,12402.8856,W,2,08,00.9,22.0,M,-22.1,M,10.0,0272*63
07/18/2019,21:13:19.655,$GPGGA,211319,4437.5846,N,12402.8856,W,2,08,00.9,22.0,M,-22.1,M,11.0,0272*63
07/18/2019,21:13:20.639,$GPGGA,211320,4437.5846,N,12402.8856,W,2,08,00.9,22.0,M,-22.1,M,12.0,0272*6A
07/18/2019,21:13:21.723,$GPGGA,211321,4437.5846,N,12402.8856,W,2,08,00.9,22.0,M,-22.1,M,10.0,0272*69
07/18/2019,21:13:22.600,$GPGGA,211322,4437.5846,N,12402.8856,W,2,08,00.9,22.0,M,-22.1,M,11.0,0272*6B
07/18/2019,21:13:23.650,$GPGGA,211323,4437.5846,N,12402.8856,W,2,08,00.9,22.0,M,-22.1,M,12.0,0272*69
07/18/2019,21:13:24.691,$GPGGA,211324,4437.5846,N,12402.8856,W,2,08,00.9,22.0,M,-22.1,M,10.0,0272*6C
07/18/2019,21:13:25.773,$GPGGA,211325,4437.5846,N,12402.8856,W,2,08,00.9,22.0,M,-22.1,M,11.0,0272*6C
07/18/2019,21:13:26.645,$GPGGA,211326,4437.5846,N,12402.8856,W,2,08,00.9,22.0,M,-22.1,M,12.0,0272*6C
07/18/2019,21:13:27.661,$GPGGA,211327,4437.5846,N,12402.8856,W,2,08,00.9,22.0,M,-22.1,M,10.0,0272*6F
07/18/2019,21:13:28.692,$GPGGA,211328,4437.5846,N,12402.8856,W,2,08,00.9,22.0,M,-22.1,M,11.0,0272*61
07/18/2019,21:13:29.774,$GPGGA,211329,4437.5846,N,12402.8856,W,2,08,00.9,22.0,M,-22.1,M,12.0,0272*63
07/18/2019,21:13:30.599,$GPGGA,211330,4437.5845,N,12402.8856,W,2,08,00.9,22.0,M,-22.1,M,10.0,0272*6A
07/18/2019,21:13:31.661,$GPGGA,211331,4437.5845,N,12402.8856,W,2,08,00.9,22.0,M,-22.1,M,11.0,0272*6A
07/18/2019,21:13:32.641,$GPGGA,211332,4437.5845,N,12402.8856,W,2,08,00.9,22.0,M,-22.1,M,12.0,0272*6A
07/18/2019,21:13:33.723,$GPGGA,211333,4437.5845,N,12402.8856,W,2,08,00.9,22.0,M,-22.1,M,10.0,0272*69
07/18/2019,21:13:34.678,$GPGGA,211334,4437.5846,N,12402.8856,W,2,08,00.9,22.0,M,-22.1,M,11.0,0272*6C
07/18/2019,21:13:35.701,$GPGGA,211335,4437.5846,N,12402.8856,W,2,08,00.9,22.0,M,-22.1,M,12.0,0272*6E
07/18/2019,21:13:36.641,$GPGGA,211336,4437.5846,N,12402.8856,W,2,08,00.9,22.0,M,-22.1,M,10.0,0272*6F
07/18/2019,21:13:37.726,$GPGGA,211337,4437.5846,N,12402.8856,W,2,08,00.9,22.0,M,-22.1,M,11.0,0272*6F
07/18/2019,21:13:38.635,$GPGGA,211338,4437.5846,N,12402.8856,W,2,08,00.9,22.0,M,-22.1,M,12.0,0272*63
07/18/2019,21:13:39.651,$GPGGA,211339,4437.5846,N,12402.8856,W,2,08,00.9,22.0,M,-22.1,M,10.0,0272*60
07/18/2019,21:13:40.586,$GPGGA,211340,4437.5846,N,12402.8856,W,2,08,00.9,22.0,M,-22.1,M,11.0,0272*6F
07/18/2019,21:13:41.724,$GPGGA,211341,4437.5846,N,12402.8856,W,2,08,00.9,22.0,M,-22.1,M,12.0,0272*6D
07/18/2019,21:13:42.635,$GPGGA,211342,4437.5846,N,12402.8856,W,2,08,00.9,22.0,M,-22.1,M,10.0,0272*6C
07/18/2019,21:13:43.661,$GPGGA,211343,4437.5846,N,12402.8856,W,2,08,00.9,22.0,M,-22.1,M,11.0,0272*6C
07/18/2019,21:13:44.631,$GPGGA,211344,4437.5846,N,12402.8856,W,2,08,00.9,22.0,M,-22.1,M,12.0,0272*68
07/18/2019,21:13:45.687,$GPGGA,211345,4437.5846,N,12402.8856,W,2,08,00.9,22.0,M,-22.1,M,10.0,0272*6B
07/18/2019,21:13:46.689,$GPGGA,211346,4437.5846,N,12402.8856,W,2,08,00.9,22.0,M,-22.1,M,11.0,0272*69
07/18/2019,21:13:47.701,$GPGGA,211347,4437.5846,N,12402.8856,W,2,08,00.9,22.0,M,-22.1,M,12.0,0272*6B
07/18/2019,21:13:48.631,$GPGGA,211348,4437.5846,N,12402.8856,W,2,08,00.9,22.0,M,-22.1,M,10.0,0272*66
07/18/2019,21:13:49.675,$GPGGA,211349,4437.5845,N,12402.8856,W,2,08,00.9,22.0,M,-22.1,M,11.0,0272*65
07/18/2019,21:13:50.587,$GPGGA,211350,4437.5845,N,12402.8856,W,2,08,00.9,22.0,M,-22.1,M,12.0,0272*6E
07/18/2019,21:13:51.612,$GPGGA,211351,4437.5845,N,12402.8856,W,2,08,00.9,22.0,M,-22.1,M,10.0,0272*6D
07/18/2019,21:13:52.594,$GPGGA,211352,4437.5845,N,12402.8856,W,2,08,00.9,22.0,M,-22.1,M,11.0,0272*6F
07/18/2019,21:13:53.785,$GPGGA,211353,4437.5845,N,12402.8856,W,2,08,00.9,22.0,M,-22.1,M,12.0,0272*6D
07/18/2019,21:13:54.587,$GPGGA,211354,4437.5845,N,12402.8856,W,2,08,00.9,22.0,M,-22.1,M,10.0,0272*68
07/18/2019,21:13:55.617,$GPGGA,211355,4437.5845,N,12402.8856,W,2,08,00.9,22.0,M,-22.1,M,11.0,0272*68
07/18/2019,21:13:56.587,$GPGGA,211356,4437.5845,N,12402.8856,W,2,08,00.9,22.0,M,-22.1,M,12.0,0272*68
07/18/2019,21:13:57.786,$GPGGA,211357,4437.5845,N,12402.8856,W,2,08,00.9,22.0,M,-22.1,M,10.0,0272*6B
07/18/2019,21:13:58.681,$GPGGA,211358,4437.5846,N,12402.8856,W,2,08,00.9,22.0,M,-22.1,M,11.0,0272*66
07/18/2019,21:13:59.652,$GPGGA,211359,4437.5846,N,12402.8856,W,2,08,00.9,22.0,M,-22.1,M,12.0,0272*64
07/18/2019,21:14:00.689,$GPGGA,211400,4437.5846,N,12402.8855,W,2,08,00.9,21.9,M,-22.1,M,10.0,0272*64
07/18/2019,21:14:01.776,$GPGGA,211401,4437.5846,N,12402.8855,W,2,08,00.9,21.9,M,-22.1,M,11.0,0272*64
07/18/2019,21:14:02.636,$GPGGA,211402,4437.5846,N,12402.8856,W,2,08,00.9,21.9,M,-22.1,M,12.0,0272*67
07/18/2019,21:14:03.652,$GPGGA,211403,4437.5846,N,12402.8856,W,2,08,00.9,21.9,M,-22.1,M,10.0,0272*64
07/18/2019,21:14:04.693,$GPGGA,211404,4437.5845,N,12402.8856,W,2,08,00.9,21.9,M,-22.1,M,11.0,0272*61
07/18/2019,21:14:05.676,$GPGGA,211405,4437.5845,N,12402.8856,W,2,08,00.9,21.9,M,-22.1,M,12.0,0272*63
07/18/2019,21:14:06.636,$GPGGA,211406,4437.5845,N,12402.8856,W,2,08,00.9,21.9,M,-22.1,M,10.0,0272*62
07/18/2019,21:14:07.667,$GPGGA,211407,4437.5845,N,12402.8856,W,2,08,00.9,21.9,M,-22.1,M,11.0,0272*62
07/18/2019,21:14:08.632,$GPGGA,211408,4437.5845,N,12402.8856,W,2,08,00.9,21.9,M,-22.1,M,12.0,0272*6E
07/18/2019,21:14:09.679,$GPGGA,211409,4437.5845,N,12402.8856,W,2,08,00.9,21.9,M,-22.1,M,10.0,0272*6D
07/18/2019,21:14:10.587,$GPGGA,211410,4437.5846,N,12402.8856,W,2,08,00.9,21.9,M,-22.1,M,11.0,0272*67
07/18/2019,21:14:11.703,$GPGGA,211411,4437.5846,N,12402.8856,W,2,08,00.9,21.9,M,-22.1,M,12.0,0272*65
07/18/2019,21:14:12.596,$GPGGA,211412,4437.5846,N,12402.8856,W,2,08,00.9,21.9,M,-22.1,M,10.0,0272*64
07/18/2019,21:14:13.778,$GPGGA,211413,4437.5846,N,12402.8856,W,2,08,00.9,21.9,M,-22.1,M,11.0,0272*64
07/18/2019,21:14:14.682,$GPGGA,211414,4437.5846,N,12402.8856,W,2,08,00.9,21.9,M,-22.1,M,12.0,0272*60
07/18/2019,21:14:15.603,$GPGGA,211415,4437.5846,N,12402.8855,W,2,08,00.9,21.9,M,-22.1,M,10.0,0272*60
07/18/2019,21:14:16.632,$GPGGA,211416,4437.5846,N,12402.8855,W,2,08,00.9,21.9,M,-22.1,M,11.0,0272*62
07/18/2019,21:14:17.695,$GPGGA,211417,4437.5845,N,12402.8856,W,2,08,00.9,21.9,M,-22.1,M,12.0,0272*60
07/18/2019,21:14:18.588,$GPGGA,211418,4437.5845,N,12402.8856,W,2,08,00.9,21.9,M,-22.1,M,10.0,0272*6D
07/18/2019,21:14:19.605,$GPGGA,211419,4437.5845,N,12402.8856,W,2,08,00.9,21.9,M,-22.1,M,11.0,0272*6D
07/18/2019,21:14:20.587,$GPGGA,211420,4437.5845,N,12402.8856,W,2,08,00.9,21.9,M,-22.1,M,12.0,0272*64
07/18/2019,21:14:21.725,$GPGGA,211421,4437.5845,N,12402.8856,W,2,08,00.9,21.9,M,-22.1,M,10.0,0272*67
07/18/2019,21:14:22.703,$GPGGA,211422,4437.5845,N,12402.8856,W,2,08,00.9,21.9,M,-22.1,M,11.0,0272*65
07/18/2019,21:14:23.653,$GPGGA,211423,4437.5845,N,12402.8855,W,2,08,00.9,21.9,M,-22.1,M,12.0,0272*64
07/18/2019,21:14:24.684,$GPGGA,211424,4437.5845,N,12402.8855,W,2,08,00.9,21.9,M,-22.1,M,10.0,0272*61
07/18/2019,21:14:25.726,$GPGGA,211425,4437.5846,N,12402.8855,W,2,08,00.9,21.9,M,-22.1,M,11.0,0272*62
07/18/2019,21:14:26.651,$GPGGA,211426,4437.5846,N,12402.8855,W,2,08,00.9,21.8,M,-22.1,M,12.0,0272*63
07/18/2019,21:14:27.663,$GPGGA,211427,4437.5846,N,12402.8855,W,2,08,00.9,21.8,M,-22.1,M,10.0,0272*60
07/18/2019,21:14:28.633,$GPGGA,211428,4437.5846,N,12402.8855,W,2,08,00.9,21.8,M,-22.1,M,11.0,0272*6E
07/18/2019,21:14:29.736,$GPGGA,211429,4437.5846,N,12402.8855,W,2,08,00.9,21.8,M,-22.1,M,12.0,0272*6C
07/18/2019,21:14:30.637,$GPGGA,211430,4437.5846,N,12402.8855,W,2,08,00.9,21.8,M,-22.1,M,10.0,0272*66
07/18/2019,21:14:31.663,$GPGGA,211431,4437.5846,N,12402.8855,W,2,08,00.9,21.8,M,-22.1,M,11.0,0272*66
07/18/2019,21:14:32.656,$GPGGA,211432,4437.5846,N,12402.8855,W,2,08,00.9,21.8,M,-22.1,M,12.0,0272*66
07/18/2019,21:14:33.677,$GPGGA,211433,4437.5846,N,12402.8855,W,2,08,00.9,21.8,M,-22.1,M,13.0,0272*66
07/18/2019,21:14:34.653,$GPGGA,211434,4437.5846,N,12402.8855,W,2,08,00.9,21.8,M,-22.1,M,14.0,0272*66
07/18/2019,21:14:35.654,$GPGGA,211435,4437.5846,N,12402.8855,W,2,08,00.9,21.8,M,-22.1,M,12.0,0272*61
07/18/2019,21:14:36.633,$GPGGA,211436,4437.5846,N,12402.8855,W,2,08,00.9,21.8,M,-22.1,M,13.0,0272*63
07/18/2019,21:14:37.744,$GPGGA,211437,4437.5846,N,12402.8855,W,2,08,00.9,21.8,M,-22.1,M,14.0,0272*65
07/18/2019,21:14:38.637,$GPGGA,211438,4437.5846,N,12402.8855,W,2,08,00.9,21.8,M,-22.1,M,12.0,0272*6C
07/18/2019,21:14:39.654,$GPGGA,211439,4437.5846,N,12402.8855,W,2,08,00.9,21.8,M,-22.1,M,13.0,0272*6C
07/18/2019,21:14:40.692,$GPGGA,211440,4437.5846,N,12402.8855,W,2,08,00.9,21.8,M,-22.1,M,14.0,0272*65
07/18/2019,21:14:41.726,$GPGGA,211441,4437.5846,N,12402.8855,W,2,08,00.9,21.8,M,-22.1,M,10.0,0272*60
07/18/2019,21:14:42.589,$GPGGA,211442,4437.5846,N,12402.8855,W,2,08,00.9,21.7,M,-22.1,M,11.0,0272*6D
07/18/2019,21:14:43.653,$GPGGA,211443,4437.5846,N,12402.8855,W,2,08,00.9,21.7,M,-22.1,M,09.0,0272*65
07/18/2019,21:14:44.695,$GPGGA,211444,4437.5846,N,12402.8855,W,2,08,00.9,21.7,M,-22.1,M,10.0,0272*6A
07/18/2019,21:14:45.679,$GPGGA,211445,4437.5846,N,12402.8855,W,2,08,00.9,21.7,M,-22.1,M,11.0,0272*6A
07/18/2019,21:14:46.638,$GPGGA,211446,4437.5846,N,12402.8855,W,2,08,00.9,21.7,M,-22.1,M,09.0,0272*60
07/18/2019,21:14:47.667,$GPGGA,211447,4437.5846,N,12402.8855,W,2,08,00.9,21.7,M,-22.1,M,10.0,0272*69
07/18/2019,21:14:48.634,$GPGGA,211448,4437.5846,N,12402.8855,W,2,08,00.9,21.7,M,-22.1,M,11.0,0272*67
07/18/2019,21:14:49.727,$GPGGA,211449,4437.5846,N,12402.8855,W,2,08,00.9,21.7,M,-22.1,M,10.0,0272*67
07/18/2019,21:14:50.648,$GPGGA,211450,4437.5846,N,12402.8855,W,2,08,00.9,21.7,M,-22.1,M,11.0,0272*6E
07/18/2019,21:14:51.654,$GPGGA,211451,4437.5846,N,12402.8855,W,2,08,00.9,21.7,M,-22.1,M,09.0,0272*66
07/18/2019,21:14:52.686,$GPGGA,211452,4437.5846,N,12402.8855,W,2,08,00.9,21.7,M,-22.1,M,10.0,0272*6D
07/18/2019,21:14:53.777,$GPGGA,211453,4437.5846,N,12402.8855,W,2,08,00.9,21.7,M,-22.1,M,08.0,0272*65
07/18/2019,21:14:54.638,$GPGGA,211454,4437.5846,N,12402.8855,W,2,08,00.9,21.7,M,-22.1,M,09.0,0272*63
07/18/2019,21:14:55.653,$GPGGA,211455,4437.5846,N,12402.8855,W,2,08,00.9,21.7,M,-22.1,M,10.0,0272*6A
07/18/2019,21:14:56.635,$GPGGA,211456,4437.5846,N,12402.8855,W,2,08,00.9,21.7,M,-22.1,M,11.0,0272*68
07/18/2019,21:14:57.746,$GPGGA,211457,4437.5846,N,12402.8855,W,2,08,00.9,21.7,M,-22.1,M,12.0,0272*6A
07/18/2019,21:14:58.651,$GPGGA,211458,4437.5846,N,12402.8855,W,2,08,00.9,21.7,M,-22.1,M,09.0,0272*6F
07/18/2019,21:14:59.655,$GPGGA,211459,4437.5846,N,12402.8855,W,2,08,00.9,21.7,M,-22.1,M,10.0,0272*66
07/18/2019,21:15:00.644,$GPGGA,211500,4437.5846,N,12402.8855,W,2,08,00.9,21.7,M,-22.1,M,11.0,0272*6A
07/18/2019,21:15:01.738,$GPGGA,211501,4437.5846,N,12402.8855,W,2,08,00.9,21.7,M,-22.1,M,09.0,0272*62
07/18/2019,21:15:02.654,$GPGGA,211502,4437.5846,N,12402.8855,W,2,08,00.9,21.7,M,-22.1,M,10.0,0272*69
07/18/2019,21:15:03.605,$GPGGA,211503,4437.5846,N,12402.8855,W,2,08,00.9,21.7,M,-22.1,M,11.0,0272*69
07/18/2019,21:15:04.634,$GPGGA,211504,4437.5846,N,12402.8855,W,2,08,00.9,21.7,M,-22.1,M,10.0,0272*6F
07/18/2019,21:15:05.732,$GPGGA,211505,4437.5846,N,12402.8855,W,2,08,00.9,21.7,M,-22.1,M,11.0,0272*6F
07/18/2019,21:15:06.650,$GPGGA,211506,4437.5846,N,12402.8855,W,2,08,00.9,21.7,M,-22.1,M,12.0,0272*6F
07/18/2019,21:15:07.658,$GPGGA,211507,4437.5846,N,12402.8855,W,2,08,00.9,21.7,M,-22.1,M,10.0,0272*6C
07/18/2019,21:15:08.635,$GPGGA,211508,4437.5846,N,12402.8855,W,2,08,00.9,21.7,M,-22.1,M,11.0,0272*62
07/18/2019,21:15:09.789,$GPGGA,211509,4437.5846,N,12402.8855,W,2,08,00.9,21.7,M,-22.1,M,12.0,0272*60
07/18/2019,21:15:10.591,$GPGGA,211510,4437.5846,N,12402.8855,W,2,08,00.9,21.7,M,-22.1,M,10.0,0272*6A
07/18/2019,21:15:11.606,$GPGGA,211511,4437.5846,N,12402.8855,W,2,08,00.9,21.7,M,-22.1,M,11.0,0272*6A
07/18/2019,21:15:12.661,$GPGGA,211512,4437.5846,N,12402.8855,W,2,08,00.9,21.7,M,-22.1,M,12.0,0272*6A
07/18/2019,21:15:13.790,$GPGGA,211513,4437.5846,N,12402.8855,W,2,08,00.9,21.7,M,-22.1,M,10.0,0272*69
07/18/2019,21:15:14.591,$GPGGA,211514,4437.5846,N,12402.8855,W,2,08,00.9,21.7,M,-22.1,M,11.0,0272*6F
07/18/2019,21:15:15.606,$GPGGA,211515,4437.5846,N,12402.8855,W,2,08,00.9,21.7,M,-22.1,M,12.0,0272*6D
07/18/2019,21:15:16.697,$GPGGA,211516,4437.5846,N,12402.8855,W,2,08,00.9,21.7,M,-22.1,M,10.0,0272*6C
07/18/2019,21:15:17.690,$GPGGA,211517,4437.5846,N,12402.8855,W,2,08,00.9,21.7,M,-22.1,M,11.0,0272*6C
07/18/2019,21:15:18.591,$GPGGA,211518,4437.5846,N,12402.8855,W,2,08,00.9,21.7,M,-22.1,M,12.0,0272*60
07/18/2019,21:15:19.717,$GPGGA,211519,4437.5846,N,12402.8855,W,2,08,00.9,21.7,M,-22.1,M,10.0,0272*63
07/18/2019,21:15:20.601,$GPGGA,211520,4437.5846,N,12402.8855,W,2,08,00.9,21.7,M,-22.1,M,11.0,0272*68
07/18/2019,21:15:21.729,$GPGGA,211521,4437.5846,N,12402.8855,W,2,08,00.9,21.7,M,-22.1,M,12.0,0272*6A
07/18/2019,21:15:22.640,$GPGGA,211522,4437.5846,N,12402.8855,W,2,08,00.9,21.7,M,-22.1,M,10.0,0272*6B
07/18/2019,21:15:23.666,$GPGGA,211523,4437.5846,N,12402.8855,W,2,08,00.9,21.7,M,-22.1,M,11.0,0272*6B
07/18/2019,21:15:24.646,$GPGGA,211524,4437.5846,N,12402.8855,W,2,08,00.9,21.7,M,-22.1,M,12.0,0272*6F
07/18/2019,21:15:25.728,$GPGGA,211525,4437.5846,N,12402.8855,W,2,08,00.9,21.7,M,-22.1,M,10.0,0272*6C
07/18/2019,21:15:26.688,$GPGGA,211526,4437.5846,N,12402.8855,W,2,08,00.9,21.7,M,-22.1,M,11.0,0272*6E
07/18/2019,21:15:27.706,$GPGGA,211527,4437.5846,N,12402.8855,W,2,08,00.9,21.7,M,-22.1,M,12.0,0272*6C
07/18/2019,21:15:28.636,$GPGGA,211528,4437.5846,N,12402.8855,W,2,08,00.9,21.7,M,-22.1,M,10.0,0272*61
07/18/2019,21:15:29.790,$GPGGA,211529,4437.5846,N,12402.8855,W,2,08,00.9,21.7,M,-22.1,M,11.0,0272*61
07/18/2019,21:15:30.592,$GPGGA,211530,4437.5846,N,12402.8855,W,2,08,00.9,21.7,M,-22.1,M,12.0,0272*6A
07/18/2019,21:15:31.606,$GPGGA,211531,4437.5846,N,12402.8855,W,2,08,00.9,21.7,M,-22.1,M,10.0,0272*69
07/18/2019,21:15:32.598,$GPGGA,211532,4437.5846,N,12402.8855,W,2,08,00.9,21.7,M,-22.1,M,11.0,0272*6B
07/18/2019,21:15:33.689,$GPGGA,211533,4437.5846,N,12402.8855,W,2,08,00.9,21.7,M,-22.1,M,12.0,0272*69
07/18/2019,21:15:34.591,$GPGGA,211534,4437.5846,N,12402.8855,W,2,08,00.9,21.7,M,-22.1,M,10.0,0272*6C
07/18/2019,21:15:35.706,$GPGGA,211535,4437.5846,N,12402.8855,W,2,08,00.9,21.7,M,-22.1,M,11.0,0272*6C
07/18/2019,21:15:36.635,$GPGGA,211536,4437.5846,N,12402.8855,W,2,08,00.9,21.7,M,-22.1,M,12.0,0272*6C
07/18/2019,21:15:37.690,$GPGGA,211537,4437.5846,N,12402.8855,W,2,08,00.9,21.7,M,-22.1,M,10.0,0272*6F
07/18/2019,21:15:38.684,$GPGGA,211538,4437.5846,N,12402.8855,W,2,08,00.9,21.7,M,-22.1,M,11.0,0272*61
07/18/2019,21:15:39.706,$GPGGA,211539,4437.5846,N,12402.8855,W,2,08,00.9,21.7,M,-22.1,M,09.0,0272*69
07/18/2019,21:15:40.646,$GPGGA,211540,4437.5846,N,12402.8855,W,2,08,00.9,21.7,M,-22.1,M,10.0,0272*6F
07/18/2019,21:15:41.739,$GPGGA,211541,4437.5846,N,12402.8856,W,2,08,00.9,21.7,M,-22.1,M,11.0,0272*6C
07/18/2019,21:15:42.640,$GPGGA,211542,4437.5846,N,12402.8856,W,2,08,00.9,21.7,M,-22.1,M,09.0,0272*66
07/18/2019,21:15:43.717,$GPGGA,211543,4437.5846,N,12402.8856,W,2,08,00.9,21.7,M,-22.1,M,10.0,0272*6F
07/18/2019,21:15:44.686,$GPGGA,211544,4437.5846,N,12402.8856,W,2,08,00.9,21.7,M,-22.1,M,11.0,0272*69
07/18/2019,21:15:45.729,$GPGGA,211545,4437.5846,N,12402.8856,W,2,08,00.9,21.7,M,-22.1,M,09.0,0272*61
07/18/2019,21:15:46.685,$GPGGA,211546,4437.5846,N,12402.8856,W,2,08,00.9,21.7,M,-22.1,M,10.0,0272*6A
07/18/2019,21:15:47.618,$GPGGA,211547,4437.5846,N,12402.8856,W,2,08,00.9,21.7,M,-22.1,M,11.0,0272*6A
07/18/2019,21:15:48.636,$GPGGA,211548,4437.5846,N,12402.8856,W,2,08,00.9,21.7,M,-22.1,M,09.0,0272*6C
07/18/2019,21:15:49.738,$GPGGA,211549,4437.5846,N,12402.8856,W,2,08,00.9,21.7,M,-22.1,M,10.0,0272*65
07/18/2019,21:15:50.640,$GPGGA,211550,4437.5846,N,12402.8856,W,2,08,00.9,21.7,M,-22.1,M,11.0,0272*6C
07/18/2019,21:15:51.657,$GPGGA,211551,4437.5846,N,12402.8855,W,2,08,00.9,21.7,M,-22.1,M,09.0,0272*67
07/18/2019,21:15:52.698,$GPGGA,211552,4437.5846,N,12402.8855,W,2,08,00.9,21.7,M,-22.1,M,10.0,0272*6C
07/18/2019,21:15:53.680,$GPGGA,211553,4437.5846,N,12402.8855,W,2,08,00.9,21.7,M,-22.1,M,11.0,0272*6C
07/18/2019,21:15:54.640,$GPGGA,211554,4437.5846,N,12402.8855,W,2,08,00.9,21.7,M,-22.1,M,09.0,0272*62
07/18/2019,21:15:55.667,$GPGGA,211555,4437.5846,N,12402.8856,W,2,08,00.9,21.7,M,-22.1,M,10.0,0272*68
07/18/2019,21:15:56.636,$GPGGA,211556,4437.5846,N,12402.8856,W,2,08,00.9,21.7,M,-22.1,M,11.0,0272*6A
07/18/2019,21:15:57.691,$GPGGA,211557,4437.5846,N,12402.8856,W,2,08,00.9,21.7,M,-22.1,M,09.0,0272*62
07/18/2019,21:15:58.685,$GPGGA,211558,4437.5846,N,12402.8855,W,2,08,00.9,21.7,M,-22.1,M,10.0,0272*66
07/18/2019,21:15:59.707,$GPGGA,211559,4437.5846,N,12402.8855,W,2,08,00.9,21.7,M,-22.1,M,08.0,0272*6E
07/18/2019,21:16:00.636,$GPGGA,211600,4437.5846,N,12402.8855,W,2,08,00.9,21.7,M,-22.1,M,09.0,0272*60
07/18/2019,21:16:01.679,$GPGGA,211601,4437.5846,N,12402.8856,W,2,08,00.9,21.7,M,-22.1,M,10.0,0272*6A
07/18/2019,21:16:02.593,$GPGGA,211602,4437.5846,N,12402.8855,W,2,08,00.9,21.7,M,-22.1,M,09.0,0272*62
07/18/2019,21:16:03.667,$GPGGA,211603,4437.5846,N,12402.8855,W,2,08,00.9,21.7,M,-22.1,M,10.0,0272*6B
07/18/2019,21:16:04.637,$GPGGA,211604,4437.5846,N,12402.8855,W,2,08,00.9,21.7,M,-22.1,M,08.0,0272*65
07/18/2019,21:16:05.792,$GPGGA,211605,4437.5846,N,12402.8855,W,2,08,00.9,21.7,M,-22.1,M,09.0,0272*65
07/18/2019,21:16:06.593,$GPGGA,211606,4437.5846,N,12402.8855,W,2,08,00.9,21.7,M,-22.1,M,07.0,0272*68
07/18/2019,21:16:07.618,$GPGGA,211607,4437.5846,N,12402.8855,W,2,08,00.9,21.7,M,-22.1,M,08.0,0272*66
07/18/2019,21:16:08.698,$GPGGA,211608,4437.5846,N,12402.8855,W,2,08,00.9,21.6,M,-22.1,M,09.0,0272*69
07/18/2019,21:16:09.681,$GPGGA,211609,4437.5846,N,12402.8855,W,2,08,00.9,21.7,M,-22.1,M,10.0,0272*61
07/18/2019,21:16:10.641,$GPGGA,211610,4437.5846,N,12402.8855,W,2,08,00.9,21.6,M,-22.1,M,11.0,0272*69
07/18/2019,21:16:11.662,$GPGGA,211611,4437.5846,N,12402.8855,W,2,08,00.9,21.6,M,-22.1,M,12.0,0272*6B
07/18/2019,21:16:12.647,$GPGGA,211612,4437.5846,N,12402.8855,W,2,08,00.9,21.6,M,-22.1,M,09.0,0272*62
07/18/2019,21:16:13.730,$GPGGA,211613,4437.5846,N,12402.8855,W,2,08,00.9,21.6,M,-22.1,M,10.0,0272*6B
07/18/2019,21:16:14.653,$GPGGA,211614,4437.5846,N,12402.8855,W,2,08,00.9,21.6,M,-22.1,M,11.0,0272*6D
07/18/2019,21:16:15.667,$GPGGA,211615,4437.5846,N,12402.8855,W,2,08,00.9,21.6,M,-22.1,M,09.0,0272*65
07/18/2019,21:16:16.637,$GPGGA,211616,4437.5846,N,12402.8855,W,2,08,00.9,21.6,M,-22.1,M,10.0,0272*6E
07/18/2019,21:16:17.692,$GPGGA,211617,4437.5846,N,12402.8855,W,2,08,00.9,21.6,M,-22.1,M,11.0,0272*6E
07/18/2019,21:16:18.686,$GPGGA,211618,4437.5846,N,12402.8855,W,2,08,00.9,21.6,M,-22.1,M,09.0,0272*68
07/18/2019,21:16:19.708,$GPGGA,211619,4437.5846,N,12402.8855,W,2,08,00.9,21.6,M,-22.1,M,10.0,0272*61
07/18/2019,21:16:20.649,$GPGGA,211620,4437.5846,N,12402.8855,W,2,08,00.9,21.6,M,-22.1,M,11.0,0272*6A
07/18/2019,21:16:21.739,$GPGGA,211621,4437.5846,N,12402.8855,W,2,08,00.9,21.6,M,-22.1,M,09.0,0272*62
07/18/2019,21:16:22.641,$GPGGA,211622,4437.5846,N,12402.8855,W,2,08,00.9,21.7,M,-22.1,M,10.0,0272*68
07/18/2019,21:16:23.657,$GPGGA,211623,4437.5846,N,12402.8855,W,2,08,00.9,21.7,M,-22.1,M,11.0,0272*68
07/18/2019,21:16:24.638,$GPGGA,211624,4437.5846,N,12402.8855,W,2,08,00.9,21.7,M,-22.1,M,09.0,0272*66
07/18/2019,21:16:25.696,$GPGGA,211625,4437.5846,N,12402.8855,W,2,08,00.9,21.7,M,-22.1,M,10.0,0272*6F
07/18/2019,21:16:26.594,$GPGGA,211626,4437.5846,N,12402.8855,W,2,08,00.9,21.7,M,-22.1,M,11.0,0272*6D
07/18/2019,21:16:27.709,$GPGGA,211627,4437.5846,N,12402.8855,W,2,08,00.9,21.7,M,-22.1,M,09.0,0272*65
07/18/2019,21:16:28.648,$GPGGA,211628,4437.5846,N,12402.8855,W,2,08,00.9,21.7,M,-22.1,M,10.0,0272*62
07/18/2019,21:16:29.731,$GPGGA,211629,4437.5846,N,12402.8855,W,2,08,00.9,21.7,M,-22.1,M,11.0,0272*62
07/18/2019,21:16:30.642,$GPGGA,211630,4437.5846,N,12402.8855,W,2,08,00.9,21.7,M,-22.1,M,09.0,0272*63
07/18/2019,21:16:31.668,$GPGGA,211631,4437.5846,N,12402.8855,W,2,08,00.9,21.7,M,-22.1,M,10.0,0272*6A
07/18/2019,21:16:32.660,$GPGGA,211632,4437.5846,N,12402.8855,W,2,08,00.9,21.7,M,-22.1,M,11.0,0272*68
07/18/2019,21:16:33.741,$GPGGA,211633,4437.5846,N,12402.8855,W,2,08,00.9,21.7,M,-22.1,M,12.0,0272*6A
07/18/2019,21:16:34.642,$GPGGA,211634,4437.5846,N,12402.8855,W,2,08,00.9,21.7,M,-22.1,M,13.0,0272*6C
07/18/2019,21:16:35.658,$GPGGA,211635,4437.5846,N,12402.8855,W,2,08,00.9,21.7,M,-22.1,M,11.0,0272*6F
07/18/2019,21:16:36.696,$GPGGA,211636,4437.5846,N,12402.8855,W,2,08,00.9,21.7,M,-22.1,M,12.0,0272*6F
07/18/2019,21:16:37.782,$GPGGA,211637,4437.5846,N,12402.8855,W,2,08,00.9,21.7,M,-22.1,M,13.0,0272*6F
07/18/2019,21:16:38.643,$GPGGA,211638,4437.5846,N,12402.8855,W,2,08,00.9,21.7,M,-22.1,M,14.0,0272*67
07/18/2019,21:16:39.622,$GPGGA,211639,4437.5846,N,12402.8855,W,2,08,00.9,21.7,M,-22.1,M,15.0,0272*67
07/18/2019,21:16:40.594,$GPGGA,211640,4437.5846,N,12402.8855,W,2,08,00.9,21.7,M,-22.1,M,16.0,0272*6A
07/18/2019,21:16:41.782,$GPGGA,211641,4437.5846,N,12402.8855,W,2,08,00.9,21.7,M,-22.1,M,09.0,0272*65
07/18/2019,21:16:42.594,$GPGGA,211642,4437.5846,N,12402.8855,W,2,08,00.9,21.7,M,-22.1,M,10.0,0272*6E
07/18/2019,21:16:43.709,$GPGGA,211643,4437.5846,N,12402.8855,W,2,08,00.9,21.7,M,-22.1,M,11.0,0272*6E
07/18/2019,21:16:44.648,$GPGGA,211644,4437.5846,N,12402.8855,W,2,08,00.9,21.7,M,-22.1,M,09.0,0272*60
07/18/2019,21:16:45.742,$GPGGA,211645,4437.5846,N,12402.8855,W,2,08,00.9,21.7,M,-22.1,M,10.0,0272*69
07/18/2019,21:16:46.643,$GPGGA,211646,4437.5846,N,12402.8855,W,2,08,00.9,21.7,M,-22.1,M,08.0,0272*63
07/18/2019,21:16:47.661,$GPGGA,211647,4437.5846,N,12402.8855,W,2,08,00.9,21.7,M,-22.1,M,09.0,0272*63
07/18/2019,21:16:48.648,$GPGGA,211648,4437.5846,N,12402.8855,W,2,08,00.9,21.7,M,-22.1,M,10.0,0272*64
07/18/2019,21:16:49.732,$GPGGA,211649,4437.5846,N,12402.8855,W,2,08,00.9,21.7,M,-22.1,M,09.0,0272*6D
07/18/2019,21:16:50.643,$GPGGA,211650,4437.5846,N,12402.8855,W,2,08,00.9,21.7,M,-22.1,M,10.0,0272*6D
07/18/2019,21:16:51.669,$GPGGA,211651,4437.5846,N,12402.8855,W,2,08,00.9,21.7,M,-22.1,M,11.0,0272*6D
07/18/2019,21:16:52.648,$GPGGA,211652,4437.5846,N,12402.8855,W,2,08,00.9,21.7,M,-22.1,M,10.0,0272*6F
07/18/2019,21:16:53.735,$GPGGA,211653,4437.5846,N,12402.8855,W,2,08,00.9,21.7,M,-22.1,M,11.0,0272*6F
07/18/2019,21:16:54.642,$GPGGA,211654,4437.5846,N,12402.8855,W,2,08,00.9,21.7,M,-22.1,M,12.0,0272*6B
07/18/2019,21:16:55.658,$GPGGA,211655,4437.5846,N,12402.8855,W,2,08,00.9,21.7,M,-22.1,M,10.0,0272*68
07/18/2019,21:16:56.592,$GPGGA,211656,4437.5846,N,12402.8855,W,2,08,00.9,21.7,M,-22.1,M,11.0,0272*6A
07/18/2019,21:16:57.782,$GPGGA,211657,4437.5846,N,12402.8855,W,2,08,00.9,21.7,M,-22.1,M,12.0,0272*68
07/18/2019,21:16:58.689,$GPGGA,211658,4437.5846,N,12402.8855,W,2,08,00.9,21.7,M,-22.1,M,10.0,0272*65
07/18/2019,21:16:59.670,$GPGGA,211659,4437.5846,N,12402.8855,W,2,08,00.9,21.6,M,-22.1,M,11.0,0272*64
07/18/2019,21:17:00.640,$GPGGA,211700,4437.5846,N,12402.8855,W,2,08,00.9,21.7,M,-22.1,M,12.0,0272*6B
07/18/2019,21:17:01.794,$GPGGA,211701,4437.5846,N,12402.8855,W,2,08,00.9,21.6,M,-22.1,M,10.0,0272*69
07/18/2019,21:17:02.595,$GPGGA,211702,4437.5846,N,12402.8855,W,2,08,00.9,21.6,M,-22.1,M,11.0,0272*6B
07/18/2019,21:17:03.610,$GPGGA,211703,4437.5846,N,12402.8855,W,2,08,00.9,21.6,M,-22.1,M,12.0,0272*69
07/18/2019,21:17:04.650,$GPGGA,211704,4437.5846,N,12402.8855,W,2,08,00.9,21.6,M,-22.1,M,10.0,0272*6C
07/18/2019,21:17:05.732,$GPGGA,211705,4437.5846,N,12402.8855,W,2,08,00.9,21.6,M,-22.1,M,11.0,0272*6C
07/18/2019,21:17:06.595,$GPGGA,211706,4437.5846,N,12402.8855,W,2,08,00.9,21.6,M,-22.1,M,12.0,0272*6C
07/18/2019,21:17:07.710,$GPGGA,211707,4437.5846,N,12402.8855,W,2,08,00.9,21.6,M,-22.1,M,10.0,0272*6F
07/18/2019,21:17:08.603,$GPGGA,211708,4437.5846,N,12402.8855,W,2,08,00.9,21.6,M,-22.1,M,11.0,0272*61
07/18/2019,21:17:09.683,$GPGGA,211709,4437.5846,N,12402.8855,W,2,08,00.9,21.6,M,-22.1,M,12.0,0272*63
07/18/2019,21:17:10.699,$GPGGA,211710,4437.5846,N,12402.8855,W,2,08,00.9,21.6,M,-22.1,M,10.0,0272*69
07/18/2019,21:17:11.616,$GPGGA,211711,4437.5846,N,12402.8855,W,2,08,00.9,21.6,M,-22.1,M,11.0,0272*69
07/18/2019,21:17:12.651,$GPGGA,211712,4437.5846,N,12402.8855,W,2,08,00.9,21.6,M,-22.1,M,12.0,0272*69
07/18/2019,21:17:13.739,$GPGGA,211713,4437.5846,N,12402.8855,W,2,08,00.9,21.6,M,-22.1,M,10.0,0272*6A
07/18/2019,21:17:14.644,$GPGGA,211714,4437.5846,N,12402.8855,W,2,08,00.9,21.6,M,-22.1,M,11.0,0272*6C
07/18/2019,21:17:15.660,$GPGGA,211715,4437.5846,N,12402.8855,W,2,08,00.9,21.6,M,-22.1,M,12.0,0272*6E
07/18/2019,21:17:16.616,$GPGGA,211716,4437.5847,N,12402.8855,W,2,08,00.9,21.6,M,-22.1,M,10.0,0272*6E
07/18/2019,21:17:17.783,$GPGGA,211717,4437.5847,N,12402.8855,W,2,08,00.9,21.6,M,-22.1,M,11.0,0272*6E
07/18/2019,21:17:18.595,$GPGGA,211718,4437.5847,N,12402.8855,W,2,08,00.9,21.6,M,-22.1,M,12.0,0272*62
07/18/2019,21:17:19.721,$GPGGA,211719,4437.5847,N,12402.8855,W,2,08,00.9,21.6,M,-22.1,M,10.0,0272*61
07/18/2019,21:17:20.594,$GPGGA,211720,4437.5846,N,12402.8855,W,2,08,00.9,21.6,M,-22.1,M,11.0,0272*6B
07/18/2019,21:17:21.734,$GPGGA,211721,4437.5846,N,12402.8855,W,2,08,00.9,21.6,M,-22.1,M,12.0,0272*69
07/18/2019,21:17:22.655,$GPGGA,211722,4437.5846,N,12402.8855,W,2,08,00.9,21.6,M,-22.1,M,10.0,0272*68
07/18/2019,21:17:23.660,$GPGGA,211723,4437.5846,N,12402.8855,W,2,08,00.9,21.6,M,-22.1,M,11.0,0272*68
07/18/2019,21:17:24.640,$GPGGA,211724,4437.5846,N,12402.8855,W,2,08,00.9,21.6,M,-22.1,M,12.0,0272*6C
07/18/2019,21:17:25.743,$GPGGA,211725,4437.5846,N,12402.8855,W,2,08,00.9,21.6,M,-22.1,M,10.0,0272*6F
07/18/2019,21:17:26.645,$GPGGA,211726,4437.5846,N,12402.8855,W,2,08,00.9,21.6,M,-22.1,M,11.0,0272*6D
07/18/2019,21:17:27.668,$GPGGA,211727,4437.5846,N,12402.8855,W,2,08,00.9,21.6,M,-22.1,M,12.0,0272*6F
07/18/2019,21:17:28.612,$GPGGA,211728,4437.5847,N,12402.8855,W,2,08,00.9,21.6,M,-22.1,M,10.0,0272*63
07/18/2019,21:17:29.784,$GPGGA,211729,4437.5847,N,12402.8855,W,2,08,00.9,21.6,M,-22.1,M,11.0,0272*63
07/18/2019,21:17:30.644,$GPGGA,211730,4437.5847,N,12402.8855,W,2,08,00.9,21.6,M,-22.1,M,12.0,0272*68
07/18/2019,21:17:31.670,$GPGGA,211731,4437.5846,N,12402.8855,W,2,08,00.9,21.6,M,-22.1,M,10.0,0272*6A
07/18/2019,21:17:32.662,$GPGGA,211732,4437.5846,N,12402.8855,W,2,08,00.9,21.6,M,-22.1,M,11.0,0272*68
07/18/2019,21:17:33.734,$GPGGA,211733,4437.5846,N,12402.8855,W,2,08,00.9,21.6,M,-22.1,M,12.0,0272*6A
07/18/2019,21:17:34.690,$GPGGA,211734,4437.5846,N,12402.8855,W,2,08,00.9,21.6,M,-22.1,M,10.0,0272*6F
