08/05/2019,16:12:32.671,$GPGGA,161232,4437.5845,N,12402.8843,W,2,09,01.3,22.2,M,-22.1,M,11.0,0272*60
08/05/2019,16:12:33.757,$GPGGA,161233,4437.5845,N,12402.8843,W,2,09,01.3,22.2,M,-22.1,M,12.0,0272*62
08/05/2019,16:12:34.626,$GPGGA,161234,4437.5845,N,12402.8843,W,2,09,01.3,22.2,M,-22.1,M,10.0,0272*67
08/05/2019,16:12:35.685,$GPGGA,161235,4437.5845,N,12402.8843,W,2,09,01.3,22.2,M,-22.1,M,11.0,0272*67
08/05/2019,16:12:36.665,$GPGGA,161236,4437.5845,N,12402.8843,W,2,09,01.3,22.2,M,-22.1,M,12.0,0272*67
08/05/2019,16:12:37.758,$GPGGA,161237,4437.5846,N,12402.8843,W,2,09,01.3,22.3,M,-22.1,M,10.0,0272*66
08/05/2019,16:12:38.710,$GPGGA,161238,4437.5846,N,12402.8843,W,2,09,01.3,22.4,M,-22.1,M,11.0,0272*6F
08/05/2019,16:12:39.696,$GPGGA,161239,4437.5846,N,12402.8843,W,2,09,01.3,22.4,M,-22.1,M,12.0,0272*6D
08/05/2019,16:12:40.665,$GPGGA,161240,4437.5846,N,12402.8843,W,2,09,01.3,22.5,M,-22.1,M,10.0,0272*60
08/05/2019,16:12:41.758,$GPGGA,161241,4437.5846,N,12402.8844,W,2,09,01.3,22.5,M,-22.1,M,11.0,0272*67
08/05/2019,16:12:42.719,$GPGGA,161242,4437.5846,N,12402.8844,W,2,09,01.3,22.6,M,-22.1,M,12.0,0272*64
08/05/2019,16:12:43.645,$GPGGA,161243,4437.5846,N,12402.8844,W,2,09,01.3,22.6,M,-22.1,M,10.0,0272*67
08/05/2019,16:12:44.725,$GPGGA,161244,4437.5846,N,12402.8844,W,2,09,01.3,22.7,M,-22.1,M,11.0,0272*60
08/05/2019,16:12:45.818,$GPGGA,161245,4437.5846,N,12402.8844,W,2,09,01.3,22.7,M,-22.1,M,12.0,0272*62
08/05/2019,16:12:46.620,$GPGGA,161246,4437.5846,N,12402.8844,W,2,09,01.3,22.8,M,-22.1,M,10.0,0272*6C
08/05/2019,16:12:47.643,$GPGGA,161247,4437.5846,N,12402.8844,W,2,09,01.3,22.8,M,-22.1,M,11.0,0272*6C
08/05/2019,16:12:48.677,$GPGGA,161248,4437.5846,N,12402.8844,W,2,09,01.3,22.7,M,-22.1,M,12.0,0272*6F
08/05/2019,16:12:49.709,$GPGGA,161249,4437.5846,N,12402.8844,W,2,09,01.3,22.7,M,-22.1,M,10.0,0272*6C
08/05/2019,16:12:50.679,$GPGGA,161250,4437.5846,N,12402.8844,W,2,09,01.3,22.7,M,-22.1,M,11.0,0272*65
08/05/2019,16:12:51.636,$GPGGA,161251,4437.5846,N,12402.8844,W,2,09,01.3,22.7,M,-22.1,M,12.0,0272*67
08/05/2019,16:12:52.684,$GPGGA,161252,4437.5846,N,12402.8844,W,2,09,01.3,22.8,M,-22.1,M,10.0,0272*69
08/05/2019,16:12:53.709,$GPGGA,161253,4437.5846,N,12402.8844,W,2,09,01.3,22.8,M,-22.1,M,11.0,0272*69
08/05/2019,16:12:54.674,$GPGGA,161254,4437.5846,N,12402.8844,W,2,09,01.3,22.8,M,-22.1,M,12.0,0272*6D
08/05/2019,16:12:55.735,$GPGGA,161255,4437.5846,N,12402.8844,W,2,09,01.3,22.8,M,-22.1,M,10.0,0272*6E
08/05/2019,16:12:56.666,$GPGGA,161256,4437.5846,N,12402.8844,W,2,09,01.3,22.7,M,-22.1,M,11.0,0272*63
08/05/2019,16:12:57.755,$GPGGA,161257,4437.5846,N,12402.8844,W,2,09,01.3,22.7,M,-22.1,M,12.0,0272*61
08/05/2019,16:12:58.671,$GPGGA,161258,4437.5846,N,12402.8844,W,2,09,01.3,22.7,M,-22.1,M,10.0,0272*6C
08/05/2019,16:12:59.687,$GPGGA,161259,4437.5846,N,12402.8844,W,2,09,01.3,22.7,M,-22.1,M,11.0,0272*6C
08/05/2019,16:13:00.616,$GPGGA,161300,4437.5846,N,12402.8844,W,2,09,01.3,22.7,M,-22.1,M,12.0,0272*62
08/05/2019,16:13:01.770,$GPGGA,161301,4437.5846,N,12402.8844,W,2,09,01.3,22.7,M,-22.1,M,10.0,0272*61
08/05/2019,16:13:02.672,$GPGGA,161302,4437.5846,N,12402.8844,W,2,09,01.3,22.7,M,-22.1,M,11.0,0272*63
08/05/2019,16:13:03.686,$GPGGA,161303,4437.5846,N,12402.8844,W,2,09,01.3,22.8,M,-22.1,M,12.0,0272*6E
08/05/2019,16:13:04.718,$GPGGA,161304,4437.5846,N,12402.8844,W,2,09,01.3,22.8,M,-22.1,M,10.0,0272*6B
08/05/2019,16:13:05.770,$GPGGA,161305,4437.5846,N,12402.8844,W,2,09,01.3,22.9,M,-22.1,M,11.0,0272*6A
08/05/2019,16:13:06.670,$GPGGA,161306,4437.5846,N,12402.8844,W,2,09,01.3,22.9,M,-22.1,M,12.0,0272*6A
08/05/2019,16:13:07.686,$GPGGA,161307,4437.5846,N,12402.8844,W,2,09,01.3,23.0,M,-22.1,M,10.0,0272*61
08/05/2019,16:13:08.716,$GPGGA,161308,4437.5846,N,12402.8844,W,2,09,01.3,23.0,M,-22.1,M,11.0,0272*6F
08/05/2019,16:13:09.771,$GPGGA,161309,4437.5846,N,12402.8844,W,2,09,01.3,23.0,M,-22.1,M,12.0,0272*6D
08/05/2019,16:13:10.671,$GPGGA,161310,4437.5846,N,12402.8844,W,2,09,01.3,23.1,M,-22.1,M,10.0,0272*66
08/05/2019,16:13:11.687,$GPGGA,161311,4437.5847,N,12402.8844,W,2,09,01.3,23.1,M,-22.1,M,11.0,0272*67
08/05/2019,16:13:12.729,$GPGGA,161312,4437.5847,N,12402.8844,W,2,09,01.3,23.1,M,-22.1,M,12.0,0272*67
08/05/2019,16:13:13.709,$GPGGA,161313,4437.5847,N,12402.8844,W,2,09,01.3,23.1,M,-22.1,M,10.0,0272*64
08/05/2019,16:13:14.622,$GPGGA,161314,4437.5847,N,12402.8844,W,2,09,01.3,23.2,M,-22.1,M,11.0,0272*61
08/05/2019,16:13:15.686,$GPGGA,161315,4437.5847,N,12402.8844,W,2,09,01.3,23.2,M,-22.1,M,12.0,0272*63
08/05/2019,16:13:16.716,$GPGGA,161316,4437.5847,N,12402.8844,W,2,09,01.3,23.2,M,-22.1,M,10.0,0272*62
08/05/2019,16:13:17.768,$GPGGA,161317,4437.5847,N,12402.8844,W,2,09,01.3,23.2,M,-22.1,M,11.0,0272*62
08/05/2019,16:13:18.719,$GPGGA,161318,4437.5847,N,12402.8844,W,2,09,01.3,23.2,M,-22.1,M,12.0,0272*6E
08/05/2019,16:13:19.646,$GPGGA,161319,4437.5847,N,12402.8844,W,2,09,01.3,23.2,M,-22.1,M,10.0,0272*6D
08/05/2019,16:13:20.628,$GPGGA,161320,4437.5847,N,12402.8844,W,2,09,01.3,23.2,M,-22.1,M,11.0,0272*66
08/05/2019,16:13:21.730,$GPGGA,161321,4437.5847,N,12402.8844,W,2,09,01.3,23.2,M,-22.1,M,12.0,0272*64
08/05/2019,16:13:22.673,$GPGGA,161322,4437.5847,N,12402.8844,W,2,09,01.3,23.2,M,-22.1,M,10.0,0272*65
08/05/2019,16:13:23.687,$GPGGA,161323,4437.5847,N,12402.8844,W,2,09,01.3,23.2,M,-22.1,M,11.0,0272*65
08/05/2019,16:13:24.717,$GPGGA,161324,4437.5847,N,12402.8844,W,2,09,01.3,23.2,M,-22.1,M,12.0,0272*61
08/05/2019,16:13:25.820,$GPGGA,161325,4437.5847,N,12402.8844,W,2,09,01.3,23.2,M,-22.1,M,10.0,0272*62
08/05/2019,16:13:26.711,$GPGGA,161326,4437.5847,N,12402.8844,W,2,09,01.3,23.2,M,-22.1,M,11.0,0272*60
08/05/2019,16:13:27.695,$GPGGA,161327,4437.5847,N,12402.8844,W,2,09,01.3,23.2,M,-22.1,M,12.0,0272*62
08/05/2019,16:13:28.667,$GPGGA,161328,4437.5847,N,12402.8844,W,2,09,01.3,23.1,M,-22.1,M,10.0,0272*6C
08/05/2019,16:13:29.721,$GPGGA,161329,4437.5847,N,12402.8844,W,2,09,01.3,23.1,M,-22.1,M,11.0,0272*6C
08/05/2019,16:13:30.721,$GPGGA,161330,4437.5847,N,12402.8844,W,2,09,01.3,23.1,M,-22.1,M,12.0,0272*67
08/05/2019,16:13:31.688,$GPGGA,161331,4437.5847,N,12402.8844,W,2,09,01.3,23.1,M,-22.1,M,10.0,0272*64
08/05/2019,16:13:32.646,$GPGGA,161332,4437.5847,N,12402.8844,W,2,09,01.3,23.1,M,-22.1,M,11.0,0272*66
08/05/2019,16:13:33.710,$GPGGA,161333,4437.5847,N,12402.8844,W,2,09,01.3,23.0,M,-22.1,M,12.0,0272*65
08/05/2019,16:13:34.712,$GPGGA,161334,4437.5847,N,12402.8844,W,2,09,01.3,23.0,M,-22.1,M,10.0,0272*60
08/05/2019,16:13:35.688,$GPGGA,161335,4437.5847,N,12402.8844,W,2,09,01.3,23.0,M,-22.1,M,11.0,0272*60
08/05/2019,16:13:36.617,$GPGGA,161336,4437.5847,N,12402.8844,W,2,09,01.3,23.0,M,-22.1,M,12.0,0272*60
08/05/2019,16:13:37.770,$GPGGA,161337,4437.5847,N,12402.8844,W,2,09,01.3,23.0,M,-22.1,M,10.0,0272*63
08/05/2019,16:13:38.672,$GPGGA,161338,4437.5847,N,12402.8844,W,2,09,01.3,22.9,M,-22.1,M,11.0,0272*65
08/05/2019,16:13:39.687,$GPGGA,161339,4437.5847,N,12402.8845,W,2,09,01.3,22.9,M,-22.1,M,12.0,0272*66
08/05/2019,16:13:40.617,$GPGGA,161340,4437.5847,N,12402.8845,W,2,09,01.3,22.9,M,-22.1,M,10.0,0272*6A
08/05/2019,16:13:41.771,$GPGGA,161341,4437.5847,N,12402.8845,W,2,09,01.3,22.9,M,-22.1,M,11.0,0272*6A
08/05/2019,16:13:42.673,$GPGGA,161342,4437.5847,N,12402.8845,W,2,09,01.3,22.9,M,-22.1,M,12.0,0272*6A
08/05/2019,16:13:43.699,$GPGGA,161343,4437.5847,N,12402.8845,W,2,09,01.3,22.9,M,-22.1,M,10.0,0272*69
08/05/2019,16:13:44.680,$GPGGA,161344,4437.5847,N,12402.8845,W,2,09,01.3,22.9,M,-22.1,M,11.0,0272*6F
08/05/2019,16:13:45.761,$GPGGA,161345,4437.5847,N,12402.8845,W,2,09,01.3,22.9,M,-22.1,M,12.0,0272*6D
08/05/2019,16:13:46.672,$GPGGA,161346,4437.5847,N,12402.8845,W,2,09,01.3,22.9,M,-22.1,M,10.0,0272*6C
08/05/2019,16:13:47.699,$GPGGA,161347,4437.5847,N,12402.8845,W,2,09,01.3,22.9,M,-22.1,M,11.0,0272*6C
08/05/2019,16:13:48.668,$GPGGA,161348,4437.5847,N,12402.8845,W,2,09,01.3,22.9,M,-22.1,M,12.0,0272*60
08/05/2019,16:13:49.761,$GPGGA,161349,4437.5847,N,12402.8845,W,2,09,01.3,22.9,M,-22.1,M,10.0,0272*63
08/05/2019,16:13:50.623,$GPGGA,161350,4437.5847,N,12402.8845,W,2,09,01.3,22.9,M,-22.1,M,11.0,0272*6A
08/05/2019,16:13:51.644,$GPGGA,161351,4437.5847,N,12402.8845,W,2,09,01.3,22.9,M,-22.1,M,12.0,0272*68
08/05/2019,16:13:52.674,$GPGGA,161352,4437.5847,N,12402.8845,W,2,09,01.3,23.0,M,-22.1,M,10.0,0272*61
08/05/2019,16:13:53.811,$GPGGA,161353,4437.5847,N,12402.8845,W,2,09,01.3,23.0,M,-22.1,M,11.0,0272*61
08/05/2019,16:13:54.673,$GPGGA,161354,4437.5847,N,12402.8845,W,2,09,01.3,23.0,M,-22.1,M,12.0,0272*65
08/05/2019,16:13:55.700,$GPGGA,161355,4437.5847,N,12402.8845,W,2,09,01.3,23.1,M,-22.1,M,10.0,0272*67
08/05/2019,16:13:56.668,$GPGGA,161356,4437.5847,N,12402.8845,W,2,09,01.3,23.1,M,-22.1,M,11.0,0272*65
08/05/2019,16:13:57.770,$GPGGA,161357,4437.5847,N,12402.8845,W,2,09,01.3,23.1,M,-22.1,M,12.0,0272*67
08/05/2019,16:13:58.673,$GPGGA,161358,4437.5847,N,12402.8845,W,2,09,01.3,23.2,M,-22.1,M,10.0,0272*69
08/05/2019,16:13:59.688,$GPGGA,161359,4437.5847,N,12402.8845,W,2,09,01.3,23.2,M,-22.1,M,11.0,0272*69
08/05/2019,16:14:00.729,$GPGGA,161400,4437.5848,N,12402.8845,W,2,09,01.3,23.2,M,-22.1,M,12.0,0272*6E
08/05/2019,16:14:01.811,$GPGGA,161401,4437.5848,N,12402.8845,W,2,09,01.3,23.2,M,-22.1,M,10.0,0272*6D
08/05/2019,16:14:02.674,$GPGGA,161402,4437.5848,N,12402.8845,W,2,09,01.3,23.2,M,-22.1,M,11.0,0272*6F
08/05/2019,16:14:03.688,$GPGGA,161403,4437.5848,N,12402.8845,W,2,09,01.3,23.2,M,-22.1,M,12.0,0272*6D
08/05/2019,16:14:04.729,$GPGGA,161404,4437.5848,N,12402.8845,W,2,09,01.3,23.2,M,-22.1,M,10.0,0272*68
08/05/2019,16:14:05.822,$GPGGA,161405,4437.5848,N,12402.8845,W,2,09,01.3,23.1,M,-22.1,M,11.0,0272*6B
08/05/2019,16:14:06.623,$GPGGA,161406,4437.5848,N,12402.8845,W,2,09,01.3,23.1,M,-22.1,M,12.0,0272*6B
08/05/2019,16:14:07.656,$GPGGA,161407,4437.5848,N,12402.8846,W,2,09,01.3,23.0,M,-22.1,M,10.0,0272*6A
08/05/2019,16:14:08.619,$GPGGA,161408,4437.5848,N,12402.8846,W,2,09,01.3,23.0,M,-22.1,M,11.0,0272*64
08/05/2019,16:14:09.762,$GPGGA,161409,4437.5848,N,12402.8846,W,2,09,01.3,23.0,M,-22.1,M,12.0,0272*66
08/05/2019,16:14:10.673,$GPGGA,161410,4437.5848,N,12402.8846,W,2,09,01.3,22.9,M,-22.1,M,10.0,0272*64
08/05/2019,16:14:11.689,$GPGGA,161411,4437.5848,N,12402.8846,W,2,09,01.3,22.9,M,-22.1,M,11.0,0272*64
08/05/2019,16:14:12.646,$GPGGA,161412,4437.5848,N,12402.8846,W,2,09,01.3,22.8,M,-22.1,M,12.0,0272*65
08/05/2019,16:14:13.812,$GPGGA,161413,4437.5848,N,12402.8846,W,2,09,01.3,22.8,M,-22.1,M,10.0,0272*66
08/05/2019,16:14:14.673,$GPGGA,161414,4437.5848,N,12402.8846,W,2,09,01.3,22.7,M,-22.1,M,11.0,0272*6F
08/05/2019,16:14:15.700,$GPGGA,161415,4437.5848,N,12402.8846,W,2,09,01.3,22.7,M,-22.1,M,12.0,0272*6D
08/05/2019,16:14:16.670,$GPGGA,161416,4437.5848,N,12402.8846,W,2,09,01.3,22.7,M,-22.1,M,10.0,0272*6C
08/05/2019,16:14:17.813,$GPGGA,161417,4437.5848,N,12402.8846,W,2,09,01.3,22.7,M,-22.1,M,11.0,0272*6C
08/05/2019,16:14:18.683,$GPGGA,161418,4437.5848,N,12402.8846,W,2,09,01.3,22.6,M,-22.1,M,12.0,0272*61
08/05/2019,16:14:19.701,$GPGGA,161419,4437.5848,N,12402.8846,W,2,09,01.3,22.6,M,-22.1,M,10.0,0272*62
08/05/2019,16:14:20.669,$GPGGA,161420,4437.5848,N,12402.8846,W,2,09,01.3,22.6,M,-22.1,M,11.0,0272*69
08/05/2019,16:14:21.822,$GPGGA,161421,4437.5848,N,12402.8846,W,2,09,01.3,22.6,M,-22.1,M,12.0,0272*6B
08/05/2019,16:14:22.723,$GPGGA,161422,4437.5848,N,12402.8847,W,2,09,01.3,22.5,M,-22.1,M,10.0,0272*68
08/05/2019,16:14:23.749,$GPGGA,161423,4437.5848,N,12402.8847,W,2,09,01.3,22.5,M,-22.1,M,11.0,0272*68
08/05/2019,16:14:24.719,$GPGGA,161424,4437.5848,N,12402.8847,W,2,09,01.3,22.5,M,-22.1,M,12.0,0272*6C
08/05/2019,16:14:25.749,$GPGGA,161425,4437.5848,N,12402.8847,W,2,09,01.3,22.5,M,-22.1,M,10.0,0272*6F
08/05/2019,16:14:26.685,$GPGGA,161426,4437.5848,N,12402.8847,W,2,09,01.3,22.5,M,-22.1,M,11.0,0272*6D
08/05/2019,16:14:27.698,$GPGGA,161427,4437.5848,N,12402.8847,W,2,09,01.3,22.5,M,-22.1,M,12.0,0272*6F
08/05/2019,16:14:28.682,$GPGGA,161428,4437.5848,N,12402.8847,W,2,09,01.3,22.5,M,-22.1,M,10.0,0272*62
08/05/2019,16:14:29.763,$GPGGA,161429,4437.5848,N,12402.8847,W,2,09,01.3,22.5,M,-22.1,M,11.0,0272*62
08/05/2019,16:14:30.723,$GPGGA,161430,4437.5848,N,12402.8846,W,2,09,01.3,22.5,M,-22.1,M,12.0,0272*68
08/05/2019,16:14:31.650,$GPGGA,161431,4437.5848,N,12402.8846,W,2,09,01.3,22.6,M,-22.1,M,13.0,0272*6B
08/05/2019,16:14:32.631,$GPGGA,161432,4437.5848,N,12402.8846,W,2,09,01.3,22.7,M,-22.1,M,14.0,0272*6E
08/05/2019,16:14:33.813,$GPGGA,161433,4437.5848,N,12402.8846,W,2,09,01.3,22.7,M,-22.1,M,12.0,0272*69
08/05/2019,16:14:34.624,$GPGGA,161434,4437.5848,N,12402.8846,W,2,09,01.3,22.7,M,-22.1,M,13.0,0272*6F
08/05/2019,16:14:35.642,$GPGGA,161435,4437.5848,N,12402.8846,W,2,09,01.3,22.7,M,-22.1,M,14.0,0272*69
08/05/2019,16:14:36.682,$GPGGA,161436,4437.5848,N,12402.8846,W,2,09,01.3,22.7,M,-22.1,M,12.0,0272*6C
08/05/2019,16:14:37.763,$GPGGA,161437,4437.5848,N,12402.8846,W,2,09,01.3,22.7,M,-22.1,M,13.0,0272*6C
08/05/2019,16:14:38.642,$GPGGA,161438,4437.5848,N,12402.8846,W,2,09,01.3,22.6,M,-22.1,M,14.0,0272*65
08/05/2019,16:14:39.751,$GPGGA,161439,4437.5848,N,12402.8847,W,2,09,01.3,22.6,M,-22.1,M,10.0,0272*61
08/05/2019,16:14:40.620,$GPGGA,161440,4437.5848,N,12402.8847,W,2,09,01.3,22.6,M,-22.1,M,11.0,0272*6E
08/05/2019,16:14:41.774,$GPGGA,161441,4437.5848,N,12402.8847,W,2,09,01.3,22.6,M,-22.1,M,12.0,0272*6C
08/05/2019,16:14:42.676,$GPGGA,161442,4437.5849,N,12402.8847,W,2,09,01.3,22.5,M,-22.1,M,10.0,0272*6F
08/05/2019,16:14:43.701,$GPGGA,161443,4437.5849,N,12402.8847,W,2,09,01.3,22.4,M,-22.1,M,11.0,0272*6E
08/05/2019,16:14:44.671,$GPGGA,161444,4437.5849,N,12402.8848,W,2,09,01.3,22.2,M,-22.1,M,12.0,0272*63
08/05/2019,16:14:45.785,$GPGGA,161445,4437.5849,N,12402.8848,W,2,09,01.3,22.1,M,-22.1,M,13.0,0272*60
08/05/2019,16:14:46.715,$GPGGA,161446,4437.5849,N,12402.8848,W,2,09,01.3,22.0,M,-22.1,M,11.0,0272*60
08/05/2019,16:14:47.701,$GPGGA,161447,4437.5849,N,12402.8848,W,2,09,01.3,21.9,M,-22.1,M,12.0,0272*68
08/05/2019,16:14:48.670,$GPGGA,161448,4437.5849,N,12402.8849,W,2,09,01.3,21.9,M,-22.1,M,13.0,0272*67
08/05/2019,16:14:49.764,$GPGGA,161449,4437.5849,N,12402.8849,W,2,09,01.3,21.8,M,-22.1,M,11.0,0272*65
08/05/2019,16:14:50.730,$GPGGA,161450,4437.5849,N,12402.8849,W,2,09,01.3,21.7,M,-22.1,M,12.0,0272*61
08/05/2019,16:14:51.640,$GPGGA,161451,4437.5849,N,12402.8849,W,2,09,01.3,21.7,M,-22.1,M,09.0,0272*6A
08/05/2019,16:14:52.632,$GPGGA,161452,4437.5849,N,12402.8849,W,2,09,01.3,21.7,M,-22.1,M,10.0,0272*61
08/05/2019,16:14:53.724,$GPGGA,161453,4437.5849,N,12402.8849,W,2,09,01.3,21.7,M,-22.1,M,08.0,0272*69
08/05/2019,16:14:54.625,$GPGGA,161454,4437.5849,N,12402.8849,W,2,09,01.3,21.6,M,-22.1,M,09.0,0272*6E
08/05/2019,16:14:55.641,$GPGGA,161455,4437.5849,N,12402.8849,W,2,09,01.3,21.6,M,-22.1,M,10.0,0272*67
08/05/2019,16:14:56.723,$GPGGA,161456,4437.5849,N,12402.8849,W,2,09,01.3,21.6,M,-22.1,M,11.0,0272*65
08/05/2019,16:14:57.813,$GPGGA,161457,4437.5849,N,12402.8849,W,2,09,01.3,21.6,M,-22.1,M,08.0,0272*6C
08/05/2019,16:14:58.674,$GPGGA,161458,4437.5849,N,12402.8849,W,2,09,01.3,21.7,M,-22.1,M,09.0,0272*63
08/05/2019,16:14:59.690,$GPGGA,161459,4437.5849,N,12402.8849,W,2,09,01.3,21.7,M,-22.1,M,10.0,0272*6A
08/05/2019,16:15:00.621,$GPGGA,161500,4437.5849,N,12402.8849,W,2,09,01.3,21.7,M,-22.1,M,10.0,0272*67
08/05/2019,16:15:01.776,$GPGGA,161501,4437.5849,N,12402.8849,W,2,09,01.3,21.7,M,-22.1,M,11.0,0272*67
08/05/2019,16:15:02.677,$GPGGA,161502,4437.5849,N,12402.8849,W,2,09,01.3,21.7,M,-22.1,M,09.0,0272*6D
08/05/2019,16:15:03.691,$GPGGA,161503,4437.5849,N,12402.8849,W,2,09,01.3,21.8,M,-22.1,M,10.0,0272*6B
08/05/2019,16:15:04.621,$GPGGA,161504,4437.5849,N,12402.8849,W,2,09,01.3,21.8,M,-22.1,M,08.0,0272*65
08/05/2019,16:15:05.776,$GPGGA,161505,4437.5849,N,12402.8849,W,2,09,01.3,21.8,M,-22.1,M,09.0,0272*65
08/05/2019,16:15:06.675,$GPGGA,161506,4437.5849,N,12402.8849,W,2,09,01.3,21.8,M,-22.1,M,10.0,0272*6E
08/05/2019,16:15:07.691,$GPGGA,161507,4437.5849,N,12402.8849,W,2,09,01.3,21.8,M,-22.1,M,10.0,0272*6F
08/05/2019,16:15:08.621,$GPGGA,161508,4437.5849,N,12402.8849,W,2,09,01.3,21.8,M,-22.1,M,11.0,0272*61
08/05/2019,16:15:09.776,$GPGGA,161509,4437.5849,N,12402.8849,W,2,09,01.3,21.8,M,-22.1,M,12.0,0272*63
08/05/2019,16:15:10.674,$GPGGA,161510,4437.5849,N,12402.8848,W,2,09,01.3,21.8,M,-22.1,M,10.0,0272*68
08/05/2019,16:15:11.692,$GPGGA,161511,4437.5849,N,12402.8848,W,2,09,01.3,21.9,M,-22.1,M,11.0,0272*69
08/05/2019,16:15:12.722,$GPGGA,161512,4437.5849,N,12402.8848,W,2,09,01.3,22.1,M,-22.1,M,12.0,0272*62
08/05/2019,16:15:13.776,$GPGGA,161513,4437.5849,N,12402.8848,W,2,09,01.3,22.1,M,-22.1,M,09.0,0272*69
08/05/2019,16:15:14.675,$GPGGA,161514,4437.5849,N,12402.8847,W,2,09,01.3,22.3,M,-22.1,M,10.0,0272*6B
08/05/2019,16:15:15.692,$GPGGA,161515,4437.5849,N,12402.8847,W,2,09,01.3,22.4,M,-22.1,M,11.0,0272*6C
08/05/2019,16:15:16.732,$GPGGA,161516,4437.5849,N,12402.8847,W,2,09,01.3,22.5,M,-22.1,M,10.0,0272*6F
08/05/2019,16:15:17.821,$GPGGA,161517,4437.5849,N,12402.8847,W,2,09,01.3,22.6,M,-22.1,M,11.0,0272*6C
08/05/2019,16:15:18.675,$GPGGA,161518,4437.5849,N,12402.8847,W,2,09,01.3,22.7,M,-22.1,M,08.0,0272*6A
08/05/2019,16:15:19.692,$GPGGA,161519,4437.5849,N,12402.8846,W,2,09,01.3,22.8,M,-22.1,M,09.0,0272*64
08/05/2019,16:15:20.721,$GPGGA,161520,4437.5849,N,12402.8846,W,2,09,01.3,22.9,M,-22.1,M,10.0,0272*67
08/05/2019,16:15:21.775,$GPGGA,161521,4437.5849,N,12402.8846,W,2,09,01.3,22.9,M,-22.1,M,09.0,0272*6E
08/05/2019,16:15:22.678,$GPGGA,161522,4437.5849,N,12402.8846,W,2,09,01.3,23.0,M,-22.1,M,10.0,0272*6D
08/05/2019,16:15:23.742,$GPGGA,161523,4437.5849,N,12402.8846,W,2,09,01.3,23.0,M,-22.1,M,11.0,0272*6D
08/05/2019,16:15:24.673,$GPGGA,161524,4437.5849,N,12402.8846,W,2,09,01.3,23.1,M,-22.1,M,11.0,0272*6B
08/05/2019,16:15:25.815,$GPGGA,161525,4437.5849,N,12402.8846,W,2,09,01.3,23.0,M,-22.1,M,12.0,0272*68
08/05/2019,16:15:26.687,$GPGGA,161526,4437.5849,N,12402.8846,W,2,09,01.3,23.0,M,-22.1,M,13.0,0272*6A
08/05/2019,16:15:27.699,$GPGGA,161527,4437.5849,N,12402.8847,W,2,09,01.3,23.0,M,-22.1,M,09.0,0272*61
08/05/2019,16:15:28.623,$GPGGA,161528,4437.5849,N,12402.8847,W,2,09,01.3,22.9,M,-22.1,M,10.0,0272*6E
08/05/2019,16:15:29.776,$GPGGA,161529,4437.5849,N,12402.8847,W,2,09,01.3,22.9,M,-22.1,M,11.0,0272*6E
08/05/2019,16:15:30.675,$GPGGA,161530,4437.5849,N,12402.8847,W,2,09,01.3,22.8,M,-22.1,M,09.0,0272*6E
08/05/2019,16:15:31.703,$GPGGA,161531,4437.5849,N,12402.8848,W,2,09,01.3,22.7,M,-22.1,M,10.0,0272*67
08/05/2019,16:15:32.677,$GPGGA,161532,4437.5849,N,12402.8848,W,2,09,01.3,22.6,M,-22.1,M,11.0,0272*64
08/05/2019,16:15:33.767,$GPGGA,161533,4437.5849,N,12402.8848,W,2,09,01.3,22.5,M,-22.1,M,12.0,0272*65
08/05/2019,16:15:34.640,$GPGGA,161534,4437.5849,N,12402.8848,W,2,09,01.3,22.4,M,-22.1,M,10.0,0272*61
08/05/2019,16:15:35.643,$GPGGA,161535,4437.5849,N,12402.8848,W,2,09,01.3,22.4,M,-22.1,M,11.0,0272*61
08/05/2019,16:15:36.723,$GPGGA,161536,4437.5849,N,12402.8848,W,2,09,01.3,22.4,M,-22.1,M,09.0,0272*6B
08/05/2019,16:15:37.761,$GPGGA,161537,4437.5849,N,12402.8848,W,2,09,01.3,22.3,M,-22.1,M,10.0,0272*65
08/05/2019,16:15:38.627,$GPGGA,161538,4437.5849,N,12402.8848,W,2,09,01.3,22.3,M,-22.1,M,08.0,0272*63
08/05/2019,16:15:39.642,$GPGGA,161539,4437.5849,N,12402.8848,W,2,09,01.3,22.3,M,-22.1,M,09.0,0272*63
08/05/2019,16:15:40.684,$GPGGA,161540,4437.5849,N,12402.8848,W,2,09,01.3,22.3,M,-22.1,M,09.0,0272*6D
08/05/2019,16:15:41.766,$GPGGA,161541,4437.5849,N,12402.8848,W,2,09,01.3,22.3,M,-22.1,M,10.0,0272*64
08/05/2019,16:15:42.739,$GPGGA,161542,4437.5849,N,12402.8848,W,2,09,01.3,22.3,M,-22.1,M,11.0,0272*66
08/05/2019,16:15:43.704,$GPGGA,161543,4437.5849,N,12402.8849,W,2,09,01.3,22.3,M,-22.1,M,08.0,0272*6E
08/05/2019,16:15:44.673,$GPGGA,161544,4437.5849,N,12402.8849,W,2,09,01.3,22.2,M,-22.1,M,09.0,0272*69
08/05/2019,16:15:45.816,$GPGGA,161545,4437.5850,N,12402.8849,W,2,09,01.3,22.2,M,-22.1,M,10.0,0272*68
08/05/2019,16:15:46.687,$GPGGA,161546,4437.5850,N,12402.8849,W,2,09,01.3,22.2,M,-22.1,M,11.0,0272*6A
08/05/2019,16:15:47.705,$GPGGA,161547,4437.5850,N,12402.8849,W,2,09,01.3,22.1,M,-22.1,M,08.0,0272*60
08/05/2019,16:15:48.674,$GPGGA,161548,4437.5850,N,12402.8849,W,2,09,01.3,22.1,M,-22.1,M,09.0,0272*6E
08/05/2019,16:15:49.826,$GPGGA,161549,4437.5850,N,12402.8849,W,2,09,01.3,22.2,M,-22.1,M,10.0,0272*64
08/05/2019,16:15:50.721,$GPGGA,161550,4437.5850,N,12402.8848,W,2,09,01.3,22.2,M,-22.1,M,11.0,0272*6C
08/05/2019,16:15:51.743,$GPGGA,161551,4437.5850,N,12402.8848,W,2,09,01.3,22.2,M,-22.1,M,12.0,0272*6E
08/05/2019,16:15:52.650,$GPGGA,161552,4437.5850,N,12402.8848,W,2,09,01.3,22.2,M,-22.1,M,08.0,0272*66
08/05/2019,16:15:53.768,$GPGGA,161553,4437.5850,N,12402.8848,W,2,09,01.3,22.2,M,-22.1,M,09.0,0272*66
08/05/2019,16:15:54.683,$GPGGA,161554,4437.5850,N,12402.8848,W,2,09,01.3,22.3,M,-22.1,M,08.0,0272*61
08/05/2019,16:15:55.693,$GPGGA,161555,4437.5850,N,12402.8848,W,2,09,01.3,22.3,M,-22.1,M,09.0,0272*61
08/05/2019,16:15:56.634,$GPGGA,161556,4437.5850,N,12402.8848,W,2,08,01.3,22.2,M,-22.1,M,09.0,0272*62
08/05/2019,16:15:57.728,$GPGGA,161557,4437.5849,N,12402.8848,W,2,08,01.3,22.1,M,-22.1,M,10.0,0272*60
08/05/2019,16:15:58.725,$GPGGA,161558,4437.5849,N,12402.8848,W,2,08,01.3,21.9,M,-22.1,M,08.0,0272*6D
08/05/2019,16:15:59.743,$GPGGA,161559,4437.5849,N,12402.8848,W,2,08,01.3,21.7,M,-22.1,M,09.0,0272*63
08/05/2019,16:16:00.674,$GPGGA,161600,4437.5849,N,12402.8848,W,2,08,01.3,21.4,M,-22.1,M,10.0,0272*67
08/05/2019,16:16:01.717,$GPGGA,161601,4437.5849,N,12402.8848,W,2,08,01.3,21.2,M,-22.1,M,11.0,0272*61
08/05/2019,16:16:02.695,$GPGGA,161602,4437.5849,N,12402.8848,W,2,08,01.3,21.0,M,-22.1,M,11.0,0272*60
08/05/2019,16:16:03.644,$GPGGA,161603,4437.5849,N,12402.8848,W,2,08,01.3,20.7,M,-22.1,M,12.0,0272*64
08/05/2019,16:16:04.675,$GPGGA,161604,4437.5849,N,12402.8848,W,2,08,01.3,20.5,M,-22.1,M,13.0,0272*60
08/05/2019,16:16:05.817,$GPGGA,161605,4437.5849,N,12402.8848,W,2,08,01.3,20.2,M,-22.1,M,10.0,0272*65
08/05/2019,16:16:06.687,$GPGGA,161606,4437.5849,N,12402.8848,W,2,08,01.3,20.1,M,-22.1,M,11.0,0272*64
08/05/2019,16:16:07.703,$GPGGA,161607,4437.5849,N,12402.8849,W,2,08,01.3,19.9,M,-22.1,M,12.0,0272*65
08/05/2019,16:16:08.624,$GPGGA,161608,4437.5849,N,12402.8849,W,2,08,01.3,19.7,M,-22.1,M,09.0,0272*6E
08/05/2019,16:16:09.726,$GPGGA,161609,4437.5849,N,12402.8849,W,2,08,01.3,19.6,M,-22.1,M,10.0,0272*66
08/05/2019,16:16:10.628,$GPGGA,161610,4437.5849,N,12402.8849,W,2,08,01.3,19.5,M,-22.1,M,11.0,0272*6C
08/05/2019,16:16:11.744,$GPGGA,161611,4437.5849,N,12402.8849,W,2,08,01.3,19.4,M,-22.1,M,09.0,0272*65
08/05/2019,16:16:12.636,$GPGGA,161612,4437.5849,N,12402.8849,W,2,08,01.3,19.4,M,-22.1,M,10.0,0272*6E
08/05/2019,16:16:13.727,$GPGGA,161613,4437.5849,N,12402.8849,W,2,08,01.3,19.3,M,-22.1,M,11.0,0272*69
08/05/2019,16:16:14.718,$GPGGA,161614,4437.5849,N,12402.8849,W,2,08,01.3,19.2,M,-22.1,M,09.0,0272*66
08/05/2019,16:16:15.705,$GPGGA,161615,4437.5849,N,12402.8849,W,2,08,01.3,19.2,M,-22.1,M,10.0,0272*6F
08/05/2019,16:16:16.677,$GPGGA,161616,4437.5849,N,12402.8849,W,2,08,01.3,19.2,M,-22.1,M,11.0,0272*6D
08/05/2019,16:16:17.767,$GPGGA,161617,4437.5849,N,12402.8849,W,2,08,01.3,19.2,M,-22.1,M,09.0,0272*65
08/05/2019,16:16:18.629,$GPGGA,161618,4437.5849,N,12402.8849,W,2,08,01.3,19.1,M,-22.1,M,10.0,0272*61
08/05/2019,16:16:19.745,$GPGGA,161619,4437.5849,N,12402.8849,W,2,08,01.3,19.1,M,-22.1,M,11.0,0272*61
08/05/2019,16:16:20.675,$GPGGA,161620,4437.5849,N,12402.8849,W,2,08,01.3,19.1,M,-22.1,M,12.0,0272*68
08/05/2019,16:16:21.717,$GPGGA,161621,4437.5849,N,12402.8849,W,2,08,01.3,19.1,M,-22.1,M,10.0,0272*6B
08/05/2019,16:16:22.689,$GPGGA,161622,4437.5849,N,12402.8849,W,2,08,01.3,19.1,M,-22.1,M,11.0,0272*69
08/05/2019,16:16:23.645,$GPGGA,161623,4437.5849,N,12402.8849,W,2,08,01.3,19.1,M,-22.1,M,12.0,0272*6B
08/05/2019,16:16:24.675,$GPGGA,161624,4437.5849,N,12402.8849,W,2,08,01.3,19.1,M,-22.1,M,10.0,0272*6E
08/05/2019,16:16:25.717,$GPGGA,161625,4437.5849,N,12402.8849,W,2,08,01.3,19.1,M,-22.1,M,11.0,0272*6E
08/05/2019,16:16:26.688,$GPGGA,161626,4437.5849,N,12402.8849,W,2,08,01.3,19.1,M,-22.1,M,12.0,0272*6E
08/05/2019,16:16:27.700,$GPGGA,161627,4437.5849,N,12402.8849,W,2,08,01.3,19.1,M,-22.1,M,09.0,0272*65
08/05/2019,16:16:28.624,$GPGGA,161628,4437.5849,N,12402.8849,W,2,08,01.3,19.1,M,-22.1,M,10.0,0272*62
08/05/2019,16:16:29.780,$GPGGA,161629,4437.5849,N,12402.8849,W,2,08,01.3,19.1,M,-22.1,M,11.0,0272*62
08/05/2019,16:16:30.678,$GPGGA,161630,4437.5849,N,12402.8849,W,2,08,01.3,19.1,M,-22.1,M,10.0,0272*6B
08/05/2019,16:16:31.696,$GPGGA,161631,4437.5849,N,12402.8849,W,2,08,01.3,19.1,M,-22.1,M,11.0,0272*6B
08/05/2019,16:16:32.637,$GPGGA,161632,4437.5849,N,12402.8849,W,2,08,01.3,19.0,M,-22.1,M,12.0,0272*6A
08/05/2019,16:16:33.818,$GPGGA,161633,4437.5849,N,12402.8849,W,2,08,01.3,19.0,M,-22.1,M,13.0,0272*6A
08/05/2019,16:16:34.719,$GPGGA,161634,4437.5849,N,12402.8849,W,2,08,01.3,19.0,M,-22.1,M,14.0,0272*6A
08/05/2019,16:16:35.707,$GPGGA,161635,4437.5849,N,12402.8849,W,2,08,01.3,19.1,M,-22.1,M,11.0,0272*6F
08/05/2019,16:16:36.687,$GPGGA,161636,4437.5849,N,12402.8849,W,2,08,01.3,19.1,M,-22.1,M,12.0,0272*6F
08/05/2019,16:16:37.769,$GPGGA,161637,4437.5849,N,12402.8849,W,2,08,01.3,19.1,M,-22.1,M,11.0,0272*6D
08/05/2019,16:16:38.646,$GPGGA,161638,4437.5849,N,12402.8849,W,2,08,01.3,19.1,M,-22.1,M,12.0,0272*61
08/05/2019,16:16:39.745,$GPGGA,161639,4437.5849,N,12402.8849,W,2,08,01.3,19.1,M,-22.1,M,13.0,0272*61
08/05/2019,16:16:40.594,$GPGGA,161640,4437.5849,N,12402.8849,W,2,08,01.3,19.1,M,-22.1,M,13.0,0272*6F
08/05/2019,16:16:41.769,$GPGGA,161641,4437.5849,N,12402.8849,W,2,08,01.3,19.1,M,-22.1,M,14.0,0272*69
08/05/2019,16:16:42.681,$GPGGA,161642,4437.5849,N,12402.8849,W,2,08,01.3,19.1,M,-22.1,M,15.0,0272*6B
08/05/2019,16:16:43.706,$GPGGA,161643,4437.5849,N,12402.8849,W,2,08,01.3,19.2,M,-22.1,M,09.0,0272*64
08/05/2019,16:16:44.683,$GPGGA,161644,4437.5849,N,12402.8849,W,2,08,01.3,19.2,M,-22.1,M,10.0,0272*6B
08/05/2019,16:16:45.769,$GPGGA,161645,4437.5849,N,12402.8849,W,2,08,01.3,19.2,M,-22.1,M,11.0,0272*6B
08/05/2019,16:16:46.629,$GPGGA,161646,4437.5849,N,12402.8849,W,2,08,01.3,19.3,M,-22.1,M,09.0,0272*60
08/05/2019,16:16:47.775,$GPGGA,161647,4437.5849,N,12402.8849,W,2,08,01.3,19.3,M,-22.1,M,10.0,0272*69
08/05/2019,16:16:48.676,$GPGGA,161648,4437.5849,N,12402.8848,W,2,08,01.3,19.3,M,-22.1,M,11.0,0272*66
08/05/2019,16:16:49.729,$GPGGA,161649,4437.5849,N,12402.8848,W,2,08,01.3,19.3,M,-22.1,M,09.0,0272*6E
08/05/2019,16:16:50.630,$GPGGA,161650,4437.5849,N,12402.8848,W,2,08,01.3,19.4,M,-22.1,M,10.0,0272*69
08/05/2019,16:16:51.756,$GPGGA,161651,4437.5849,N,12402.8848,W,2,08,01.3,19.4,M,-22.1,M,11.0,0272*69
08/05/2019,16:16:52.726,$GPGGA,161652,4437.5849,N,12402.8848,W,2,08,01.3,19.4,M,-22.1,M,12.0,0272*69
08/05/2019,16:16:53.770,$GPGGA,161653,4437.5849,N,12402.8848,W,2,08,01.3,19.4,M,-22.1,M,10.0,0272*6A
08/05/2019,16:16:54.630,$GPGGA,161654,4437.5849,N,12402.8848,W,2,08,01.3,19.5,M,-22.1,M,11.0,0272*6D
08/05/2019,16:16:55.755,$GPGGA,161655,4437.5849,N,12402.8848,W,2,08,01.3,19.5,M,-22.1,M,09.0,0272*65
08/05/2019,16:16:56.626,$GPGGA,161656,4437.5849,N,12402.8848,W,2,08,01.3,19.5,M,-22.1,M,10.0,0272*6E
08/05/2019,16:16:57.789,$GPGGA,161657,4437.5849,N,12402.8848,W,2,08,01.3,19.5,M,-22.1,M,11.0,0272*6E
08/05/2019,16:16:58.630,$GPGGA,161658,4437.5849,N,12402.8848,W,2,08,01.3,19.6,M,-22.1,M,08.0,0272*6A
08/05/2019,16:16:59.646,$GPGGA,161659,4437.5849,N,12402.8848,W,2,08,01.3,19.6,M,-22.1,M,09.0,0272*6A
08/05/2019,16:17:00.640,$GPGGA,161700,4437.5849,N,12402.8848,W,2,08,01.3,19.6,M,-22.1,M,10.0,0272*6F
08/05/2019,16:17:01.718,$GPGGA,161701,4437.5849,N,12402.8848,W,2,08,01.3,19.6,M,-22.1,M,11.0,0272*6F
08/05/2019,16:17:02.698,$GPGGA,161702,4437.5849,N,12402.8848,W,2,08,01.3,19.6,M,-22.1,M,12.0,0272*6F
08/05/2019,16:17:03.647,$GPGGA,161703,4437.5849,N,12402.8848,W,2,08,01.3,19.6,M,-22.1,M,09.0,0272*64
08/05/2019,16:17:04.688,$GPGGA,161704,4437.5849,N,12402.8848,W,2,08,01.3,19.6,M,-22.1,M,10.0,0272*6B
08/05/2019,16:17:05.720,$GPGGA,161705,4437.5849,N,12402.8848,W,2,08,01.3,19.7,M,-22.1,M,08.0,0272*62
08/05/2019,16:17:06.690,$GPGGA,161706,4437.5849,N,12402.8848,W,2,08,01.3,19.7,M,-22.1,M,09.0,0272*60
08/05/2019,16:17:07.697,$GPGGA,161707,4437.5849,N,12402.8848,W,2,08,01.3,19.6,M,-22.1,M,10.0,0272*68
08/05/2019,16:17:08.626,$GPGGA,161708,4437.5849,N,12402.8848,W,2,08,01.3,19.7,M,-22.1,M,11.0,0272*67
08/05/2019,16:17:09.781,$GPGGA,161709,4437.5849,N,12402.8848,W,2,08,01.3,19.7,M,-22.1,M,08.0,0272*6E
08/05/2019,16:17:10.678,$GPGGA,161710,4437.5849,N,12402.8848,W,2,08,01.3,19.7,M,-22.1,M,09.0,0272*67
08/05/2019,16:17:11.707,$GPGGA,161711,4437.5849,N,12402.8848,W,2,08,01.3,19.7,M,-22.1,M,10.0,0272*6E
08/05/2019,16:17:12.686,$GPGGA,161712,4437.5849,N,12402.8848,W,2,08,01.3,19.6,M,-22.1,M,10.0,0272*6C
08/05/2019,16:17:13.771,$GPGGA,161713,4437.5849,N,12402.8848,W,2,08,01.3,19.6,M,-22.1,M,11.0,0272*6C
08/05/2019,16:17:14.647,$GPGGA,161714,4437.5849,N,12402.8848,W,2,08,01.3,19.6,M,-22.1,M,08.0,0272*63
08/05/2019,16:17:15.647,$GPGGA,161715,4437.5849,N,12402.8848,W,2,08,01.3,19.6,M,-22.1,M,09.0,0272*63
08/05/2019,16:17:16.678,$GPGGA,161716,4437.5849,N,12402.8848,W,2,08,01.3,19.6,M,-22.1,M,08.0,0272*61
08/05/2019,16:17:17.771,$GPGGA,161717,4437.5849,N,12402.8848,W,2,08,01.3,19.6,M,-22.1,M,09.0,0272*61
08/05/2019,16:17:18.631,$GPGGA,161718,4437.5849,N,12402.8848,W,2,08,01.3,19.6,M,-22.1,M,09.0,0272*6E
08/05/2019,16:17:19.758,$GPGGA,161719,4437.5849,N,12402.8848,W,2,08,01.3,19.6,M,-22.1,M,10.0,0272*67
08/05/2019,16:17:20.627,$GPGGA,161720,4437.5849,N,12402.8848,W,2,08,01.3,19.6,M,-22.1,M,08.0,0272*64
08/05/2019,16:17:21.781,$GPGGA,161721,4437.5849,N,12402.8848,W,2,08,01.3,19.6,M,-22.1,M,09.0,0272*64
08/05/2019,16:17:22.582,$GPGGA,161722,4437.5849,N,12402.8848,W,2,08,01.3,19.6,M,-22.1,M,09.0,0272*67
08/05/2019,16:17:23.708,$GPGGA,161723,4437.5849,N,12402.8848,W,2,08,01.3,19.6,M,-22.1,M,10.0,0272*6E
08/05/2019,16:17:24.678,$GPGGA,161724,4437.5849,N,12402.8848,W,2,08,01.3,19.6,M,-22.1,M,11.0,0272*68
08/05/2019,16:17:25.731,$GPGGA,161725,4437.5849,N,12402.8848,W,2,08,01.3,19.6,M,-22.1,M,08.0,0272*61
08/05/2019,16:17:26.631,$GPGGA,161726,4437.5849,N,12402.8848,W,2,08,01.3,19.6,M,-22.1,M,09.0,0272*63
08/05/2019,16:17:27.659,$GPGGA,161727,4437.5849,N,12402.8848,W,2,08,01.3,19.6,M,-22.1,M,10.0,0272*6A
08/05/2019,16:17:28.628,$GPGGA,161728,4437.5849,N,12402.8848,W,2,08,01.3,19.6,M,-22.1,M,11.0,0272*64
08/05/2019,16:17:29.782,$GPGGA,161729,4437.5849,N,12402.8848,W,2,08,01.3,19.6,M,-22.1,M,12.0,0272*66
08/05/2019,16:17:30.683,$GPGGA,161730,4437.5849,N,12402.8848,W,2,08,01.3,19.5,M,-22.1,M,13.0,0272*6C
08/05/2019,16:17:31.610,$GPGGA,161731,4437.5849,N,12402.8848,W,2,08,01.3,19.6,M,-22.1,M,10.0,0272*6D
08/05/2019,16:17:32.692,$GPGGA,161732,4437.5849,N,12402.8848,W,2,08,01.3,19.6,M,-22.1,M,11.0,0272*6F
08/05/2019,16:17:33.720,$GPGGA,161733,4437.5849,N,12402.8848,W,2,08,01.3,19.6,M,-22.1,M,09.0,0272*67
08/05/2019,16:17:34.691,$GPGGA,161734,4437.5849,N,12402.8848,W,2,08,01.3,19.6,M,-22.1,M,10.0,0272*68
08/05/2019,16:17:35.747,$GPGGA,161735,4437.5849,N,12402.8848,W,2,08,01.3,19.6,M,-22.1,M,11.0,0272*68
08/05/2019,16:17:36.679,$GPGGA,161736,4437.5849,N,12402.8848,W,2,08,01.3,19.6,M,-22.1,M,09.0,0272*62
08/05/2019,16:17:37.736,$GPGGA,161737,4437.5849,N,12402.8848,W,2,08,01.3,19.6,M,-22.1,M,10.0,0272*6B
08/05/2019,16:17:38.632,$GPGGA,161738,4437.5849,N,12402.8848,W,2,08,01.3,19.6,M,-22.1,M,11.0,0272*65
08/05/2019,16:17:39.611,$GPGGA,161739,4437.5849,N,12402.8848,W,2,08,01.3,19.6,M,-22.1,M,12.0,0272*67
08/05/2019,16:17:40.679,$GPGGA,161740,4437.5849,N,12402.8848,W,2,08,01.3,19.7,M,-22.1,M,13.0,0272*69
08/05/2019,16:17:41.722,$GPGGA,161741,4437.5849,N,12402.8848,W,2,08,01.3,19.7,M,-22.1,M,14.0,0272*6F
08/05/2019,16:17:42.599,$GPGGA,161742,4437.5849,N,12402.8848,W,2,08,01.3,19.7,M,-22.1,M,10.0,0272*68
08/05/2019,16:17:43.648,$GPGGA,161743,4437.5849,N,12402.8848,W,2,08,01.3,19.7,M,-22.1,M,11.0,0272*68
08/05/2019,16:17:44.596,$GPGGA,161744,4437.5849,N,12402.8848,W,2,08,01.3,19.7,M,-22.1,M,12.0,0272*6C
08/05/2019,16:17:45.771,$GPGGA,161745,4437.5849,N,12402.8848,W,2,08,01.3,19.7,M,-22.1,M,13.0,0272*6C
08/05/2019,16:17:46.645,$GPGGA,161746,4437.5849,N,12402.8848,W,2,08,01.3,19.7,M,-22.1,M,11.0,0272*6D
08/05/2019,16:17:47.664,$GPGGA,161747,4437.5849,N,12402.8848,W,2,08,01.3,19.7,M,-22.1,M,12.0,0272*6F
08/05/2019,16:17:48.841,$GPGGA,161748,4437.5849,N,12402.8848,W,2,08,01.3,19.7,M,-22.1,M,13.0,0272*61
08/05/2019,16:17:49.722,$GPGGA,161749,4437.5849,N,12402.8848,W,2,08,01.3,19.7,M,-22.1,M,11.0,0272*62
08/05/2019,16:17:50.691,$GPGGA,161750,4437.5849,N,12402.8848,W,2,08,01.3,19.7,M,-22.1,M,12.0,0272*69
08/05/2019,16:17:51.699,$GPGGA,161751,4437.5849,N,12402.8848,W,2,08,01.3,19.7,M,-22.1,M,13.0,0272*69
08/05/2019,16:17:52.841,$GPGGA,161752,4437.5849,N,12402.8848,W,2,08,01.3,19.7,M,-22.1,M,10.0,0272*69
08/05/2019,16:17:53.774,$GPGGA,161753,4437.5849,N,12402.8848,W,2,08,01.3,19.7,M,-22.1,M,11.0,0272*69
08/05/2019,16:17:54.684,$GPGGA,161754,4437.5849,N,12402.8848,W,2,08,01.3,19.7,M,-22.1,M,12.0,0272*6D
08/05/2019,16:17:55.699,$GPGGA,161755,4437.5850,N,12402.8848,W,2,08,01.3,19.8,M,-22.1,M,10.0,0272*69
08/05/2019,16:17:56.591,$GPGGA,161756,4437.5850,N,12402.8848,W,2,08,01.3,19.8,M,-22.1,M,11.0,0272*6B
08/05/2019,16:17:57.784,$GPGGA,161757,4437.5850,N,12402.8848,W,2,08,01.3,19.7,M,-22.1,M,09.0,0272*6C
08/05/2019,16:17:58.681,$GPGGA,161758,4437.5850,N,12402.8848,W,2,08,01.3,19.8,M,-22.1,M,10.0,0272*64
08/05/2019,16:17:59.710,$GPGGA,161759,4437.5849,N,12402.8848,W,2,08,01.3,19.8,M,-22.1,M,11.0,0272*6C
08/05/2019,16:18:00.585,$GPGGA,161800,4437.5849,N,12402.8848,W,2,08,01.3,19.8,M,-22.1,M,12.0,0272*6C
08/05/2019,16:18:01.773,$GPGGA,161801,4437.5849,N,12402.8848,W,2,08,01.3,19.8,M,-22.1,M,13.0,0272*6C
08/05/2019,16:18:02.584,$GPGGA,161802,4437.5849,N,12402.8848,W,2,08,01.3,19.8,M,-22.1,M,14.0,0272*68
08/05/2019,16:18:03.708,$GPGGA,161803,4437.5849,N,12402.8848,W,2,08,01.3,19.8,M,-22.1,M,10.0,0272*6D
08/05/2019,16:18:04.585,$GPGGA,161804,4437.5849,N,12402.8848,W,2,08,01.3,19.7,M,-22.1,M,11.0,0272*64
08/05/2019,16:18:05.776,$GPGGA,161805,4437.5849,N,12402.8848,W,2,08,01.3,19.8,M,-22.1,M,12.0,0272*69
08/05/2019,16:18:06.585,$GPGGA,161806,4437.5849,N,12402.8848,W,2,08,01.3,19.8,M,-22.1,M,10.0,0272*68
08/05/2019,16:18:07.628,$GPGGA,161807,4437.5849,N,12402.8848,W,2,08,01.3,19.7,M,-22.1,M,11.0,0272*67
08/05/2019,16:18:08.679,$GPGGA,161808,4437.5849,N,12402.8848,W,2,08,01.3,19.7,M,-22.1,M,12.0,0272*6B
08/05/2019,16:18:09.773,$GPGGA,161809,4437.5849,N,12402.8848,W,2,08,01.3,19.7,M,-22.1,M,10.0,0272*68
08/05/2019,16:18:10.634,$GPGGA,161810,4437.5849,N,12402.8848,W,2,08,01.3,19.7,M,-22.1,M,11.0,0272*61
08/05/2019,16:18:11.660,$GPGGA,161811,4437.5849,N,12402.8848,W,2,08,01.3,19.7,M,-22.1,M,12.0,0272*63
08/05/2019,16:18:12.641,$GPGGA,161812,4437.5849,N,12402.8848,W,2,08,01.3,19.6,M,-22.1,M,13.0,0272*60
08/05/2019,16:18:13.722,$GPGGA,161813,4437.5849,N,12402.8848,W,2,08,01.3,19.6,M,-22.1,M,11.0,0272*63
08/05/2019,16:18:14.584,$GPGGA,161814,4437.5849,N,12402.8848,W,2,08,01.3,19.6,M,-22.1,M,12.0,0272*67
08/05/2019,16:18:15.700,$GPGGA,161815,4437.5849,N,12402.8848,W,2,08,01.3,19.6,M,-22.1,M,10.0,0272*64
08/05/2019,16:18:16.585,$GPGGA,161816,4437.5849,N,12402.8848,W,2,08,01.3,19.6,M,-22.1,M,11.0,0272*66
08/05/2019,16:18:17.726,$GPGGA,161817,4437.5849,N,12402.8848,W,2,08,01.3,19.6,M,-22.1,M,08.0,0272*6F
08/05/2019,16:18:18.633,$GPGGA,161818,4437.5849,N,12402.8848,W,2,08,01.3,19.6,M,-22.1,M,09.0,0272*61
08/05/2019,16:18:19.649,$GPGGA,161819,4437.5849,N,12402.8848,W,2,08,01.3,19.6,M,-22.1,M,10.0,0272*68
08/05/2019,16:18:20.585,$GPGGA,161820,4437.5849,N,12402.8848,W,2,08,01.3,19.6,M,-22.1,M,11.0,0272*63
08/05/2019,16:18:21.781,$GPGGA,161821,4437.5850,N,12402.8848,W,2,08,01.3,19.6,M,-22.1,M,08.0,0272*62
08/05/2019,16:18:22.585,$GPGGA,161822,4437.5850,N,12402.8848,W,2,08,01.3,19.6,M,-22.1,M,09.0,0272*60
08/05/2019,16:18:23.601,$GPGGA,161823,4437.5850,N,12402.8848,W,2,08,01.3,19.6,M,-22.1,M,10.0,0272*69
08/05/2019,16:18:24.585,$GPGGA,161824,4437.5850,N,12402.8848,W,2,08,01.3,19.6,M,-22.1,M,10.0,0272*6E
08/05/2019,16:18:25.781,$GPGGA,161825,4437.5850,N,12402.8848,W,2,08,01.3,19.6,M,-22.1,M,11.0,0272*6E
08/05/2019,16:18:26.681,$GPGGA,161826,4437.5850,N,12402.8848,W,2,08,01.3,19.6,M,-22.1,M,08.0,0272*65
08/05/2019,16:18:27.705,$GPGGA,161827,4437.5850,N,12402.8848,W,2,08,01.3,19.6,M,-22.1,M,09.0,0272*65
08/05/2019,16:18:28.640,$GPGGA,161828,4437.5849,N,12402.8848,W,2,08,01.3,19.6,M,-22.1,M,08.0,0272*63
08/05/2019,16:18:29.723,$GPGGA,161829,4437.5849,N,12402.8848,W,2,08,01.3,19.6,M,-22.1,M,09.0,0272*63
08/05/2019,16:18:30.691,$GPGGA,161830,4437.5849,N,12402.8848,W,2,08,01.3,19.6,M,-22.1,M,09.0,0272*6B
08/05/2019,16:18:31.651,$GPGGA,161831,4437.5849,N,12402.8848,W,2,08,01.3,19.6,M,-22.1,M,10.0,0272*62
08/05/2019,16:18:32.694,$GPGGA,161832,4437.5849,N,12402.8848,W,2,08,01.3,19.6,M,-22.1,M,08.0,0272*68
08/05/2019,16:18:33.774,$GPGGA,161833,4437.5849,N,12402.8848,W,2,08,01.3,19.7,M,-22.1,M,09.0,0272*69
08/05/2019,16:18:34.634,$GPGGA,161834,4437.5850,N,12402.8848,W,2,08,01.3,19.7,M,-22.1,M,09.0,0272*66
08/05/2019,16:18:35.660,$GPGGA,161835,4437.5850,N,12402.8848,W,2,08,01.3,19.7,M,-22.1,M,10.0,0272*6F
08/05/2019,16:18:36.632,$GPGGA,161836,4437.5850,N,12402.8848,W,2,08,01.3,19.8,M,-22.1,M,11.0,0272*62
08/05/2019,16:18:37.784,$GPGGA,161837,4437.5850,N,12402.8848,W,2,08,01.3,19.8,M,-22.1,M,08.0,0272*6B
08/05/2019,16:18:38.682,$GPGGA,161838,4437.5850,N,12402.8848,W,2,08,01.3,19.8,M,-22.1,M,09.0,0272*65
08/05/2019,16:18:39.701,$GPGGA,161839,4437.5850,N,12402.8848,W,2,08,01.3,19.9,M,-22.1,M,10.0,0272*6D
08/05/2019,16:18:40.630,$GPGGA,161840,4437.5850,N,12402.8848,W,2,08,01.3,19.9,M,-22.1,M,11.0,0272*62
08/05/2019,16:18:41.784,$GPGGA,161841,4437.5850,N,12402.8848,W,2,08,01.3,19.9,M,-22.1,M,12.0,0272*60
08/05/2019,16:18:42.686,$GPGGA,161842,4437.5850,N,12402.8848,W,2,08,01.3,19.9,M,-22.1,M,09.0,0272*69
08/05/2019,16:18:43.651,$GPGGA,161843,4437.5850,N,12402.8848,W,2,08,01.3,19.9,M,-22.1,M,10.0,0272*60
08/05/2019,16:18:44.693,$GPGGA,161844,4437.5850,N,12402.8848,W,2,08,01.3,20.0,M,-22.1,M,11.0,0272*65
08/05/2019,16:18:45.724,$GPGGA,161845,4437.5850,N,12402.8848,W,2,08,01.3,20.0,M,-22.1,M,12.0,0272*67
08/05/2019,16:18:46.682,$GPGGA,161846,4437.5850,N,12402.8848,W,2,08,01.3,20.0,M,-22.1,M,13.0,0272*65
08/05/2019,16:18:47.613,$GPGGA,161847,4437.5850,N,12402.8848,W,2,08,01.3,20.0,M,-22.1,M,14.0,0272*63
08/05/2019,16:18:48.689,$GPGGA,161848,4437.5850,N,12402.8848,W,2,08,01.3,20.0,M,-22.1,M,10.0,0272*68
08/05/2019,16:18:49.774,$GPGGA,161849,4437.5850,N,12402.8848,W,2,08,01.3,20.0,M,-22.1,M,11.0,0272*68
08/05/2019,16:18:50.634,$GPGGA,161850,4437.5850,N,12402.8849,W,2,08,01.3,20.1,M,-22.1,M,12.0,0272*63
08/05/2019,16:18:51.661,$GPGGA,161851,4437.5850,N,12402.8849,W,2,08,01.3,20.1,M,-22.1,M,13.0,0272*63
08/05/2019,16:18:52.641,$GPGGA,161852,4437.5850,N,12402.8849,W,2,08,01.3,20.1,M,-22.1,M,11.0,0272*62
08/05/2019,16:18:53.724,$GPGGA,161853,4437.5850,N,12402.8849,W,2,08,01.3,20.1,M,-22.1,M,12.0,0272*60
08/05/2019,16:18:54.649,$GPGGA,161854,4437.5850,N,12402.8849,W,2,08,01.3,20.0,M,-22.1,M,13.0,0272*67
08/05/2019,16:18:55.662,$GPGGA,161855,4437.5850,N,12402.8849,W,2,08,01.3,20.0,M,-22.1,M,11.0,0272*64
08/05/2019,16:18:56.631,$GPGGA,161856,4437.5850,N,12402.8849,W,2,08,01.3,20.0,M,-22.1,M,12.0,0272*64
08/05/2019,16:18:57.786,$GPGGA,161857,4437.5850,N,12402.8849,W,2,08,01.3,20.1,M,-22.1,M,13.0,0272*65
08/05/2019,16:18:58.682,$GPGGA,161858,4437.5850,N,12402.8849,W,2,08,01.3,20.1,M,-22.1,M,10.0,0272*69
08/05/2019,16:18:59.702,$GPGGA,161859,4437.5850,N,12402.8849,W,2,08,01.3,20.1,M,-22.1,M,11.0,0272*69
08/05/2019,16:19:00.631,$GPGGA,161900,4437.5850,N,12402.8849,W,2,08,01.3,20.1,M,-22.1,M,09.0,0272*6D
08/05/2019,16:19:01.724,$GPGGA,161901,4437.5850,N,12402.8849,W,2,08,01.3,20.1,M,-22.1,M,10.0,0272*64
08/05/2019,16:19:02.635,$GPGGA,161902,4437.5850,N,12402.8849,W,2,08,01.3,20.1,M,-22.1,M,08.0,0272*6E
08/05/2019,16:19:03.661,$GPGGA,161903,4437.5850,N,12402.8849,W,2,08,01.3,20.1,M,-22.1,M,09.0,0272*6E
08/05/2019,16:19:04.631,$GPGGA,161904,4437.5850,N,12402.8849,W,2,08,01.3,20.1,M,-22.1,M,10.0,0272*61
08/05/2019,16:19:05.725,$GPGGA,161905,4437.5850,N,12402.8849,W,2,08,01.3,20.1,M,-22.1,M,11.0,0272*61
08/05/2019,16:19:06.602,$GPGGA,161906,4437.5850,N,12402.8849,W,2,08,01.3,20.1,M,-22.1,M,12.0,0272*61
08/05/2019,16:19:07.630,$GPGGA,161907,4437.5850,N,12402.8849,W,2,08,01.3,20.2,M,-22.1,M,13.0,0272*62
08/05/2019,16:19:08.631,$GPGGA,161908,4437.5850,N,12402.8849,W,2,08,01.3,20.2,M,-22.1,M,09.0,0272*66
08/05/2019,16:19:09.781,$GPGGA,161909,4437.5850,N,12402.8849,W,2,08,01.3,20.2,M,-22.1,M,10.0,0272*6F
08/05/2019,16:19:10.587,$GPGGA,161910,4437.5850,N,12402.8849,W,2,08,01.3,20.2,M,-22.1,M,11.0,0272*66
08/05/2019,16:19:11.613,$GPGGA,161911,4437.5850,N,12402.8849,W,2,08,01.3,20.2,M,-22.1,M,10.0,0272*66
08/05/2019,16:19:12.611,$GPGGA,161912,4437.5850,N,12402.8849,W,2,08,01.3,20.2,M,-22.1,M,11.0,0272*64
08/05/2019,16:19:13.724,$GPGGA,161913,4437.5850,N,12402.8849,W,2,08,01.3,20.2,M,-22.1,M,12.0,0272*66
08/05/2019,16:19:14.693,$GPGGA,161914,4437.5850,N,12402.8849,W,2,08,01.3,20.2,M,-22.1,M,09.0,0272*6B
08/05/2019,16:19:15.603,$GPGGA,161915,4437.5850,N,12402.8849,W,2,08,01.3,20.2,M,-22.1,M,10.0,0272*62
08/05/2019,16:19:16.599,$GPGGA,161916,4437.5851,N,12402.8849,W,2,08,01.3,20.2,M,-22.1,M,09.0,0272*68
08/05/2019,16:19:17.687,$GPGGA,161917,4437.5851,N,12402.8849,W,2,08,01.3,20.2,M,-22.1,M,10.0,0272*61
08/05/2019,16:19:18.683,$GPGGA,161918,4437.5851,N,12402.8849,W,2,08,01.3,20.2,M,-22.1,M,08.0,0272*67
08/05/2019,16:19:19.703,$GPGGA,161919,4437.5851,N,12402.8849,W,2,08,01.3,20.2,M,-22.1,M,09.0,0272*67
08/05/2019,16:19:20.632,$GPGGA,161920,4437.5851,N,12402.8849,W,2,08,01.3,20.2,M,-22.1,M,10.0,0272*65
08/05/2019,16:19:21.786,$GPGGA,161921,4437.5851,N,12402.8849,W,2,08,01.3,20.2,M,-22.1,M,10.0,0272*64
08/05/2019,16:19:22.603,$GPGGA,161922,4437.5851,N,12402.8849,W,2,08,01.3,20.2,M,-22.1,M,11.0,0272*66
08/05/2019,16:19:23.652,$GPGGA,161923,4437.5851,N,12402.8849,W,2,08,01.3,20.2,M,-22.1,M,12.0,0272*64
08/05/2019,16:19:24.694,$GPGGA,161924,4437.5851,N,12402.8849,W,2,08,01.3,20.2,M,-22.1,M,09.0,0272*69
08/05/2019,16:19:25.676,$GPGGA,161925,4437.5851,N,12402.8849,W,2,08,01.3,20.2,M,-22.1,M,10.0,0272*60
08/05/2019,16:19:26.636,$GPGGA,161926,4437.5851,N,12402.8849,W,2,08,01.3,20.2,M,-22.1,M,11.0,0272*62
08/05/2019,16:19:27.664,$GPGGA,161927,4437.5851,N,12402.8849,W,2,08,01.3,20.2,M,-22.1,M,10.0,0272*62
08/05/2019,16:19:28.643,$GPGGA,161928,4437.5851,N,12402.8849,W,2,08,01.3,20.2,M,-22.1,M,11.0,0272*6C
08/05/2019,16:19:29.725,$GPGGA,161929,4437.5851,N,12402.8849,W,2,08,01.3,20.2,M,-22.1,M,12.0,0272*6E
08/05/2019,16:19:30.587,$GPGGA,161930,4437.5851,N,12402.8849,W,2,08,01.3,20.2,M,-22.1,M,09.0,0272*6C
08/05/2019,16:19:31.614,$GPGGA,161931,4437.5851,N,12402.8849,W,2,08,01.3,20.2,M,-22.1,M,10.0,0272*65
08/05/2019,16:19:32.595,$GPGGA,161932,4437.5851,N,12402.8850,W,2,08,01.3,20.2,M,-22.1,M,11.0,0272*6F
08/05/2019,16:19:33.787,$GPGGA,161933,4437.5851,N,12402.8849,W,2,08,01.3,20.2,M,-22.1,M,10.0,0272*67
08/05/2019,16:19:34.588,$GPGGA,161934,4437.5851,N,12402.8850,W,2,08,01.3,20.2,M,-22.1,M,11.0,0272*69
08/05/2019,16:19:35.610,$GPGGA,161935,4437.5851,N,12402.8850,W,2,08,01.3,20.2,M,-22.1,M,09.0,0272*61
08/05/2019,16:19:36.587,$GPGGA,161936,4437.5851,N,12402.8850,W,2,08,01.3,20.2,M,-22.1,M,10.0,0272*6A
08/05/2019,16:19:37.696,$GPGGA,161937,4437.5851,N,12402.8850,W,2,08,01.3,20.2,M,-22.1,M,11.0,0272*6A
08/05/2019,16:19:38.695,$GPGGA,161938,4437.5851,N,12402.8850,W,2,08,01.3,20.1,M,-22.1,M,09.0,0272*6F
08/05/2019,16:19:39.704,$GPGGA,161939,4437.5851,N,12402.8850,W,2,08,01.3,20.1,M,-22.1,M,10.0,0272*66
08/05/2019,16:19:40.643,$GPGGA,161940,4437.5851,N,12402.8850,W,2,08,01.3,20.1,M,-22.1,M,11.0,0272*69
08/05/2019,16:19:41.736,$GPGGA,161941,4437.5851,N,12402.8850,W,2,08,01.3,20.1,M,-22.1,M,11.0,0272*68
08/05/2019,16:19:42.637,$GPGGA,161942,4437.5851,N,12402.8850,W,2,08,01.3,20.1,M,-22.1,M,12.0,0272*68
08/05/2019,16:19:43.661,$GPGGA,161943,4437.5851,N,12402.8850,W,2,08,01.3,20.1,M,-22.1,M,13.0,0272*68
08/05/2019,16:19:44.633,$GPGGA,161944,4437.5851,N,12402.8850,W,2,08,01.3,20.1,M,-22.1,M,09.0,0272*64
08/05/2019,16:19:45.736,$GPGGA,161945,4437.5851,N,12402.8850,W,2,08,01.3,20.1,M,-22.1,M,10.0,0272*6D
08/05/2019,16:19:46.637,$GPGGA,161946,4437.5851,N,12402.8850,W,2,08,01.3,20.1,M,-22.1,M,11.0,0272*6F
08/05/2019,16:19:47.659,$GPGGA,161947,4437.5851,N,12402.8850,W,2,08,01.3,20.1,M,-22.1,M,12.0,0272*6D
08/05/2019,16:19:48.633,$GPGGA,161948,4437.5851,N,12402.8850,W,2,08,01.3,20.2,M,-22.1,M,10.0,0272*63
08/05/2019,16:19:49.777,$GPGGA,161949,4437.5851,N,12402.8850,W,2,08,01.3,20.2,M,-22.1,M,11.0,0272*63
08/05/2019,16:19:50.685,$GPGGA,161950,4437.5851,N,12402.8850,W,2,08,01.3,20.2,M,-22.1,M,09.0,0272*62
08/05/2019,16:19:51.704,$GPGGA,161951,4437.5851,N,12402.8850,W,2,08,01.3,20.2,M,-22.1,M,10.0,0272*6B
08/05/2019,16:19:52.611,$GPGGA,161952,4437.5851,N,12402.8850,W,2,08,01.3,20.1,M,-22.1,M,08.0,0272*62
08/05/2019,16:19:53.737,$GPGGA,161953,4437.5851,N,12402.8850,W,2,08,01.3,20.1,M,-22.1,M,09.0,0272*62
08/05/2019,16:19:54.638,$GPGGA,161954,4437.5851,N,12402.8850,W,2,08,01.3,20.1,M,-22.1,M,10.0,0272*6D
08/05/2019,16:19:55.663,$GPGGA,161955,4437.5851,N,12402.8850,W,2,08,01.3,20.1,M,-22.1,M,10.0,0272*6C
08/05/2019,16:19:56.633,$GPGGA,161956,4437.5851,N,12402.8850,W,2,08,01.3,20.1,M,-22.1,M,11.0,0272*6E
08/05/2019,16:19:57.781,$GPGGA,161957,4437.5851,N,12402.8850,W,2,08,01.3,20.0,M,-22.1,M,09.0,0272*67
08/05/2019,16:19:58.684,$GPGGA,161958,4437.5851,N,12402.8850,W,2,08,01.3,20.0,M,-22.1,M,10.0,0272*60
08/05/2019,16:19:59.714,$GPGGA,161959,4437.5851,N,12402.8850,W,2,08,01.3,20.0,M,-22.1,M,08.0,0272*68
08/05/2019,16:20:00.589,$GPGGA,162000,4437.5851,N,12402.8850,W,2,08,01.3,20.0,M,-22.1,M,09.0,0272*6F
08/05/2019,16:20:01.778,$GPGGA,162001,4437.5851,N,12402.8850,W,2,08,01.3,19.9,M,-22.1,M,10.0,0272*65
08/05/2019,16:20:02.602,$GPGGA,162002,4437.5851,N,12402.8850,W,2,08,01.3,19.9,M,-22.1,M,10.0,0272*66
08/05/2019,16:20:03.664,$GPGGA,162003,4437.5851,N,12402.8850,W,2,08,01.3,19.9,M,-22.1,M,11.0,0272*66
08/05/2019,16:20:04.634,$GPGGA,162004,4437.5851,N,12402.8850,W,2,08,01.3,19.9,M,-22.1,M,12.0,0272*62
08/05/2019,16:20:05.727,$GPGGA,162005,4437.5851,N,12402.8850,W,2,08,01.3,19.9,M,-22.1,M,09.0,0272*69
08/05/2019,16:20:06.685,$GPGGA,162006,4437.5851,N,12402.8850,W,2,08,01.3,19.9,M,-22.1,M,10.0,0272*62
08/05/2019,16:20:07.705,$GPGGA,162007,4437.5851,N,12402.8850,W,2,08,01.3,19.9,M,-22.1,M,11.0,0272*62
08/05/2019,16:20:08.634,$GPGGA,162008,4437.5851,N,12402.8851,W,2,08,01.3,19.9,M,-22.1,M,09.0,0272*65
08/05/2019,16:20:09.788,$GPGGA,162009,4437.5851,N,12402.8851,W,2,08,01.3,19.9,M,-22.1,M,10.0,0272*6C
08/05/2019,16:20:10.589,$GPGGA,162010,4437.5851,N,12402.8851,W,2,08,01.3,19.9,M,-22.1,M,08.0,0272*6D
08/05/2019,16:20:11.606,$GPGGA,162011,4437.5851,N,12402.8851,W,2,08,01.3,19.9,M,-22.1,M,09.0,0272*6D
08/05/2019,16:20:12.697,$GPGGA,162012,4437.5851,N,12402.8851,W,2,08,01.3,19.9,M,-22.1,M,10.0,0272*66
08/05/2019,16:20:13.789,$GPGGA,162013,4437.5851,N,12402.8851,W,2,08,01.3,19.9,M,-22.1,M,08.0,0272*6E
08/05/2019,16:20:14.590,$GPGGA,162014,4437.5851,N,12402.8851,W,2,08,01.3,19.9,M,-22.1,M,09.0,0272*68
08/05/2019,16:20:15.707,$GPGGA,162015,4437.5851,N,12402.8851,W,2,08,01.3,19.9,M,-22.1,M,10.0,0272*61
08/05/2019,16:20:16.590,$GPGGA,162016,4437.5851,N,12402.8851,W,2,08,01.3,19.9,M,-22.1,M,11.0,0272*63
08/05/2019,16:20:17.730,$GPGGA,162017,4437.5851,N,12402.8851,W,2,08,01.3,19.9,M,-22.1,M,12.0,0272*61
08/05/2019,16:20:18.590,$GPGGA,162018,4437.5851,N,12402.8851,W,2,08,01.3,20.0,M,-22.1,M,13.0,0272*6C
08/05/2019,16:20:19.665,$GPGGA,162019,4437.5851,N,12402.8851,W,2,08,01.3,20.0,M,-22.1,M,10.0,0272*6E
08/05/2019,16:20:20.645,$GPGGA,162020,4437.5851,N,12402.8851,W,2,08,01.3,20.0,M,-22.1,M,11.0,0272*65
08/05/2019,16:20:21.728,$GPGGA,162021,4437.5851,N,12402.8851,W,2,08,01.3,20.0,M,-22.1,M,12.0,0272*67
08/05/2019,16:20:22.605,$GPGGA,162022,4437.5851,N,12402.8851,W,2,08,01.3,20.0,M,-22.1,M,10.0,0272*66
08/05/2019,16:20:23.655,$GPGGA,162023,4437.5851,N,12402.8851,W,2,08,01.3,20.0,M,-22.1,M,11.0,0272*66
08/05/2019,16:20:24.597,$GPGGA,162024,4437.5851,N,12402.8851,W,2,08,01.3,20.0,M,-22.1,M,12.0,0272*62
08/05/2019,16:20:25.786,$GPGGA,162025,4437.5851,N,12402.8851,W,2,08,01.3,20.0,M,-22.1,M,10.0,0272*61
08/05/2019,16:20:26.591,$GPGGA,162026,4437.5851,N,12402.8850,W,2,08,01.3,20.0,M,-22.1,M,11.0,0272*62
08/05/2019,16:20:27.617,$GPGGA,162027,4437.5851,N,12402.8850,W,2,08,01.3,20.0,M,-22.1,M,09.0,0272*6A
08/05/2019,16:20:28.589,$GPGGA,162028,4437.5851,N,12402.8850,W,2,08,01.3,20.0,M,-22.1,M,10.0,0272*6D
08/05/2019,16:20:29.686,$GPGGA,162029,4437.5851,N,12402.8850,W,2,08,01.3,20.0,M,-22.1,M,11.0,0272*6D
08/05/2019,16:20:30.692,$GPGGA,162030,4437.5851,N,12402.8850,W,2,08,01.3,20.0,M,-22.1,M,09.0,0272*6C
08/05/2019,16:20:31.654,$GPGGA,162031,4437.5851,N,12402.8850,W,2,08,01.3,20.0,M,-22.1,M,10.0,0272*65
08/05/2019,16:20:32.661,$GPGGA,162032,4437.5851,N,12402.8850,W,2,08,01.3,20.0,M,-22.1,M,11.0,0272*67
08/05/2019,16:20:33.737,$GPGGA,162033,4437.5851,N,12402.8850,W,2,08,01.3,20.0,M,-22.1,M,12.0,0272*65
08/05/2019,16:20:34.638,$GPGGA,162034,4437.5851,N,12402.8850,W,2,08,01.3,20.0,M,-22.1,M,13.0,0272*63
08/05/2019,16:20:35.655,$GPGGA,162035,4437.5851,N,12402.8850,W,2,08,01.3,20.0,M,-22.1,M,14.0,0272*65
08/05/2019,16:20:36.696,$GPGGA,162036,4437.5851,N,12402.8850,W,2,08,01.3,20.0,M,-22.1,M,10.0,0272*62
08/05/2019,16:20:37.690,$GPGGA,162037,4437.5851,N,12402.8850,W,2,08,01.3,20.0,M,-22.1,M,11.0,0272*62
08/05/2019,16:20:38.590,$GPGGA,162038,4437.5851,N,12402.8851,W,2,08,01.3,20.0,M,-22.1,M,12.0,0272*6F
08/05/2019,16:20:39.624,$GPGGA,162039,4437.5851,N,12402.8851,W,2,08,01.3,19.9,M,-22.1,M,13.0,0272*6C
08/05/2019,16:20:40.588,$GPGGA,162040,4437.5851,N,12402.8851,W,2,08,01.3,19.9,M,-22.1,M,11.0,0272*60
08/05/2019,16:20:41.685,$GPGGA,162041,4437.5851,N,12402.8851,W,2,08,01.3,19.9,M,-22.1,M,12.0,0272*62
08/05/2019,16:20:42.706,$GPGGA,162042,4437.5851,N,12402.8851,W,2,08,01.3,19.9,M,-22.1,M,10.0,0272*63
08/05/2019,16:20:43.654,$GPGGA,162043,4437.5851,N,12402.8851,W,2,08,01.3,19.9,M,-22.1,M,11.0,0272*63
08/05/2019,16:20:44.588,$GPGGA,162044,4437.5851,N,12402.8851,W,2,08,01.3,19.9,M,-22.1,M,08.0,0272*6C
08/05/2019,16:20:45.689,$GPGGA,162045,4437.5851,N,12402.8851,W,2,08,01.3,19.9,M,-22.1,M,09.0,0272*6C
08/05/2019,16:20:46.592,$GPGGA,162046,4437.5851,N,12402.8851,W,2,08,01.3,19.9,M,-22.1,M,10.0,0272*67
08/05/2019,16:20:47.657,$GPGGA,162047,4437.5851,N,12402.8851,W,2,08,01.3,19.9,M,-22.1,M,11.0,0272*67
08/05/2019,16:20:48.589,$GPGGA,162048,4437.5851,N,12402.8851,W,2,08,01.3,19.9,M,-22.1,M,12.0,0272*6B
08/05/2019,16:20:49.736,$GPGGA,162049,4437.5851,N,12402.8851,W,2,08,01.3,19.9,M,-22.1,M,13.0,0272*6B
08/05/2019,16:20:50.639,$GPGGA,162050,4437.5851,N,12402.8851,W,2,08,01.3,19.9,M,-22.1,M,10.0,0272*60
08/05/2019,16:20:51.655,$GPGGA,162051,4437.5851,N,12402.8851,W,2,08,01.3,19.9,M,-22.1,M,11.0,0272*60
08/05/2019,16:20:52.697,$GPGGA,162052,4437.5851,N,12402.8851,W,2,08,01.3,19.9,M,-22.1,M,12.0,0272*60
08/05/2019,16:20:53.690,$GPGGA,162053,4437.5851,N,12402.8851,W,2,08,01.3,19.9,M,-22.1,M,09.0,0272*6B
08/05/2019,16:20:54.692,$GPGGA,162054,4437.5851,N,12402.8851,W,2,08,01.3,19.9,M,-22.1,M,10.0,0272*64
08/05/2019,16:20:55.655,$GPGGA,162055,4437.5851,N,12402.8851,W,2,08,01.3,19.9,M,-22.1,M,11.0,0272*64
08/05/2019,16:20:56.696,$GPGGA,162056,4437.5851,N,12402.8851,W,2,08,01.3,19.9,M,-22.1,M,10.0,0272*66
08/05/2019,16:20:57.709,$GPGGA,162057,4437.5851,N,12402.8851,W,2,08,01.3,19.9,M,-22.1,M,11.0,0272*66
08/05/2019,16:20:58.591,$GPGGA,162058,4437.5851,N,12402.8851,W,2,07,01.3,19.9,M,-22.1,M,12.0,0272*65
08/05/2019,16:20:59.606,$GPGGA,162059,4437.5851,N,12402.8851,W,2,07,01.3,19.9,M,-22.1,M,09.0,0272*6E
08/05/2019,16:21:00.697,$GPGGA,162100,4437.5851,N,12402.8851,W,2,07,01.3,19.9,M,-22.1,M,10.0,0272*6B
08/05/2019,16:21:01.728,$GPGGA,162101,4437.5851,N,12402.8851,W,2,07,01.3,19.8,M,-22.1,M,11.0,0272*6A
08/05/2019,16:21:02.690,$GPGGA,162102,4437.5851,N,12402.8851,W,2,07,01.3,19.8,M,-22.1,M,10.0,0272*68
08/05/2019,16:21:03.606,$GPGGA,162103,4437.5851,N,12402.8851,W,2,07,01.3,19.8,M,-22.1,M,11.0,0272*68
08/05/2019,16:21:04.635,$GPGGA,162104,4437.5851,N,12402.8851,W,2,07,01.3,19.8,M,-22.1,M,12.0,0272*6C
08/05/2019,16:21:05.728,$GPGGA,162105,4437.5851,N,12402.8851,W,2,07,01.3,19.8,M,-22.1,M,09.0,0272*67
08/05/2019,16:21:06.639,$GPGGA,162106,4437.5851,N,12402.8851,W,2,07,01.3,19.8,M,-22.1,M,10.0,0272*6C
08/05/2019,16:21:07.657,$GPGGA,162107,4437.5851,N,12402.8851,W,2,07,01.3,19.8,M,-22.1,M,09.0,0272*65
08/05/2019,16:21:08.687,$GPGGA,162108,4437.5851,N,12402.8851,W,2,07,01.3,19.7,M,-22.1,M,10.0,0272*6D
08/05/2019,16:21:09.780,$GPGGA,162109,4437.5851,N,12402.8851,W,2,07,01.3,19.7,M,-22.1,M,11.0,0272*6D
08/05/2019,16:21:10.604,$GPGGA,162110,4437.5851,N,12402.8851,W,2,07,01.3,19.7,M,-22.1,M,12.0,0272*66
08/05/2019,16:21:11.617,$GPGGA,162111,4437.5851,N,12402.8851,W,2,07,01.3,19.7,M,-22.1,M,12.0,0272*67
08/05/2019,16:21:12.614,$GPGGA,162112,4437.5851,N,12402.8851,W,2,07,01.3,19.7,M,-22.1,M,13.0,0272*65
08/05/2019,16:21:13.728,$GPGGA,162113,4437.5851,N,12402.8851,W,2,07,01.3,19.6,M,-22.1,M,10.0,0272*66
08/05/2019,16:21:14.640,$GPGGA,162114,4437.5851,N,12402.8851,W,2,07,01.3,19.6,M,-22.1,M,11.0,0272*60
08/05/2019,16:21:15.656,$GPGGA,162115,4437.5851,N,12402.8851,W,2,07,01.3,19.6,M,-22.1,M,08.0,0272*69
08/05/2019,16:21:16.686,$GPGGA,162116,4437.5851,N,12402.8851,W,2,07,01.3,19.6,M,-22.1,M,09.0,0272*6B
08/05/2019,16:21:17.704,$GPGGA,162117,4437.5851,N,12402.8851,W,2,07,01.3,19.6,M,-22.1,M,10.0,0272*62
08/05/2019,16:21:18.604,$GPGGA,162118,4437.5851,N,12402.8851,W,2,07,01.3,19.5,M,-22.1,M,11.0,0272*6F
08/05/2019,16:21:19.707,$GPGGA,162119,4437.5850,N,12402.8851,W,2,07,01.3,19.5,M,-22.1,M,11.0,0272*6F
08/05/2019,16:21:20.647,$GPGGA,162120,4437.5850,N,12402.8851,W,2,07,01.3,19.5,M,-22.1,M,12.0,0272*66
08/05/2019,16:21:21.729,$GPGGA,162121,4437.5850,N,12402.8851,W,2,07,01.3,19.5,M,-22.1,M,13.0,0272*66
08/05/2019,16:21:22.592,$GPGGA,162122,4437.5850,N,12402.8851,W,2,07,01.3,19.5,M,-22.1,M,14.0,0272*62
08/05/2019,16:21:23.618,$GPGGA,162123,4437.5850,N,12402.8851,W,2,07,01.3,19.5,M,-22.1,M,11.0,0272*66
08/05/2019,16:21:24.698,$GPGGA,162124,4437.5850,N,12402.8851,W,2,07,01.3,19.5,M,-22.1,M,12.0,0272*62
08/05/2019,16:21:25.729,$GPGGA,162125,4437.5850,N,12402.8851,W,2,07,01.3,19.5,M,-22.1,M,10.0,0272*61
08/05/2019,16:21:26.695,$GPGGA,162126,4437.5850,N,12402.8851,W,2,07,01.3,19.4,M,-22.1,M,11.0,0272*62
08/05/2019,16:21:27.618,$GPGGA,162127,4437.5850,N,12402.8851,W,2,07,01.3,19.4,M,-22.1,M,12.0,0272*60
08/05/2019,16:21:28.694,$GPGGA,162128,4437.5850,N,12402.8851,W,2,07,01.3,19.4,M,-22.1,M,09.0,0272*65
08/05/2019,16:21:29.780,$GPGGA,162129,4437.5850,N,12402.8851,W,2,07,01.3,19.4,M,-22.1,M,10.0,0272*6C
08/05/2019,16:21:30.641,$GPGGA,162130,4437.5850,N,12402.8851,W,2,07,01.3,19.4,M,-22.1,M,11.0,0272*65
08/05/2019,16:21:31.667,$GPGGA,162131,4437.5850,N,12402.8851,W,2,07,01.3,19.4,M,-22.1,M,11.0,0272*64
08/05/2019,16:21:32.647,$GPGGA,162132,4437.5850,N,12402.8851,W,2,07,01.3,19.4,M,-22.1,M,12.0,0272*64
08/05/2019,16:21:33.733,$GPGGA,162133,4437.5850,N,12402.8851,W,2,07,01.3,19.4,M,-22.1,M,13.0,0272*64
08/05/2019,16:21:34.654,$GPGGA,162134,4437.5850,N,12402.8851,W,2,07,01.3,19.4,M,-22.1,M,10.0,0272*60
08/05/2019,16:21:35.667,$GPGGA,162135,4437.5850,N,12402.8851,W,2,07,01.3,19.4,M,-22.1,M,11.0,0272*60
08/05/2019,16:21:36.637,$GPGGA,162136,4437.5850,N,12402.8851,W,2,07,01.3,19.4,M,-22.1,M,12.0,0272*60
08/05/2019,16:21:37.731,$GPGGA,162137,4437.5850,N,12402.8851,W,2,07,01.3,19.4,M,-22.1,M,13.0,0272*60
08/05/2019,16:21:38.641,$GPGGA,162138,4437.5850,N,12402.8851,W,2,07,01.3,19.4,M,-22.1,M,11.0,0272*6D
08/05/2019,16:21:39.666,$GPGGA,162139,4437.5850,N,12402.8851,W,2,07,01.3,19.4,M,-22.1,M,12.0,0272*6F
08/05/2019,16:21:40.636,$GPGGA,162140,4437.5850,N,12402.8850,W,2,07,01.3,19.4,M,-22.1,M,10.0,0272*62
08/05/2019,16:21:41.781,$GPGGA,162141,4437.5850,N,12402.8850,W,2,07,01.3,19.4,M,-22.1,M,11.0,0272*62
08/05/2019,16:21:42.605,$GPGGA,162142,4437.5850,N,12402.8850,W,2,07,01.3,19.4,M,-22.1,M,12.0,0272*62
08/05/2019,16:21:43.667,$GPGGA,162143,4437.5850,N,12402.8850,W,2,07,01.3,19.4,M,-22.1,M,09.0,0272*69
08/05/2019,16:21:44.637,$GPGGA,162144,4437.5850,N,12402.8850,W,2,07,01.3,19.4,M,-22.1,M,10.0,0272*66
08/05/2019,16:21:45.730,$GPGGA,162145,4437.5850,N,12402.8850,W,2,07,01.3,19.4,M,-22.1,M,11.0,0272*66
08/05/2019,16:21:46.686,$GPGGA,162146,4437.5850,N,12402.8850,W,2,07,01.3,19.4,M,-22.1,M,11.0,0272*65
08/05/2019,16:21:47.620,$GPGGA,162147,4437.5850,N,12402.8850,W,2,07,01.3,19.4,M,-22.1,M,12.0,0272*67
08/05/2019,16:21:48.590,$GPGGA,162148,4437.5850,N,12402.8850,W,2,07,01.3,19.4,M,-22.1,M,13.0,0272*69
08/05/2019,16:21:49.681,$GPGGA,162149,4437.5850,N,12402.8850,W,2,07,01.3,19.4,M,-22.1,M,10.0,0272*6B
08/05/2019,16:21:50.592,$GPGGA,162150,4437.5850,N,12402.8850,W,2,07,01.3,19.4,M,-22.1,M,11.0,0272*62
08/05/2019,16:21:51.607,$GPGGA,162151,4437.5850,N,12402.8850,W,2,07,01.3,19.4,M,-22.1,M,12.0,0272*60
08/05/2019,16:21:52.599,$GPGGA,162152,4437.5850,N,12402.8850,W,2,07,01.3,19.4,M,-22.1,M,10.0,0272*61
08/05/2019,16:21:53.692,$GPGGA,162153,4437.5850,N,12402.8850,W,2,07,01.3,19.4,M,-22.1,M,11.0,0272*61
08/05/2019,16:21:54.593,$GPGGA,162154,4437.5850,N,12402.8850,W,2,07,01.3,19.4,M,-22.1,M,12.0,0272*65
08/05/2019,16:21:55.609,$GPGGA,162155,4437.5850,N,12402.8850,W,2,07,01.3,19.4,M,-22.1,M,10.0,0272*66
08/05/2019,16:21:56.601,$GPGGA,162156,4437.5850,N,12402.8850,W,2,07,01.3,19.4,M,-22.1,M,11.0,0272*64
08/05/2019,16:21:57.693,$GPGGA,162157,4437.5850,N,12402.8850,W,2,07,01.3,19.4,M,-22.1,M,12.0,0272*66
08/05/2019,16:21:58.593,$GPGGA,162158,4437.5850,N,12402.8850,W,2,07,01.3,19.4,M,-22.1,M,10.0,0272*6B
08/05/2019,16:21:59.715,$GPGGA,162159,4437.5850,N,12402.8850,W,2,07,01.3,19.4,M,-22.1,M,11.0,0272*6B
08/05/2019,16:22:00.592,$GPGGA,162200,4437.5850,N,12402.8850,W,2,07,01.3,19.4,M,-22.1,M,12.0,0272*67
08/05/2019,16:22:01.730,$GPGGA,162201,4437.5850,N,12402.8850,W,2,07,01.3,19.4,M,-22.1,M,10.0,0272*64
08/05/2019,16:22:02.592,$GPGGA,162202,4437.5850,N,12402.8850,W,2,07,01.3,19.4,M,-22.1,M,11.0,0272*66
08/05/2019,16:22:03.669,$GPGGA,162203,4437.5850,N,12402.8850,W,2,07,01.3,19.4,M,-22.1,M,12.0,0272*64
08/05/2019,16:22:04.638,$GPGGA,162204,4437.5850,N,12402.8850,W,2,07,01.3,19.3,M,-22.1,M,13.0,0272*65
08/05/2019,16:22:05.735,$GPGGA,162205,4437.5850,N,12402.8850,W,2,07,01.3,19.4,M,-22.1,M,11.0,0272*61
08/05/2019,16:22:06.687,$GPGGA,162206,4437.5850,N,12402.8850,W,2,07,01.3,19.4,M,-22.1,M,12.0,0272*61
08/05/2019,16:22:07.719,$GPGGA,162207,4437.5850,N,12402.8850,W,2,07,01.3,19.4,M,-22.1,M,10.0,0272*62
08/05/2019,16:22:08.592,$GPGGA,162208,4437.5850,N,12402.8850,W,2,07,01.3,19.4,M,-22.1,M,11.0,0272*6C
08/05/2019,16:22:09.731,$GPGGA,162209,4437.5850,N,12402.8850,W,2,07,01.3,19.3,M,-22.1,M,12.0,0272*69
08/05/2019,16:22:10.642,$GPGGA,162210,4437.5850,N,12402.8850,W,2,07,01.3,19.3,M,-22.1,M,09.0,0272*6B
08/05/2019,16:22:11.658,$GPGGA,162211,4437.5850,N,12402.8850,W,2,07,01.3,19.3,M,-22.1,M,10.0,0272*62
08/05/2019,16:22:12.695,$GPGGA,162212,4437.5850,N,12402.8850,W,2,07,01.3,19.3,M,-22.1,M,11.0,0272*60
08/05/2019,16:22:13.781,$GPGGA,162213,4437.5850,N,12402.8850,W,2,07,01.3,19.3,M,-22.1,M,11.0,0272*61
08/05/2019,16:22:14.606,$GPGGA,162214,4437.5850,N,12402.8850,W,2,07,01.3,19.3,M,-22.1,M,12.0,0272*65
08/05/2019,16:22:15.620,$GPGGA,162215,4437.5850,N,12402.8850,W,2,07,01.3,19.3,M,-22.1,M,13.0,0272*65
08/05/2019,16:22:16.592,$GPGGA,162216,4437.5850,N,12402.8850,W,2,07,01.3,19.3,M,-22.1,M,10.0,0272*65
08/05/2019,16:22:17.693,$GPGGA,162217,4437.5850,N,12402.8850,W,2,07,01.3,19.3,M,-22.1,M,11.0,0272*65
08/05/2019,16:22:18.594,$GPGGA,162218,4437.5850,N,12402.8850,W,2,07,01.3,19.3,M,-22.1,M,12.0,0272*69
08/05/2019,16:22:19.709,$GPGGA,162219,4437.5850,N,12402.8850,W,2,07,01.3,19.3,M,-22.1,M,13.0,0272*69
08/05/2019,16:22:20.592,$GPGGA,162220,4437.5850,N,12402.8850,W,2,07,01.3,19.3,M,-22.1,M,11.0,0272*61
08/05/2019,16:22:21.731,$GPGGA,162221,4437.5850,N,12402.8850,W,2,07,01.3,19.3,M,-22.1,M,12.0,0272*63
08/05/2019,16:22:22.643,$GPGGA,162222,4437.5850,N,12402.8850,W,2,07,01.3,19.3,M,-22.1,M,13.0,0272*61
08/05/2019,16:22:23.659,$GPGGA,162223,4437.5850,N,12402.8850,W,2,07,01.3,19.3,M,-22.1,M,11.0,0272*62
08/05/2019,16:22:24.689,$GPGGA,162224,4437.5850,N,12402.8850,W,2,07,01.3,19.3,M,-22.1,M,12.0,0272*66
08/05/2019,16:22:25.783,$GPGGA,162225,4437.5850,N,12402.8850,W,2,07,01.3,19.3,M,-22.1,M,13.0,0272*66
