06/07/2019,22:33:43.552,$GPGGA,223342,4437.5830,N,12402.9429,W,2,07,01.4,21.9,M,-22.1,M,11.0,0302*67
06/07/2019,22:33:44.519,$GPGGA,223343,4437.5830,N,12402.9429,W,2,07,01.4,21.9,M,-22.1,M,12.0,0302*65
06/07/2019,22:33:45.611,$GPGGA,223344,4437.5830,N,12402.9429,W,2,07,01.4,21.9,M,-22.1,M,10.0,0302*60
06/07/2019,22:33:46.617,$GPGGA,223345,4437.5830,N,12402.9429,W,2,07,01.4,21.9,M,-22.1,M,11.0,0302*60
06/07/2019,22:33:47.538,$GPGGA,223346,4437.5830,N,12402.9429,W,2,07,01.4,21.9,M,-22.1,M,12.0,0302*60
06/07/2019,22:33:48.519,$GPGGA,223347,4437.5830,N,12402.9429,W,2,07,01.4,21.9,M,-22.1,M,10.0,0302*63
06/07/2019,22:33:49.769,$GPGGA,223348,4437.5830,N,12402.9430,W,2,07,01.4,21.9,M,-22.1,M,11.0,0302*65
06/07/2019,22:33:50.512,$GPGGA,223349,4437.5830,N,12402.9430,W,2,07,01.4,21.9,M,-22.1,M,12.0,0302*67
06/07/2019,22:33:51.539,$GPGGA,223350,4437.5830,N,12402.9430,W,2,07,01.4,21.9,M,-22.1,M,10.0,0302*6D
06/07/2019,22:33:52.519,$GPGGA,223351,4437.5830,N,12402.9430,W,2,07,01.4,21.9,M,-22.1,M,11.0,0302*6D
06/07/2019,22:33:53.612,$GPGGA,223352,4437.5830,N,12402.9430,W,2,07,01.4,21.9,M,-22.1,M,12.0,0302*6D
06/07/2019,22:33:54.612,$GPGGA,223353,4437.5830,N,12402.9430,W,2,07,01.4,21.9,M,-22.1,M,10.0,0302*6E
06/07/2019,22:33:55.539,$GPGGA,223354,4437.5830,N,12402.9430,W,2,07,01.4,21.9,M,-22.1,M,11.0,0302*68
06/07/2019,22:33:56.607,$GPGGA,223355,4437.5830,N,12402.9430,W,2,07,01.4,21.9,M,-22.1,M,12.0,0302*6A
06/07/2019,22:33:57.612,$GPGGA,223356,4437.5830,N,12402.9430,W,2,07,01.4,21.9,M,-22.1,M,10.0,0302*6B
06/07/2019,22:33:58.612,$GPGGA,223357,4437.5830,N,12402.9430,W,2,07,01.4,21.9,M,-22.1,M,11.0,0302*6B
06/07/2019,22:33:59.927,$GPGGA,223358,4437.5830,N,12402.9430,W,2,07,01.4,21.9,M,-22.1,M,09.0,0302*6D
06/07/2019,22:34:00.610,$GPGGA,223359,4437.5830,N,12402.9430,W,2,07,01.4,22.0,M,-22.1,M,10.0,0302*6E
06/07/2019,22:34:01.621,$GPGGA,223400,4437.5830,N,12402.9430,W,2,07,01.4,22.0,M,-22.1,M,08.0,0302*6C
06/07/2019,22:34:02.512,$GPGGA,223401,4437.5830,N,12402.9430,W,2,07,01.4,22.0,M,-22.1,M,09.0,0302*6C
06/07/2019,22:34:03.581,$GPGGA,223402,4437.5830,N,12402.9430,W,2,07,01.4,22.0,M,-22.1,M,10.0,0302*67
06/07/2019,22:34:04.566,$GPGGA,223403,4437.5830,N,12402.9430,W,2,07,01.4,22.0,M,-22.1,M,10.0,0302*66
06/07/2019,22:34:05.450,$GPGGA,223404,4437.5830,N,12402.9430,W,2,07,01.4,22.0,M,-22.1,M,11.0,0302*60
06/07/2019,22:34:06.562,$GPGGA,223405,4437.5830,N,12402.9430,W,2,07,01.4,22.0,M,-22.1,M,12.0,0302*62
06/07/2019,22:34:07.589,$GPGGA,223406,4437.5830,N,12402.9430,W,2,07,01.4,22.0,M,-22.1,M,10.0,0302*63
06/07/2019,22:34:08.566,$GPGGA,223407,4437.5830,N,12402.9430,W,2,07,01.4,22.0,M,-22.1,M,11.0,0302*63
06/07/2019,22:34:09.654,$GPGGA,223408,4437.5830,N,12402.9430,W,2,07,01.4,22.0,M,-22.1,M,12.0,0302*6F
06/07/2019,22:34:10.561,$GPGGA,223409,4437.5830,N,12402.9430,W,2,07,01.4,22.0,M,-22.1,M,10.0,0302*6C
06/07/2019,22:34:11.582,$GPGGA,223410,4437.5830,N,12402.9430,W,2,07,01.4,22.0,M,-22.1,M,11.0,0302*65
06/07/2019,22:34:12.680,$GPGGA,223411,4437.5830,N,12402.9430,W,2,07,01.4,22.0,M,-22.1,M,12.0,0302*67
06/07/2019,22:34:13.451,$GPGGA,223412,4437.5830,N,12402.9430,W,2,07,01.4,22.0,M,-22.1,M,13.0,0302*65
06/07/2019,22:34:14.562,$GPGGA,223413,4437.5830,N,12402.9430,W,2,07,01.4,22.0,M,-22.1,M,11.0,0302*66
06/07/2019,22:34:15.582,$GPGGA,223414,4437.5830,N,12402.9430,W,2,07,01.4,22.0,M,-22.1,M,12.0,0302*62
06/07/2019,22:34:16.569,$GPGGA,223415,4437.5830,N,12402.9430,W,2,07,01.4,22.0,M,-22.1,M,13.0,0302*62
06/07/2019,22:34:17.662,$GPGGA,223416,4437.5830,N,12402.9430,W,2,07,01.4,22.0,M,-22.1,M,11.0,0302*63
06/07/2019,22:34:18.562,$GPGGA,223417,4437.5830,N,12402.9430,W,2,07,01.4,22.0,M,-22.1,M,12.0,0302*61
06/07/2019,22:34:19.582,$GPGGA,223418,4437.5830,N,12402.9430,W,2,07,01.4,22.0,M,-22.1,M,13.0,0302*6F
06/07/2019,22:34:20.566,$GPGGA,223419,4437.5830,N,12402.9430,W,2,07,01.4,22.0,M,-22.1,M,10.0,0302*6D
06/07/2019,22:34:22.663,$GPGGA,223421,4437.5830,N,12402.9430,W,2,07,01.4,22.1,M,-22.1,M,12.0,0302*65
06/07/2019,22:34:23.558,$GPGGA,223422,4437.5830,N,12402.9430,W,2,07,01.4,22.1,M,-22.1,M,10.0,0302*64
06/07/2019,22:34:24.624,$GPGGA,223423,4437.5830,N,12402.9430,W,2,07,01.4,22.1,M,-22.1,M,11.0,0302*64
06/07/2019,22:34:26.570,$GPGGA,223425,4437.5831,N,12402.9430,W,2,07,01.4,22.1,M,-22.1,M,10.0,0302*62
06/07/2019,22:34:27.451,$GPGGA,223426,4437.5831,N,12402.9430,W,2,07,01.4,22.1,M,-22.1,M,11.0,0302*60
06/07/2019,22:34:28.561,$GPGGA,223427,4437.5831,N,12402.9430,W,2,07,01.4,22.1,M,-22.1,M,12.0,0302*62
06/07/2019,22:34:30.589,$GPGGA,223429,4437.5831,N,12402.9430,W,2,07,01.4,22.1,M,-22.1,M,11.0,0302*6F
06/07/2019,22:34:32.069,$GPGGA,223430,4437.5831,N,12402.9430,W,2,07,01.4,22.1,M,-22.1,M,12.0,0302*64
06/07/2019,22:34:32.682,$GPGGA,223431,4437.5831,N,12402.9430,W,2,07,01.4,22.1,M,-22.1,M,10.0,0302*67
06/07/2019,22:34:33.714,$GPGGA,223432,4437.5831,N,12402.9430,W,2,07,01.4,22.1,M,-22.1,M,11.0,0302*65
06/07/2019,22:34:34.540,$GPGGA,223433,4437.5831,N,12402.9430,W,2,07,01.4,22.1,M,-22.1,M,12.0,0302*67
06/07/2019,22:34:35.521,$GPGGA,223434,4437.5831,N,12402.9430,W,2,07,01.4,22.1,M,-22.1,M,10.0,0302*62
06/07/2019,22:34:36.702,$GPGGA,223435,4437.5831,N,12402.9430,W,2,07,01.4,22.1,M,-22.1,M,11.0,0302*62
06/07/2019,22:34:37.514,$GPGGA,223436,4437.5831,N,12402.9430,W,2,07,01.4,22.1,M,-22.1,M,12.0,0302*62
06/07/2019,22:34:38.540,$GPGGA,223437,4437.5831,N,12402.9430,W,2,07,01.4,22.2,M,-22.1,M,10.0,0302*62
06/07/2019,22:34:39.610,$GPGGA,223438,4437.5831,N,12402.9430,W,2,07,01.4,22.2,M,-22.1,M,11.0,0302*6C
06/07/2019,22:34:40.634,$GPGGA,223439,4437.5831,N,12402.9430,W,2,07,01.4,22.2,M,-22.1,M,12.0,0302*6E
06/07/2019,22:34:41.514,$GPGGA,223440,4437.5831,N,12402.9430,W,2,07,01.4,22.2,M,-22.1,M,10.0,0302*62
06/07/2019,22:34:42.929,$GPGGA,223441,4437.5831,N,12402.9430,W,2,07,01.4,22.2,M,-22.1,M,11.0,0302*62
06/07/2019,22:34:43.611,$GPGGA,223442,4437.5831,N,12402.9430,W,2,07,01.4,22.2,M,-22.1,M,12.0,0302*62
06/07/2019,22:34:44.627,$GPGGA,223443,4437.5831,N,12402.9430,W,2,07,01.4,22.2,M,-22.1,M,10.0,0302*61
06/07/2019,22:34:45.515,$GPGGA,223444,4437.5831,N,12402.9430,W,2,07,01.4,22.2,M,-22.1,M,11.0,0302*67
06/07/2019,22:34:46.562,$GPGGA,223445,4437.5831,N,12402.9430,W,2,07,01.4,22.2,M,-22.1,M,09.0,0302*6F
06/07/2019,22:34:47.528,$GPGGA,223446,4437.5831,N,12402.9430,W,2,07,01.4,22.2,M,-22.1,M,10.0,0302*64
06/07/2019,22:34:48.704,$GPGGA,223447,4437.5831,N,12402.9430,W,2,07,01.4,22.2,M,-22.1,M,08.0,0302*6C
06/07/2019,22:34:49.515,$GPGGA,223448,4437.5831,N,12402.9430,W,2,07,01.4,22.2,M,-22.1,M,09.0,0302*62
06/07/2019,22:34:50.930,$GPGGA,223449,4437.5831,N,12402.9430,W,2,07,01.4,22.2,M,-22.1,M,10.0,0302*6B
06/07/2019,22:34:51.612,$GPGGA,223450,4437.5831,N,12402.9430,W,2,07,01.4,22.2,M,-22.1,M,11.0,0302*62
06/07/2019,22:34:52.615,$GPGGA,223451,4437.5831,N,12402.9430,W,2,07,01.4,22.2,M,-22.1,M,08.0,0302*6B
06/07/2019,22:34:53.514,$GPGGA,223452,4437.5831,N,12402.9430,W,2,07,01.4,22.2,M,-22.1,M,09.0,0302*69
06/07/2019,22:34:54.541,$GPGGA,223453,4437.5831,N,12402.9430,W,2,07,01.4,22.2,M,-22.1,M,10.0,0302*60
06/07/2019,22:34:55.522,$GPGGA,223454,4437.5831,N,12402.9430,W,2,07,01.4,22.2,M,-22.1,M,10.0,0302*67
06/07/2019,22:34:56.615,$GPGGA,223455,4437.5831,N,12402.9430,W,2,07,01.4,22.2,M,-22.1,M,11.0,0302*67
06/07/2019,22:34:57.516,$GPGGA,223456,4437.5831,N,12402.9430,W,2,07,01.4,22.2,M,-22.1,M,12.0,0302*67
06/07/2019,22:34:58.542,$GPGGA,223457,4437.5831,N,12402.9430,W,2,07,01.4,22.2,M,-22.1,M,09.0,0302*6C
06/07/2019,22:34:59.524,$GPGGA,223458,4437.5831,N,12402.9430,W,2,07,01.4,22.2,M,-22.1,M,10.0,0302*6B
06/07/2019,22:35:00.615,$GPGGA,223459,4437.5831,N,12402.9430,W,2,07,01.4,22.2,M,-22.1,M,11.0,0302*6B
06/07/2019,22:35:01.515,$GPGGA,223500,4437.5831,N,12402.9430,W,2,07,01.4,22.2,M,-22.1,M,12.0,0302*65
06/07/2019,22:35:02.542,$GPGGA,223501,4437.5831,N,12402.9430,W,2,07,01.4,22.2,M,-22.1,M,10.0,0302*66
06/07/2019,22:35:03.522,$GPGGA,223502,4437.5831,N,12402.9430,W,2,07,01.4,22.2,M,-22.1,M,11.0,0302*64
06/07/2019,22:35:04.614,$GPGGA,223503,4437.5831,N,12402.9430,W,2,07,01.4,22.2,M,-22.1,M,12.0,0302*66
06/07/2019,22:35:05.604,$GPGGA,223504,4437.5831,N,12402.9430,W,2,07,01.4,22.2,M,-22.1,M,10.0,0302*63
06/07/2019,22:35:06.932,$GPGGA,223505,4437.5831,N,12402.9430,W,2,07,01.4,22.2,M,-22.1,M,11.0,0302*63
06/07/2019,22:35:08.612,$GPGGA,223507,4437.5831,N,12402.9430,W,2,07,01.4,22.2,M,-22.1,M,10.0,0302*60
06/07/2019,22:35:09.626,$GPGGA,223508,4437.5831,N,12402.9430,W,2,07,01.4,22.2,M,-22.1,M,11.0,0302*6E
06/07/2019,22:35:10.515,$GPGGA,223509,4437.5831,N,12402.9430,W,2,07,01.4,22.2,M,-22.1,M,09.0,0302*66
06/07/2019,22:35:11.543,$GPGGA,223510,4437.5831,N,12402.9430,W,2,07,01.4,22.2,M,-22.1,M,10.0,0302*66
06/07/2019,22:35:12.522,$GPGGA,223511,4437.5831,N,12402.9430,W,2,07,01.4,22.2,M,-22.1,M,11.0,0302*66
06/07/2019,22:35:13.616,$GPGGA,223512,4437.5831,N,12402.9430,W,2,07,01.4,22.2,M,-22.1,M,11.0,0302*65
06/07/2019,22:35:14.515,$GPGGA,223513,4437.5831,N,12402.9430,W,2,07,01.4,22.2,M,-22.1,M,12.0,0302*67
06/07/2019,22:35:15.631,$GPGGA,223514,4437.5831,N,12402.9430,W,2,07,01.4,22.2,M,-22.1,M,13.0,0302*61
06/07/2019,22:35:16.522,$GPGGA,223515,4437.5831,N,12402.9430,W,2,07,01.4,22.2,M,-22.1,M,09.0,0302*6B
06/07/2019,22:35:17.710,$GPGGA,223516,4437.5831,N,12402.9430,W,2,07,01.4,22.2,M,-22.1,M,10.0,0302*60
06/07/2019,22:35:18.515,$GPGGA,223517,4437.5831,N,12402.9430,W,2,07,01.4,22.2,M,-22.1,M,11.0,0302*60
06/07/2019,22:35:19.544,$GPGGA,223518,4437.5831,N,12402.9430,W,2,07,01.4,22.2,M,-22.1,M,09.0,0302*66
06/07/2019,22:35:20.523,$GPGGA,223519,4437.5831,N,12402.9430,W,2,07,01.4,22.2,M,-22.1,M,10.0,0302*6F
06/07/2019,22:35:21.705,$GPGGA,223520,4437.5831,N,12402.9430,W,2,07,01.4,22.2,M,-22.1,M,11.0,0302*64
06/07/2019,22:35:22.515,$GPGGA,223521,4437.5831,N,12402.9430,W,2,07,01.4,22.2,M,-22.1,M,12.0,0302*66
06/07/2019,22:35:23.543,$GPGGA,223522,4437.5831,N,12402.9430,W,2,07,01.4,22.2,M,-22.1,M,10.0,0302*67
06/07/2019,22:35:24.523,$GPGGA,223523,4437.5831,N,12402.9430,W,2,07,01.4,22.2,M,-22.1,M,11.0,0302*67
06/07/2019,22:35:25.705,$GPGGA,223524,4437.5831,N,12402.9430,W,2,07,01.4,22.2,M,-22.1,M,12.0,0302*63
06/07/2019,22:35:26.516,$GPGGA,223525,4437.5831,N,12402.9430,W,2,07,01.4,22.2,M,-22.1,M,10.0,0302*60
06/07/2019,22:35:27.642,$GPGGA,223526,4437.5831,N,12402.9430,W,2,07,01.4,22.2,M,-22.1,M,11.0,0302*62
06/07/2019,22:35:28.523,$GPGGA,223527,4437.5831,N,12402.9430,W,2,07,01.4,22.2,M,-22.1,M,12.0,0302*60
06/07/2019,22:35:29.617,$GPGGA,223528,4437.5831,N,12402.9430,W,2,07,01.4,22.2,M,-22.1,M,10.0,0302*6D
06/07/2019,22:35:30.617,$GPGGA,223529,4437.5831,N,12402.9430,W,2,07,01.4,22.2,M,-22.1,M,11.0,0302*6D
06/07/2019,22:35:31.543,$GPGGA,223530,4437.5831,N,12402.9430,W,2,07,01.4,22.2,M,-22.1,M,12.0,0302*66
06/07/2019,22:35:32.630,$GPGGA,223531,4437.5831,N,12402.9430,W,2,07,01.4,22.2,M,-22.1,M,10.0,0302*65
06/07/2019,22:35:33.616,$GPGGA,223532,4437.5831,N,12402.9430,W,2,07,01.4,22.2,M,-22.1,M,11.0,0302*67
06/07/2019,22:35:34.617,$GPGGA,223533,4437.5831,N,12402.9430,W,2,07,01.4,22.2,M,-22.1,M,12.0,0302*65
06/07/2019,22:35:35.544,$GPGGA,223534,4437.5831,N,12402.9430,W,2,07,01.4,22.2,M,-22.1,M,10.0,0302*60
06/07/2019,22:35:36.636,$GPGGA,223535,4437.5831,N,12402.9430,W,2,07,01.4,22.2,M,-22.1,M,11.0,0302*60
06/07/2019,22:35:38.716,$GPGGA,223537,4437.5831,N,12402.9430,W,2,07,01.4,22.2,M,-22.1,M,10.0,0302*63
06/07/2019,22:35:39.517,$GPGGA,223538,4437.5831,N,12402.9430,W,2,07,01.4,22.2,M,-22.1,M,11.0,0302*6D
06/07/2019,22:35:40.544,$GPGGA,223539,4437.5831,N,12402.9430,W,2,07,01.4,22.2,M,-22.1,M,12.0,0302*6F
06/07/2019,22:35:41.613,$GPGGA,223540,4437.5831,N,12402.9430,W,2,07,01.4,22.2,M,-22.1,M,10.0,0302*63
06/07/2019,22:35:42.616,$GPGGA,223541,4437.5831,N,12402.9430,W,2,07,01.4,22.2,M,-22.1,M,11.0,0302*63
06/07/2019,22:35:43.560,$GPGGA,223542,4437.5831,N,12402.9430,W,2,07,01.4,22.3,M,-22.1,M,12.0,0302*62
06/07/2019,22:35:44.590,$GPGGA,223543,4437.5831,N,12402.9430,W,2,07,01.4,22.3,M,-22.1,M,13.0,0302*62
06/07/2019,22:35:45.362,$GPGGA,223544,4437.5831,N,12402.9430,W,2,07,01.4,22.3,M,-22.1,M,11.0,0302*67
06/07/2019,22:35:46.666,$GPGGA,223545,4437.5831,N,12402.9430,W,2,07,01.4,22.3,M,-22.1,M,12.0,0302*65
06/07/2019,22:35:47.566,$GPGGA,223546,4437.5831,N,12402.9430,W,2,07,01.4,22.3,M,-22.1,M,10.0,0302*64
06/07/2019,22:35:48.382,$GPGGA,223547,4437.5831,N,12402.9430,W,2,07,01.4,22.3,M,-22.1,M,11.0,0302*64
06/07/2019,22:35:49.565,$GPGGA,223548,4437.5831,N,12402.9430,W,2,07,01.4,22.3,M,-22.1,M,08.0,0302*63
06/07/2019,22:35:50.666,$GPGGA,223549,4437.5831,N,12402.9430,W,2,07,01.4,22.3,M,-22.1,M,09.0,0302*63
06/07/2019,22:35:51.561,$GPGGA,223550,4437.5831,N,12402.9430,W,2,07,01.4,22.3,M,-22.1,M,10.0,0302*63
06/07/2019,22:35:52.593,$GPGGA,223551,4437.5831,N,12402.9430,W,2,07,01.4,22.3,M,-22.1,M,10.0,0302*62
06/07/2019,22:35:53.566,$GPGGA,223552,4437.5831,N,12402.9430,W,2,07,01.4,22.3,M,-22.1,M,11.0,0302*60
06/07/2019,22:35:54.772,$GPGGA,223553,4437.5831,N,12402.9431,W,2,07,01.4,22.3,M,-22.1,M,12.0,0302*63
06/07/2019,22:35:55.560,$GPGGA,223554,4437.5831,N,12402.9431,W,2,07,01.4,22.3,M,-22.1,M,09.0,0302*6E
06/07/2019,22:35:57.593,$GPGGA,223556,4437.5831,N,12402.9431,W,2,07,01.4,22.3,M,-22.1,M,11.0,0302*65
06/07/2019,22:35:58.574,$GPGGA,223557,4437.5831,N,12402.9431,W,2,07,01.4,22.3,M,-22.1,M,09.0,0302*6D
06/07/2019,22:35:59.658,$GPGGA,223558,4437.5831,N,12402.9431,W,2,07,01.4,22.3,M,-22.1,M,10.0,0302*6A
06/07/2019,22:36:00.564,$GPGGA,223559,4437.5831,N,12402.9431,W,2,07,01.4,22.3,M,-22.1,M,08.0,0302*62
06/07/2019,22:36:02.601,$GPGGA,223601,4437.5831,N,12402.9431,W,2,07,01.4,22.3,M,-22.1,M,08.0,0302*6C
06/07/2019,22:36:03.566,$GPGGA,223602,4437.5831,N,12402.9431,W,2,07,01.4,22.3,M,-22.1,M,09.0,0302*6E
06/07/2019,22:36:04.663,$GPGGA,223603,4437.5831,N,12402.9431,W,2,07,01.4,22.3,M,-22.1,M,10.0,0302*67
06/07/2019,22:36:05.411,$GPGGA,223604,4437.5831,N,12402.9431,W,2,07,01.4,22.3,M,-22.1,M,10.0,0302*60
06/07/2019,22:36:06.594,$GPGGA,223605,4437.5831,N,12402.9431,W,2,07,01.4,22.3,M,-22.1,M,11.0,0302*60
06/07/2019,22:36:07.363,$GPGGA,223606,4437.5831,N,12402.9431,W,2,07,01.4,22.3,M,-22.1,M,09.0,0302*6A
06/07/2019,22:36:08.663,$GPGGA,223607,4437.5831,N,12402.9431,W,2,07,01.4,22.3,M,-22.1,M,10.0,0302*63
06/07/2019,22:36:09.561,$GPGGA,223608,4437.5831,N,12402.9431,W,2,07,01.4,22.3,M,-22.1,M,11.0,0302*6D
06/07/2019,22:36:10.594,$GPGGA,223609,4437.5831,N,12402.9431,W,2,07,01.4,22.3,M,-22.1,M,11.0,0302*6C
06/07/2019,22:36:11.363,$GPGGA,223610,4437.5831,N,12402.9431,W,2,07,01.4,22.3,M,-22.1,M,12.0,0302*67
06/07/2019,22:36:12.666,$GPGGA,223611,4437.5831,N,12402.9431,W,2,07,01.4,22.3,M,-22.1,M,13.0,0302*67
06/07/2019,22:36:13.358,$GPGGA,223612,4437.5831,N,12402.9431,W,2,07,01.4,22.3,M,-22.1,M,10.0,0302*67
06/07/2019,22:36:14.594,$GPGGA,223613,4437.5831,N,12402.9431,W,2,07,01.4,22.3,M,-22.1,M,11.0,0302*67
06/07/2019,22:36:15.567,$GPGGA,223614,4437.5831,N,12402.9431,W,2,07,01.4,22.3,M,-22.1,M,09.0,0302*69
06/07/2019,22:36:16.667,$GPGGA,223615,4437.5831,N,12402.9431,W,2,07,01.4,22.3,M,-22.1,M,10.0,0302*60
06/07/2019,22:36:18.568,$GPGGA,223617,4437.5831,N,12402.9431,W,2,07,01.4,22.3,M,-22.1,M,09.0,0302*6A
06/07/2019,22:36:19.586,$GPGGA,223618,4437.5831,N,12402.9431,W,2,07,01.4,22.3,M,-22.1,M,10.0,0302*6D
06/07/2019,22:36:20.570,$GPGGA,223619,4437.5831,N,12402.9431,W,2,07,01.4,22.3,M,-22.1,M,11.0,0302*6D
06/07/2019,22:36:21.456,$GPGGA,223620,4437.5831,N,12402.9431,W,2,07,01.4,22.3,M,-22.1,M,12.0,0302*64
06/07/2019,22:36:22.567,$GPGGA,223621,4437.5831,N,12402.9431,W,2,07,01.4,22.3,M,-22.1,M,13.0,0302*64
06/07/2019,22:36:23.586,$GPGGA,223622,4437.5831,N,12402.9431,W,2,07,01.4,22.3,M,-22.1,M,10.0,0302*64
06/07/2019,22:36:24.571,$GPGGA,223623,4437.5831,N,12402.9432,W,2,07,01.4,22.3,M,-22.1,M,11.0,0302*67
06/07/2019,22:36:25.468,$GPGGA,223624,4437.5831,N,12402.9431,W,2,07,01.4,22.3,M,-22.1,M,12.0,0302*60
06/07/2019,22:36:26.568,$GPGGA,223625,4437.5831,N,12402.9431,W,2,07,01.4,22.3,M,-22.1,M,10.0,0302*63
06/07/2019,22:36:27.394,$GPGGA,223626,4437.5831,N,12402.9431,W,2,07,01.4,22.3,M,-22.1,M,11.0,0302*61
06/07/2019,22:36:28.675,$GPGGA,223627,4437.5831,N,12402.9432,W,2,07,01.4,22.3,M,-22.1,M,12.0,0302*60
06/07/2019,22:36:29.457,$GPGGA,223628,4437.5831,N,12402.9432,W,2,07,01.4,22.3,M,-22.1,M,10.0,0302*6D
06/07/2019,22:36:30.567,$GPGGA,223629,4437.5831,N,12402.9432,W,2,07,01.4,22.3,M,-22.1,M,11.0,0302*6D
06/07/2019,22:36:31.394,$GPGGA,223630,4437.5831,N,12402.9432,W,2,07,01.4,22.3,M,-22.1,M,12.0,0302*66
06/07/2019,22:36:32.574,$GPGGA,223631,4437.5831,N,12402.9432,W,2,07,01.4,22.3,M,-22.1,M,13.0,0302*66
06/07/2019,22:36:34.561,$GPGGA,223633,4437.5831,N,12402.9432,W,2,07,01.4,22.3,M,-22.1,M,15.0,0302*62
06/07/2019,22:36:35.562,$GPGGA,223634,4437.5831,N,12402.9432,W,2,07,01.4,22.3,M,-22.1,M,13.0,0302*63
06/07/2019,22:36:36.489,$GPGGA,223635,4437.5831,N,12402.9432,W,2,07,01.4,22.3,M,-22.1,M,14.0,0302*65
06/07/2019,22:36:37.469,$GPGGA,223636,4437.5831,N,12402.9432,W,2,07,01.4,22.3,M,-22.1,M,15.0,0302*67
06/07/2019,22:36:38.668,$GPGGA,223637,4437.5831,N,12402.9432,W,2,07,01.4,22.3,M,-22.1,M,13.0,0302*60
06/07/2019,22:36:39.562,$GPGGA,223638,4437.5831,N,12402.9432,W,2,07,01.4,22.3,M,-22.1,M,14.0,0302*68
06/07/2019,22:36:40.995,$GPGGA,223639,4437.5831,N,12402.9432,W,2,07,01.4,22.3,M,-22.1,M,15.0,0302*68
06/07/2019,22:36:41.487,$GPGGA,223640,4437.5831,N,12402.9432,W,2,07,01.4,22.3,M,-22.1,M,10.0,0302*63
06/07/2019,22:36:42.719,$GPGGA,223641,4437.5831,N,12402.9432,W,2,07,01.4,22.3,M,-22.1,M,11.0,0302*63
06/07/2019,22:36:43.859,$GPGGA,223642,4437.5831,N,12402.9432,W,2,07,01.4,22.3,M,-22.1,M,12.0,0302*63
06/07/2019,22:36:44.505,$GPGGA,223643,4437.5831,N,12402.9432,W,2,07,01.4,22.3,M,-22.1,M,10.0,0302*60
06/07/2019,22:36:45.475,$GPGGA,223644,4437.5831,N,12402.9432,W,2,07,01.4,22.3,M,-22.1,M,11.0,0302*66
06/07/2019,22:36:46.668,$GPGGA,223645,4437.5831,N,12402.9432,W,2,07,01.4,22.3,M,-22.1,M,12.0,0302*64
06/07/2019,22:36:47.569,$GPGGA,223646,4437.5831,N,12402.9432,W,2,07,01.4,22.3,M,-22.1,M,13.0,0302*66
06/07/2019,22:36:48.592,$GPGGA,223647,4437.5831,N,12402.9432,W,2,07,01.4,22.3,M,-22.1,M,11.0,0302*65
06/07/2019,22:36:49.470,$GPGGA,223648,4437.5831,N,12402.9432,W,2,07,01.4,22.4,M,-22.1,M,12.0,0302*6E
06/07/2019,22:36:50.963,$GPGGA,223649,4437.5831,N,12402.9432,W,2,07,01.4,22.4,M,-22.1,M,13.0,0302*6E
06/07/2019,22:36:51.573,$GPGGA,223650,4437.5831,N,12402.9432,W,2,07,01.4,22.4,M,-22.1,M,11.0,0302*64
06/07/2019,22:36:52.736,$GPGGA,223651,4437.5831,N,12402.9432,W,2,07,01.4,22.4,M,-22.1,M,12.0,0302*66
06/07/2019,22:36:53.512,$GPGGA,223652,4437.5831,N,12402.9432,W,2,07,01.4,22.4,M,-22.1,M,13.0,0302*64
06/07/2019,22:36:54.720,$GPGGA,223653,4437.5831,N,12402.9432,W,2,07,01.4,22.4,M,-22.1,M,09.0,0302*6E
06/07/2019,22:36:55.522,$GPGGA,223654,4437.5831,N,12402.9432,W,2,07,01.4,22.4,M,-22.1,M,10.0,0302*61
06/07/2019,22:36:57.246,$GPGGA,223655,4437.5831,N,12402.9432,W,2,07,01.4,22.4,M,-22.1,M,08.0,0302*69
06/07/2019,22:36:57.827,$GPGGA,223656,4437.5831,N,12402.9432,W,2,07,01.4,22.4,M,-22.1,M,09.0,0302*6B
06/07/2019,22:36:58.564,$GPGGA,223657,4437.5831,N,12402.9432,W,2,07,01.4,22.4,M,-22.1,M,08.0,0302*6B
06/07/2019,22:36:59.588,$GPGGA,223658,4437.5831,N,12402.9432,W,2,07,01.4,22.4,M,-22.1,M,09.0,0302*65
06/07/2019,22:37:00.993,$GPGGA,223659,4437.5831,N,12402.9432,W,2,07,01.4,22.4,M,-22.1,M,09.0,0302*64
06/07/2019,22:37:01.677,$GPGGA,223700,4437.5831,N,12402.9432,W,2,07,01.4,22.4,M,-22.1,M,10.0,0302*61
06/07/2019,22:37:02.820,$GPGGA,223701,4437.5831,N,12402.9432,W,2,07,01.4,22.4,M,-22.1,M,08.0,0302*69
06/07/2019,22:37:03.521,$GPGGA,223702,4437.5831,N,12402.9432,W,2,07,01.4,22.4,M,-22.1,M,09.0,0302*6B
06/07/2019,22:37:04.636,$GPGGA,223703,4437.5831,N,12402.9432,W,2,07,01.4,22.3,M,-22.1,M,10.0,0302*65
06/07/2019,22:37:05.527,$GPGGA,223704,4437.5831,N,12402.9432,W,2,07,01.4,22.3,M,-22.1,M,10.0,0302*62
06/07/2019,22:37:06.720,$GPGGA,223705,4437.5831,N,12402.9432,W,2,07,01.4,22.3,M,-22.1,M,11.0,0302*62
06/07/2019,22:37:08.611,$GPGGA,223707,4437.5830,N,12402.9432,W,2,07,01.4,22.3,M,-22.1,M,10.0,0302*60
06/07/2019,22:37:09.548,$GPGGA,223708,4437.5830,N,12402.9432,W,2,07,01.4,22.3,M,-22.1,M,11.0,0302*6E
06/07/2019,22:37:10.628,$GPGGA,223709,4437.5830,N,12402.9432,W,2,07,01.4,22.3,M,-22.1,M,11.0,0302*6F
06/07/2019,22:37:11.651,$GPGGA,223710,4437.5830,N,12402.9432,W,2,07,01.4,22.3,M,-22.1,M,12.0,0302*64
06/07/2019,22:37:12.770,$GPGGA,223711,4437.5830,N,12402.9432,W,2,07,01.4,22.3,M,-22.1,M,13.0,0302*64
06/07/2019,22:37:13.492,$GPGGA,223712,4437.5830,N,12402.9432,W,2,07,01.4,22.3,M,-22.1,M,10.0,0302*64
06/07/2019,22:37:14.577,$GPGGA,223713,4437.5830,N,12402.9432,W,2,07,01.4,22.3,M,-22.1,M,11.0,0302*64
06/07/2019,22:37:15.564,$GPGGA,223714,4437.5830,N,12402.9432,W,2,07,01.4,22.3,M,-22.1,M,12.0,0302*60
06/07/2019,22:37:16.567,$GPGGA,223715,4437.5830,N,12402.9432,W,2,07,01.4,22.3,M,-22.1,M,10.0,0302*63
06/07/2019,22:37:18.596,$GPGGA,223717,4437.5830,N,12402.9432,W,2,07,01.4,22.3,M,-22.1,M,12.0,0302*63
06/07/2019,22:37:19.471,$GPGGA,223718,4437.5830,N,12402.9432,W,2,07,01.4,22.3,M,-22.1,M,10.0,0302*6E
06/07/2019,22:37:20.666,$GPGGA,223719,4437.5830,N,12402.9432,W,2,07,01.4,22.3,M,-22.1,M,11.0,0302*6E
06/07/2019,22:37:22.465,$GPGGA,223721,4437.5830,N,12402.9432,W,2,07,01.4,22.3,M,-22.1,M,10.0,0302*64
06/07/2019,22:37:23.588,$GPGGA,223722,4437.5830,N,12402.9432,W,2,07,01.4,22.3,M,-22.1,M,11.0,0302*66
06/07/2019,22:37:24.471,$GPGGA,223723,4437.5830,N,12402.9432,W,2,07,01.4,22.3,M,-22.1,M,12.0,0302*64
06/07/2019,22:37:25.760,$GPGGA,223724,4437.5830,N,12402.9432,W,2,07,01.4,22.3,M,-22.1,M,10.0,0302*61
06/07/2019,22:37:26.570,$GPGGA,223725,4437.5830,N,12402.9432,W,2,07,01.4,22.3,M,-22.1,M,11.0,0302*61
06/07/2019,22:37:27.597,$GPGGA,223726,4437.5830,N,12402.9432,W,2,07,01.4,22.3,M,-22.1,M,12.0,0302*61
06/07/2019,22:37:28.573,$GPGGA,223727,4437.5830,N,12402.9432,W,2,07,01.4,22.3,M,-22.1,M,10.0,0302*62
06/07/2019,22:37:29.565,$GPGGA,223728,4437.5830,N,12402.9432,W,2,07,01.4,22.3,M,-22.1,M,11.0,0302*6C
06/07/2019,22:37:30.670,$GPGGA,223729,4437.5830,N,12402.9432,W,2,07,01.4,22.3,M,-22.1,M,12.0,0302*6E
06/07/2019,22:37:31.493,$GPGGA,223730,4437.5830,N,12402.9432,W,2,07,01.4,22.3,M,-22.1,M,10.0,0302*64
06/07/2019,22:37:32.680,$GPGGA,223731,4437.5830,N,12402.9432,W,2,07,01.4,22.3,M,-22.1,M,11.0,0302*64
06/07/2019,22:37:33.662,$GPGGA,223732,4437.5830,N,12402.9432,W,2,07,01.4,22.3,M,-22.1,M,12.0,0302*64
06/07/2019,22:37:34.466,$GPGGA,223733,4437.5830,N,12402.9432,W,2,07,01.4,22.3,M,-22.1,M,10.0,0302*67
06/07/2019,22:37:35.697,$GPGGA,223734,4437.5830,N,12402.9432,W,2,07,01.4,22.3,M,-22.1,M,11.0,0302*61
06/07/2019,22:37:37.578,$GPGGA,223736,4437.5830,N,12402.9432,W,2,07,01.4,22.3,M,-22.1,M,10.0,0302*62
06/07/2019,22:37:38.670,$GPGGA,223737,4437.5830,N,12402.9432,W,2,07,01.4,22.3,M,-22.1,M,11.0,0302*62
06/07/2019,22:37:39.465,$GPGGA,223738,4437.5830,N,12402.9432,W,2,07,01.4,22.3,M,-22.1,M,12.0,0302*6E
06/07/2019,22:37:40.593,$GPGGA,223739,4437.5830,N,12402.9432,W,2,07,01.4,22.3,M,-22.1,M,10.0,0302*6D
06/07/2019,22:37:41.472,$GPGGA,223740,4437.5830,N,12402.9433,W,2,07,01.4,22.3,M,-22.1,M,11.0,0302*63
06/07/2019,22:37:42.671,$GPGGA,223741,4437.5830,N,12402.9433,W,2,07,01.4,22.3,M,-22.1,M,12.0,0302*61
06/07/2019,22:37:43.522,$GPGGA,223742,4437.5830,N,12402.9433,W,2,07,01.4,22.2,M,-22.1,M,10.0,0302*61
06/07/2019,22:37:44.638,$GPGGA,223743,4437.5830,N,12402.9433,W,2,07,01.4,22.2,M,-22.1,M,11.0,0302*61
06/07/2019,22:37:45.538,$GPGGA,223744,4437.5830,N,12402.9433,W,2,07,01.4,22.2,M,-22.1,M,12.0,0302*65
06/07/2019,22:37:46.723,$GPGGA,223745,4437.5830,N,12402.9433,W,2,07,01.4,22.2,M,-22.1,M,10.0,0302*66
06/07/2019,22:37:47.916,$GPGGA,223746,4437.5830,N,12402.9433,W,2,07,01.4,22.2,M,-22.1,M,11.0,0302*64
06/07/2019,22:37:48.638,$GPGGA,223747,4437.5830,N,12402.9433,W,2,07,01.4,22.3,M,-22.1,M,12.0,0302*67
06/07/2019,22:37:49.918,$GPGGA,223748,4437.5831,N,12402.9433,W,2,07,01.4,22.3,M,-22.1,M,10.0,0302*6B
06/07/2019,22:37:50.722,$GPGGA,223749,4437.5831,N,12402.9433,W,2,07,01.4,22.3,M,-22.1,M,11.0,0302*6B
06/07/2019,22:37:51.522,$GPGGA,223750,4437.5831,N,12402.9433,W,2,07,01.4,22.3,M,-22.1,M,12.0,0302*60
06/07/2019,22:37:52.548,$GPGGA,223751,4437.5831,N,12402.9433,W,2,07,01.4,22.3,M,-22.1,M,10.0,0302*63
06/07/2019,22:37:53.530,$GPGGA,223752,4437.5831,N,12402.9433,W,2,07,01.4,22.3,M,-22.1,M,11.0,0302*61
06/07/2019,22:37:54.723,$GPGGA,223753,4437.5831,N,12402.9433,W,2,07,01.4,22.3,M,-22.1,M,12.0,0302*63
06/07/2019,22:37:55.523,$GPGGA,223754,4437.5831,N,12402.9433,W,2,07,01.4,22.3,M,-22.1,M,10.0,0302*66
06/07/2019,22:37:56.549,$GPGGA,223755,4437.5831,N,12402.9433,W,2,07,01.4,22.3,M,-22.1,M,11.0,0302*66
06/07/2019,22:37:57.630,$GPGGA,223756,4437.5831,N,12402.9433,W,2,07,01.4,22.3,M,-22.1,M,12.0,0302*66
06/07/2019,22:37:58.622,$GPGGA,223757,4437.5831,N,12402.9433,W,2,07,01.4,22.2,M,-22.1,M,10.0,0302*64
06/07/2019,22:37:59.722,$GPGGA,223758,4437.5831,N,12402.9433,W,2,07,01.4,22.2,M,-22.1,M,11.0,0302*6A
06/07/2019,22:38:00.550,$GPGGA,223759,4437.5831,N,12402.9433,W,2,07,01.4,22.2,M,-22.1,M,12.0,0302*68
06/07/2019,22:38:01.618,$GPGGA,223800,4437.5831,N,12402.9433,W,2,07,01.4,22.2,M,-22.1,M,10.0,0302*69
06/07/2019,22:38:02.622,$GPGGA,223801,4437.5831,N,12402.9433,W,2,07,01.4,22.3,M,-22.1,M,11.0,0302*68
06/07/2019,22:38:03.467,$GPGGA,223802,4437.5830,N,12402.9433,W,2,07,01.4,22.2,M,-22.1,M,09.0,0302*62
06/07/2019,22:38:04.699,$GPGGA,223803,4437.5830,N,12402.9433,W,2,07,01.4,22.2,M,-22.1,M,10.0,0302*6B
06/07/2019,22:38:05.481,$GPGGA,223804,4437.5830,N,12402.9433,W,2,07,01.4,22.2,M,-22.1,M,08.0,0302*65
06/07/2019,22:38:06.672,$GPGGA,223805,4437.5831,N,12402.9433,W,2,07,01.4,22.2,M,-22.1,M,09.0,0302*64
06/07/2019,22:38:07.469,$GPGGA,223806,4437.5831,N,12402.9433,W,2,07,01.4,22.2,M,-22.1,M,10.0,0302*6F
06/07/2019,22:38:08.494,$GPGGA,223807,4437.5831,N,12402.9433,W,2,07,01.4,22.2,M,-22.1,M,11.0,0302*6F
06/07/2019,22:38:09.570,$GPGGA,223808,4437.5831,N,12402.9433,W,2,07,01.4,22.2,M,-22.1,M,12.0,0302*63
06/07/2019,22:38:10.566,$GPGGA,223809,4437.5831,N,12402.9433,W,2,07,01.4,22.2,M,-22.1,M,13.0,0302*63
06/07/2019,22:38:11.467,$GPGGA,223810,4437.5831,N,12402.9433,W,2,07,01.4,22.2,M,-22.1,M,10.0,0302*68
06/07/2019,22:38:12.599,$GPGGA,223811,4437.5831,N,12402.9433,W,2,07,01.4,22.2,M,-22.1,M,11.0,0302*68
06/07/2019,22:38:13.570,$GPGGA,223812,4437.5831,N,12402.9433,W,2,07,01.4,22.2,M,-22.1,M,12.0,0302*68
06/07/2019,22:38:14.671,$GPGGA,223813,4437.5831,N,12402.9433,W,2,07,01.4,22.2,M,-22.1,M,10.0,0302*6B
06/07/2019,22:38:15.468,$GPGGA,223814,4437.5831,N,12402.9433,W,2,07,01.4,22.2,M,-22.1,M,11.0,0302*6D
06/07/2019,22:38:16.615,$GPGGA,223815,4437.5831,N,12402.9433,W,2,07,01.4,22.2,M,-22.1,M,12.0,0302*6F
06/07/2019,22:38:17.475,$GPGGA,223816,4437.5831,N,12402.9433,W,2,07,01.4,22.2,M,-22.1,M,10.0,0302*6E
06/07/2019,22:38:18.672,$GPGGA,223817,4437.5831,N,12402.9433,W,2,07,01.4,22.2,M,-22.1,M,11.0,0302*6E
06/07/2019,22:38:19.468,$GPGGA,223818,4437.5831,N,12402.9433,W,2,07,01.4,22.2,M,-22.1,M,12.0,0302*62
06/07/2019,22:38:20.700,$GPGGA,223819,4437.5831,N,12402.9433,W,2,07,01.4,22.2,M,-22.1,M,10.0,0302*61
06/07/2019,22:38:21.475,$GPGGA,223820,4437.5831,N,12402.9433,W,2,07,01.4,22.2,M,-22.1,M,11.0,0302*6A
06/07/2019,22:38:22.672,$GPGGA,223821,4437.5831,N,12402.9433,W,2,07,01.4,22.2,M,-22.1,M,12.0,0302*68
06/07/2019,22:38:23.475,$GPGGA,223822,4437.5831,N,12402.9433,W,2,07,01.4,22.2,M,-22.1,M,10.0,0302*69
06/07/2019,22:38:24.594,$GPGGA,223823,4437.5831,N,12402.9433,W,2,07,01.4,22.2,M,-22.1,M,11.0,0302*69
06/07/2019,22:38:25.475,$GPGGA,223824,4437.5831,N,12402.9433,W,2,07,01.4,22.2,M,-22.1,M,12.0,0302*6D
06/07/2019,22:38:26.673,$GPGGA,223825,4437.5831,N,12402.9433,W,2,07,01.4,22.2,M,-22.1,M,10.0,0302*6E
06/07/2019,22:38:27.468,$GPGGA,223826,4437.5831,N,12402.9433,W,2,07,01.4,22.2,M,-22.1,M,11.0,0302*6C
06/07/2019,22:38:28.595,$GPGGA,223827,4437.5831,N,12402.9433,W,2,07,01.4,22.2,M,-22.1,M,09.0,0302*64
06/07/2019,22:38:29.476,$GPGGA,223828,4437.5831,N,12402.9433,W,2,07,01.4,22.2,M,-22.1,M,10.0,0302*63
06/07/2019,22:38:30.773,$GPGGA,223829,4437.5831,N,12402.9432,W,2,07,01.4,22.2,M,-22.1,M,08.0,0302*6A
06/07/2019,22:38:32.469,$GPGGA,223831,4437.5831,N,12402.9432,W,2,07,01.4,22.2,M,-22.1,M,10.0,0302*6A
06/07/2019,22:38:33.997,$GPGGA,223832,4437.5831,N,12402.9432,W,2,07,01.4,22.2,M,-22.1,M,11.0,0302*68
06/07/2019,22:38:34.674,$GPGGA,223833,4437.5831,N,12402.9432,W,2,07,01.4,22.2,M,-22.1,M,12.0,0302*6A
06/07/2019,22:38:35.624,$GPGGA,223834,4437.5831,N,12402.9432,W,2,07,01.4,22.2,M,-22.1,M,13.0,0302*6C
06/07/2019,22:38:36.524,$GPGGA,223835,4437.5831,N,12402.9432,W,2,07,01.4,22.2,M,-22.1,M,09.0,0302*66
06/07/2019,22:38:37.645,$GPGGA,223836,4437.5831,N,12402.9432,W,2,07,01.4,22.2,M,-22.1,M,10.0,0302*6D
06/07/2019,22:38:38.532,$GPGGA,223837,4437.5831,N,12402.9432,W,2,07,01.4,22.2,M,-22.1,M,11.0,0302*6D
06/07/2019,22:38:39.625,$GPGGA,223838,4437.5831,N,12402.9432,W,2,07,01.4,22.2,M,-22.1,M,09.0,0302*6B
06/07/2019,22:38:40.525,$GPGGA,223839,4437.5831,N,12402.9432,W,2,07,01.4,22.3,M,-22.1,M,10.0,0302*63
06/07/2019,22:38:41.641,$GPGGA,223840,4437.5831,N,12402.9432,W,2,07,01.4,22.3,M,-22.1,M,11.0,0302*6C
06/07/2019,22:38:42.531,$GPGGA,223841,4437.5831,N,12402.9432,W,2,07,01.4,22.3,M,-22.1,M,09.0,0302*64
06/07/2019,22:38:43.570,$GPGGA,223842,4437.5831,N,12402.9432,W,2,07,01.4,22.3,M,-22.1,M,10.0,0302*6F
06/07/2019,22:38:44.469,$GPGGA,223843,4437.5831,N,12402.9432,W,2,07,01.4,22.3,M,-22.1,M,08.0,0302*67
06/07/2019,22:38:45.696,$GPGGA,223844,4437.5831,N,12402.9432,W,2,07,01.4,22.3,M,-22.1,M,09.0,0302*61
06/07/2019,22:38:46.870,$GPGGA,223845,4437.5831,N,12402.9432,W,2,07,01.4,22.3,M,-22.1,M,08.0,0302*61
06/07/2019,22:38:48.570,$GPGGA,223847,4437.5832,N,12402.9432,W,2,07,01.4,22.3,M,-22.1,M,10.0,0302*69
06/07/2019,22:38:49.566,$GPGGA,223848,4437.5832,N,12402.9432,W,2,07,01.4,22.3,M,-22.1,M,10.0,0302*66
06/07/2019,22:38:50.497,$GPGGA,223849,4437.5832,N,12402.9432,W,2,07,01.4,22.3,M,-22.1,M,11.0,0302*66
06/07/2019,22:38:51.571,$GPGGA,223850,4437.5832,N,12402.9432,W,2,07,01.4,22.3,M,-22.1,M,08.0,0302*66
06/07/2019,22:38:52.570,$GPGGA,223851,4437.5832,N,12402.9431,W,2,07,01.4,22.3,M,-22.1,M,09.0,0302*65
06/07/2019,22:38:53.470,$GPGGA,223852,4437.5832,N,12402.9431,W,2,07,01.4,22.3,M,-22.1,M,08.0,0302*67
06/07/2019,22:38:54.601,$GPGGA,223853,4437.5832,N,12402.9431,W,2,07,01.4,22.3,M,-22.1,M,09.0,0302*67
06/07/2019,22:38:55.477,$GPGGA,223854,4437.5832,N,12402.9431,W,2,07,01.4,22.3,M,-22.1,M,10.0,0302*68
06/07/2019,22:38:56.668,$GPGGA,223855,4437.5832,N,12402.9431,W,2,07,01.4,22.3,M,-22.1,M,10.0,0302*69
06/07/2019,22:38:57.470,$GPGGA,223856,4437.5832,N,12402.9431,W,2,07,01.4,22.3,M,-22.1,M,11.0,0302*6B
06/07/2019,22:38:58.601,$GPGGA,223857,4437.5832,N,12402.9431,W,2,07,01.4,22.3,M,-22.1,M,12.0,0302*69
06/07/2019,22:38:59.477,$GPGGA,223858,4437.5832,N,12402.9431,W,2,07,01.4,22.3,M,-22.1,M,09.0,0302*6C
06/07/2019,22:39:00.669,$GPGGA,223859,4437.5832,N,12402.9431,W,2,07,01.4,22.3,M,-22.1,M,10.0,0302*65
06/07/2019,22:39:01.674,$GPGGA,223900,4437.5832,N,12402.9431,W,2,07,01.4,22.3,M,-22.1,M,11.0,0302*69
06/07/2019,22:39:02.891,$GPGGA,223901,4437.5832,N,12402.9431,W,2,07,01.4,22.2,M,-22.1,M,09.0,0302*60
06/07/2019,22:39:03.534,$GPGGA,223902,4437.5832,N,12402.9431,W,2,07,01.4,22.3,M,-22.1,M,10.0,0302*6A
06/07/2019,22:39:04.714,$GPGGA,223903,4437.5832,N,12402.9431,W,2,07,01.4,22.2,M,-22.1,M,11.0,0302*6B
06/07/2019,22:39:05.526,$GPGGA,223904,4437.5832,N,12402.9431,W,2,07,01.4,22.2,M,-22.1,M,09.0,0302*65
06/07/2019,22:39:06.941,$GPGGA,223905,4437.5832,N,12402.9431,W,2,07,01.4,22.2,M,-22.1,M,10.0,0302*6C
06/07/2019,22:39:07.626,$GPGGA,223906,4437.5832,N,12402.9431,W,2,07,01.4,22.2,M,-22.1,M,11.0,0302*6E
06/07/2019,22:39:09.022,$GPGGA,223907,4437.5832,N,12402.9431,W,2,07,01.4,22.2,M,-22.1,M,09.0,0302*66
06/07/2019,22:39:09.615,$GPGGA,223908,4437.5832,N,12402.9431,W,2,07,01.4,22.2,M,-22.1,M,10.0,0302*61
06/07/2019,22:39:10.552,$GPGGA,223909,4437.5832,N,12402.9432,W,2,07,01.4,22.2,M,-22.1,M,11.0,0302*62
06/07/2019,22:39:11.535,$GPGGA,223910,4437.5832,N,12402.9432,W,2,07,01.4,22.2,M,-22.1,M,09.0,0302*63
06/07/2019,22:39:12.726,$GPGGA,223911,4437.5832,N,12402.9432,W,2,07,01.4,22.2,M,-22.1,M,10.0,0302*6A
06/07/2019,22:39:13.526,$GPGGA,223912,4437.5832,N,12402.9432,W,2,07,01.4,22.3,M,-22.1,M,11.0,0302*69
06/07/2019,22:39:14.942,$GPGGA,223913,4437.5832,N,12402.9432,W,2,07,01.4,22.3,M,-22.1,M,09.0,0302*61
06/07/2019,22:39:15.623,$GPGGA,223914,4437.5832,N,12402.9432,W,2,07,01.4,22.3,M,-22.1,M,10.0,0302*6E
06/07/2019,22:39:17.626,$GPGGA,223916,4437.5832,N,12402.9432,W,2,07,01.4,22.3,M,-22.1,M,10.0,0302*6C
06/07/2019,22:39:18.625,$GPGGA,223917,4437.5832,N,12402.9431,W,2,07,01.4,22.3,M,-22.1,M,11.0,0302*6F
06/07/2019,22:39:19.553,$GPGGA,223918,4437.5832,N,12402.9431,W,2,07,01.4,22.3,M,-22.1,M,12.0,0302*63
06/07/2019,22:39:20.533,$GPGGA,223919,4437.5832,N,12402.9431,W,2,07,01.4,22.3,M,-22.1,M,12.0,0302*62
06/07/2019,22:39:21.626,$GPGGA,223920,4437.5832,N,12402.9431,W,2,07,01.4,22.2,M,-22.1,M,13.0,0302*68
06/07/2019,22:39:22.916,$GPGGA,223921,4437.5832,N,12402.9431,W,2,07,01.4,22.2,M,-22.1,M,09.0,0302*62
06/07/2019,22:39:23.642,$GPGGA,223922,4437.5832,N,12402.9431,W,2,07,01.4,22.2,M,-22.1,M,10.0,0302*69
06/07/2019,22:39:24.626,$GPGGA,223923,4437.5832,N,12402.9431,W,2,07,01.4,22.2,M,-22.1,M,08.0,0302*61
06/07/2019,22:39:25.627,$GPGGA,223924,4437.5832,N,12402.9431,W,2,07,01.4,22.2,M,-22.1,M,09.0,0302*67
06/07/2019,22:39:26.916,$GPGGA,223925,4437.5832,N,12402.9431,W,2,07,01.4,22.2,M,-22.1,M,10.0,0302*6E
06/07/2019,22:39:27.653,$GPGGA,223926,4437.5832,N,12402.9431,W,2,07,01.4,22.2,M,-22.1,M,11.0,0302*6C
06/07/2019,22:39:28.479,$GPGGA,223927,4437.5832,N,12402.9431,W,2,07,01.4,22.2,M,-22.1,M,12.0,0302*6E
06/07/2019,22:39:29.666,$GPGGA,223928,4437.5832,N,12402.9431,W,2,07,01.4,22.2,M,-22.1,M,13.0,0302*60
06/07/2019,22:39:30.971,$GPGGA,223929,4437.5832,N,12402.9431,W,2,07,01.4,22.2,M,-22.1,M,10.0,0302*62
06/07/2019,22:39:31.701,$GPGGA,223930,4437.5832,N,12402.9431,W,2,07,01.4,22.2,M,-22.1,M,11.0,0302*6B
06/07/2019,22:39:32.582,$GPGGA,223931,4437.5832,N,12402.9432,W,2,07,01.4,22.1,M,-22.1,M,12.0,0302*69
06/07/2019,22:39:33.627,$GPGGA,223932,4437.5832,N,12402.9431,W,2,07,01.4,22.1,M,-22.1,M,10.0,0302*6B
06/07/2019,22:39:34.527,$GPGGA,223933,4437.5831,N,12402.9432,W,2,07,01.4,22.1,M,-22.1,M,11.0,0302*6B
06/07/2019,22:39:35.554,$GPGGA,223934,4437.5831,N,12402.9432,W,2,07,01.4,22.1,M,-22.1,M,12.0,0302*6F
06/07/2019,22:39:36.662,$GPGGA,223935,4437.5832,N,12402.9431,W,2,07,01.4,22.1,M,-22.1,M,10.0,0302*6C
06/07/2019,22:39:37.627,$GPGGA,223936,4437.5832,N,12402.9431,W,2,07,01.4,22.1,M,-22.1,M,11.0,0302*6E
06/07/2019,22:39:38.527,$GPGGA,223937,4437.5832,N,12402.9431,W,2,07,01.4,22.1,M,-22.1,M,12.0,0302*6C
06/07/2019,22:39:39.554,$GPGGA,223938,4437.5832,N,12402.9432,W,2,07,01.4,22.1,M,-22.1,M,10.0,0302*62
06/07/2019,22:39:40.534,$GPGGA,223939,4437.5831,N,12402.9432,W,2,07,01.4,22.1,M,-22.1,M,11.0,0302*61
06/07/2019,22:39:41.715,$GPGGA,223940,4437.5831,N,12402.9432,W,2,07,01.4,22.1,M,-22.1,M,12.0,0302*6C
06/07/2019,22:39:42.527,$GPGGA,223941,4437.5831,N,12402.9432,W,2,07,01.4,22.1,M,-22.1,M,10.0,0302*6F
06/07/2019,22:39:43.593,$GPGGA,223942,4437.5831,N,12402.9432,W,2,07,01.4,22.1,M,-22.1,M,11.0,0302*6D
06/07/2019,22:39:45.578,$GPGGA,223944,4437.5831,N,12402.9432,W,2,07,01.4,22.0,M,-22.1,M,10.0,0302*6B
06/07/2019,22:39:46.573,$GPGGA,223945,4437.5831,N,12402.9432,W,2,07,01.4,22.0,M,-22.1,M,11.0,0302*6B
06/07/2019,22:39:47.576,$GPGGA,223946,4437.5831,N,12402.9432,W,2,07,01.4,22.0,M,-22.1,M,12.0,0302*6B
06/07/2019,22:39:48.499,$GPGGA,223947,4437.5831,N,12402.9432,W,2,07,01.4,22.0,M,-22.1,M,10.0,0302*68
06/07/2019,22:39:49.573,$GPGGA,223948,4437.5831,N,12402.9432,W,2,07,01.4,22.0,M,-22.1,M,11.0,0302*66
06/07/2019,22:39:50.572,$GPGGA,223949,4437.5831,N,12402.9431,W,2,07,01.4,22.0,M,-22.1,M,12.0,0302*67
06/07/2019,22:39:51.568,$GPGGA,223950,4437.5831,N,12402.9431,W,2,07,01.4,22.0,M,-22.1,M,10.0,0302*6D
06/07/2019,22:39:52.500,$GPGGA,223951,4437.5831,N,12402.9431,W,2,07,01.4,22.0,M,-22.1,M,11.0,0302*6D
06/07/2019,22:39:53.683,$GPGGA,223952,4437.5831,N,12402.9431,W,2,07,01.4,22.0,M,-22.1,M,12.0,0302*6D
06/07/2019,22:39:54.572,$GPGGA,223953,4437.5831,N,12402.9431,W,2,07,01.4,22.0,M,-22.1,M,10.0,0302*6E
06/07/2019,22:39:55.569,$GPGGA,223954,4437.5831,N,12402.9432,W,2,07,01.4,21.9,M,-22.1,M,11.0,0302*61
06/07/2019,22:39:56.500,$GPGGA,223955,4437.5831,N,12402.9432,W,2,07,01.4,21.9,M,-22.1,M,12.0,0302*63
06/07/2019,22:39:57.584,$GPGGA,223956,4437.5831,N,12402.9432,W,2,07,01.4,21.9,M,-22.1,M,10.0,0302*62
06/07/2019,22:39:58.573,$GPGGA,223957,4437.5831,N,12402.9432,W,2,07,01.4,21.9,M,-22.1,M,11.0,0302*62
06/07/2019,22:39:59.868,$GPGGA,223958,4437.5831,N,12402.9432,W,2,07,01.4,21.9,M,-22.1,M,12.0,0302*6E
06/07/2019,22:40:00.514,$GPGGA,223959,4437.5831,N,12402.9432,W,2,07,01.4,21.9,M,-22.1,M,10.0,0302*6D
06/07/2019,22:40:01.480,$GPGGA,224000,4437.5831,N,12402.9432,W,2,07,01.4,21.9,M,-22.1,M,11.0,0302*6E
06/07/2019,22:40:02.793,$GPGGA,224001,4437.5831,N,12402.9432,W,2,07,01.4,21.8,M,-22.1,M,12.0,0302*6D
06/07/2019,22:40:03.472,$GPGGA,224002,4437.5831,N,12402.9432,W,2,07,01.4,21.8,M,-22.1,M,10.0,0302*6C
06/07/2019,22:40:04.499,$GPGGA,224003,4437.5830,N,12402.9432,W,2,07,01.4,21.8,M,-22.1,M,11.0,0302*6D
06/07/2019,22:40:05.576,$GPGGA,224004,4437.5830,N,12402.9432,W,2,07,01.4,21.8,M,-22.1,M,12.0,0302*69
06/07/2019,22:40:06.675,$GPGGA,224005,4437.5830,N,12402.9432,W,2,07,01.4,21.8,M,-22.1,M,10.0,0302*6A
06/07/2019,22:40:07.473,$GPGGA,224006,4437.5830,N,12402.9432,W,2,07,01.4,21.8,M,-22.1,M,11.0,0302*68
06/07/2019,22:40:08.597,$GPGGA,224007,4437.5830,N,12402.9432,W,2,07,01.4,21.7,M,-22.1,M,12.0,0302*65
06/07/2019,22:40:09.480,$GPGGA,224008,4437.5830,N,12402.9432,W,2,07,01.4,21.7,M,-22.1,M,10.0,0302*68
06/07/2019,22:40:10.676,$GPGGA,224009,4437.5830,N,12402.9432,W,2,07,01.4,21.7,M,-22.1,M,11.0,0302*68
06/07/2019,22:40:11.473,$GPGGA,224010,4437.5830,N,12402.9432,W,2,07,01.4,21.7,M,-22.1,M,12.0,0302*63
06/07/2019,22:40:12.711,$GPGGA,224011,4437.5830,N,12402.9432,W,2,07,01.4,21.7,M,-22.1,M,10.0,0302*60
06/07/2019,22:40:13.480,$GPGGA,224012,4437.5830,N,12402.9432,W,2,07,01.4,21.7,M,-22.1,M,11.0,0302*62
06/07/2019,22:40:14.780,$GPGGA,224013,4437.5830,N,12402.9432,W,2,07,01.4,21.6,M,-22.1,M,12.0,0302*61
06/07/2019,22:40:15.473,$GPGGA,224014,4437.5830,N,12402.9432,W,2,07,01.4,21.6,M,-22.1,M,10.0,0302*64
06/07/2019,22:40:16.597,$GPGGA,224015,4437.5830,N,12402.9432,W,2,07,01.4,21.6,M,-22.1,M,11.0,0302*64
06/07/2019,22:40:17.480,$GPGGA,224016,4437.5830,N,12402.9432,W,2,07,01.4,21.6,M,-22.1,M,12.0,0302*64
06/07/2019,22:40:18.686,$GPGGA,224017,4437.5830,N,12402.9432,W,2,07,01.4,21.6,M,-22.1,M,10.0,0302*67
06/07/2019,22:40:19.474,$GPGGA,224018,4437.5830,N,12402.9432,W,2,07,01.4,21.6,M,-22.1,M,11.0,0302*69
06/07/2019,22:40:20.704,$GPGGA,224019,4437.5830,N,12402.9432,W,2,07,01.4,21.5,M,-22.1,M,12.0,0302*68
06/07/2019,22:40:21.481,$GPGGA,224020,4437.5830,N,12402.9432,W,2,07,01.4,21.5,M,-22.1,M,10.0,0302*60
06/07/2019,22:40:22.677,$GPGGA,224021,4437.5830,N,12402.9432,W,2,07,01.4,21.5,M,-22.1,M,11.0,0302*60
06/07/2019,22:40:23.474,$GPGGA,224022,4437.5830,N,12402.9432,W,2,07,01.4,21.5,M,-22.1,M,12.0,0302*60
06/07/2019,22:40:24.598,$GPGGA,224023,4437.5830,N,12402.9432,W,2,07,01.4,21.5,M,-22.1,M,10.0,0302*63
06/07/2019,22:40:25.481,$GPGGA,224024,4437.5830,N,12402.9432,W,2,07,01.4,21.5,M,-22.1,M,11.0,0302*65
06/07/2019,22:40:26.780,$GPGGA,224025,4437.5830,N,12402.9432,W,2,07,01.4,21.4,M,-22.1,M,12.0,0302*66
06/07/2019,22:40:27.473,$GPGGA,224026,4437.5830,N,12402.9432,W,2,07,01.4,21.4,M,-22.1,M,10.0,0302*67
06/07/2019,22:40:28.597,$GPGGA,224027,4437.5830,N,12402.9432,W,2,07,01.4,21.4,M,-22.1,M,11.0,0302*67
06/07/2019,22:40:29.482,$GPGGA,224028,4437.5830,N,12402.9432,W,2,07,01.4,21.4,M,-22.1,M,12.0,0302*6B
06/07/2019,22:40:30.677,$GPGGA,224029,4437.5830,N,12402.9432,W,2,07,01.4,21.4,M,-22.1,M,10.0,0302*68
06/07/2019,22:40:31.475,$GPGGA,224030,4437.5830,N,12402.9432,W,2,07,01.4,21.4,M,-22.1,M,11.0,0302*61
06/07/2019,22:40:32.604,$GPGGA,224031,4437.5830,N,12402.9432,W,2,07,01.4,21.4,M,-22.1,M,12.0,0302*63
06/07/2019,22:40:33.481,$GPGGA,224032,4437.5830,N,12402.9432,W,2,07,01.4,21.3,M,-22.1,M,10.0,0302*65
06/07/2019,22:40:34.781,$GPGGA,224033,4437.5830,N,12402.9432,W,2,07,01.4,21.4,M,-22.1,M,11.0,0302*62
06/07/2019,22:40:35.473,$GPGGA,224034,4437.5830,N,12402.9432,W,2,07,01.4,21.3,M,-22.1,M,12.0,0302*61
06/07/2019,22:40:36.598,$GPGGA,224035,4437.5830,N,12402.9432,W,2,07,01.4,21.4,M,-22.1,M,10.0,0302*65
06/07/2019,22:40:37.480,$GPGGA,224036,4437.5830,N,12402.9432,W,2,07,01.4,21.4,M,-22.1,M,11.0,0302*67
06/07/2019,22:40:38.677,$GPGGA,224037,4437.5830,N,12402.9432,W,2,07,01.4,21.4,M,-22.1,M,12.0,0302*65
06/07/2019,22:40:39.568,$GPGGA,224038,4437.5830,N,12402.9432,W,2,07,01.4,21.4,M,-22.1,M,10.0,0302*68
06/07/2019,22:40:40.502,$GPGGA,224039,4437.5830,N,12402.9432,W,2,07,01.4,21.4,M,-22.1,M,11.0,0302*68
06/07/2019,22:40:41.575,$GPGGA,224040,4437.5830,N,12402.9432,W,2,07,01.4,21.4,M,-22.1,M,12.0,0302*65
06/07/2019,22:40:42.574,$GPGGA,224041,4437.5830,N,12402.9432,W,2,07,01.4,21.4,M,-22.1,M,10.0,0302*66
06/07/2019,22:40:43.569,$GPGGA,224042,4437.5830,N,12402.9432,W,2,07,01.4,21.3,M,-22.1,M,11.0,0302*63
06/07/2019,22:40:44.501,$GPGGA,224043,4437.5830,N,12402.9432,W,2,07,01.4,21.3,M,-22.1,M,12.0,0302*61
06/07/2019,22:40:45.579,$GPGGA,224044,4437.5830,N,12402.9432,W,2,07,01.4,21.3,M,-22.1,M,10.0,0302*64
06/07/2019,22:40:46.574,$GPGGA,224045,4437.5830,N,12402.9432,W,2,07,01.4,21.3,M,-22.1,M,11.0,0302*64
06/07/2019,22:40:47.475,$GPGGA,224046,4437.5830,N,12402.9432,W,2,07,01.4,21.3,M,-22.1,M,12.0,0302*64
06/07/2019,22:40:48.501,$GPGGA,224047,4437.5830,N,12402.9432,W,2,07,01.4,21.3,M,-22.1,M,10.0,0302*67
06/07/2019,22:40:49.574,$GPGGA,224048,4437.5830,N,12402.9432,W,2,07,01.4,21.3,M,-22.1,M,11.0,0302*69
06/07/2019,22:40:50.573,$GPGGA,224049,4437.5830,N,12402.9432,W,2,07,01.4,21.3,M,-22.1,M,12.0,0302*6B
06/07/2019,22:40:51.569,$GPGGA,224050,4437.5830,N,12402.9432,W,2,07,01.4,21.3,M,-22.1,M,10.0,0302*61
06/07/2019,22:40:52.502,$GPGGA,224051,4437.5830,N,12402.9432,W,2,07,01.4,21.3,M,-22.1,M,11.0,0302*61
06/07/2019,22:40:53.482,$GPGGA,224052,4437.5830,N,12402.9432,W,2,07,01.4,21.3,M,-22.1,M,09.0,0302*6B
06/07/2019,22:40:54.678,$GPGGA,224053,4437.5830,N,12402.9432,W,2,07,01.4,21.3,M,-22.1,M,10.0,0302*62
06/07/2019,22:40:55.475,$GPGGA,224054,4437.5830,N,12402.9432,W,2,07,01.4,21.3,M,-22.1,M,08.0,0302*6C
06/07/2019,22:40:56.599,$GPGGA,224055,4437.5830,N,12402.9432,W,2,07,01.4,21.2,M,-22.1,M,09.0,0302*6D
06/07/2019,22:40:57.482,$GPGGA,224056,4437.5830,N,12402.9432,W,2,07,01.4,21.2,M,-22.1,M,10.0,0302*66
06/07/2019,22:40:58.678,$GPGGA,224057,4437.5830,N,12402.9432,W,2,07,01.4,21.2,M,-22.1,M,10.0,0302*67
06/07/2019,22:40:59.569,$GPGGA,224058,4437.5830,N,12402.9432,W,2,07,01.4,21.2,M,-22.1,M,11.0,0302*69
06/07/2019,22:41:00.502,$GPGGA,224059,4437.5830,N,12402.9432,W,2,07,01.4,21.2,M,-22.1,M,12.0,0302*6B
06/07/2019,22:41:01.874,$GPGGA,224100,4437.5830,N,12402.9432,W,2,07,01.4,21.3,M,-22.1,M,10.0,0302*65
06/07/2019,22:41:03.669,$GPGGA,224102,4437.5830,N,12402.9432,W,2,07,01.4,21.3,M,-22.1,M,12.0,0302*65
06/07/2019,22:41:04.476,$GPGGA,224103,4437.5830,N,12402.9432,W,2,07,01.4,21.3,M,-22.1,M,10.0,0302*66
06/07/2019,22:41:05.649,$GPGGA,224104,4437.5830,N,12402.9432,W,2,07,01.4,21.3,M,-22.1,M,11.0,0302*60
06/07/2019,22:41:06.537,$GPGGA,224105,4437.5830,N,12402.9432,W,2,07,01.4,21.3,M,-22.1,M,12.0,0302*62
06/07/2019,22:41:07.721,$GPGGA,224106,4437.5830,N,12402.9432,W,2,07,01.4,21.3,M,-22.1,M,10.0,0302*63
06/07/2019,22:41:08.545,$GPGGA,224107,4437.5830,N,12402.9432,W,2,07,01.4,21.3,M,-22.1,M,11.0,0302*63
06/07/2019,22:41:09.645,$GPGGA,224108,4437.5830,N,12402.9432,W,2,07,01.4,21.3,M,-22.1,M,12.0,0302*6F
06/07/2019,22:41:10.536,$GPGGA,224109,4437.5830,N,12402.9433,W,2,07,01.4,21.3,M,-22.1,M,10.0,0302*6D
06/07/2019,22:41:11.718,$GPGGA,224110,4437.5830,N,12402.9432,W,2,07,01.4,21.3,M,-22.1,M,11.0,0302*65
06/07/2019,22:41:12.920,$GPGGA,224111,4437.5830,N,12402.9433,W,2,07,01.4,21.3,M,-22.1,M,12.0,0302*66
06/07/2019,22:41:13.646,$GPGGA,224112,4437.5830,N,12402.9432,W,2,07,01.4,21.3,M,-22.1,M,10.0,0302*66
06/07/2019,22:41:14.537,$GPGGA,224113,4437.5830,N,12402.9432,W,2,07,01.4,21.3,M,-22.1,M,11.0,0302*66
06/07/2019,22:41:15.630,$GPGGA,224114,4437.5830,N,12402.9432,W,2,07,01.4,21.3,M,-22.1,M,12.0,0302*62
06/07/2019,22:41:16.530,$GPGGA,224115,4437.5830,N,12402.9432,W,2,07,01.4,21.3,M,-22.1,M,10.0,0302*61
06/07/2019,22:41:17.557,$GPGGA,224116,4437.5830,N,12402.9432,W,2,07,01.4,21.3,M,-22.1,M,11.0,0302*63
06/07/2019,22:41:18.639,$GPGGA,224117,4437.5830,N,12402.9432,W,2,07,01.4,21.3,M,-22.1,M,12.0,0302*61
06/07/2019,22:41:19.630,$GPGGA,224118,4437.5830,N,12402.9432,W,2,07,01.4,21.3,M,-22.1,M,10.0,0302*6C
06/07/2019,22:41:20.926,$GPGGA,224119,4437.5830,N,12402.9432,W,2,07,01.4,21.3,M,-22.1,M,11.0,0302*6C
06/07/2019,22:41:21.646,$GPGGA,224120,4437.5831,N,12402.9432,W,2,07,01.4,21.3,M,-22.1,M,12.0,0302*64
06/07/2019,22:41:22.537,$GPGGA,224121,4437.5831,N,12402.9432,W,2,07,01.4,21.4,M,-22.1,M,10.0,0302*60
06/07/2019,22:41:23.629,$GPGGA,224122,4437.5831,N,12402.9432,W,2,07,01.4,21.3,M,-22.1,M,11.0,0302*65
06/07/2019,22:41:24.925,$GPGGA,224123,4437.5831,N,12402.9432,W,2,07,01.4,21.3,M,-22.1,M,12.0,0302*67
06/07/2019,22:41:25.647,$GPGGA,224124,4437.5831,N,12402.9432,W,2,07,01.4,21.3,M,-22.1,M,10.0,0302*62
06/07/2019,22:41:26.538,$GPGGA,224125,4437.5831,N,12402.9432,W,2,07,01.4,21.3,M,-22.1,M,11.0,0302*62
06/07/2019,22:41:27.631,$GPGGA,224126,4437.5831,N,12402.9432,W,2,07,01.4,21.3,M,-22.1,M,12.0,0302*62
06/07/2019,22:41:28.532,$GPGGA,224127,4437.5831,N,12402.9432,W,2,07,01.4,21.3,M,-22.1,M,10.0,0302*61
06/07/2019,22:41:29.557,$GPGGA,224128,4437.5831,N,12402.9432,W,2,07,01.4,21.4,M,-22.1,M,11.0,0302*68
06/07/2019,22:41:30.538,$GPGGA,224129,4437.5831,N,12402.9432,W,2,07,01.4,21.4,M,-22.1,M,12.0,0302*6A
06/07/2019,22:41:31.661,$GPGGA,224130,4437.5831,N,12402.9432,W,2,07,01.4,21.4,M,-22.1,M,10.0,0302*60
06/07/2019,22:41:32.921,$GPGGA,224131,4437.5831,N,12402.9432,W,2,07,01.4,21.4,M,-22.1,M,11.0,0302*60
06/07/2019,22:41:33.647,$GPGGA,224132,4437.5831,N,12402.9432,W,2,07,01.4,21.4,M,-22.1,M,12.0,0302*60
06/07/2019,22:41:34.538,$GPGGA,224133,4437.5831,N,12402.9432,W,2,07,01.4,21.4,M,-22.1,M,10.0,0302*63
06/07/2019,22:41:35.630,$GPGGA,224134,4437.5831,N,12402.9432,W,2,07,01.4,21.3,M,-22.1,M,11.0,0302*62
06/07/2019,22:41:36.639,$GPGGA,224135,4437.5831,N,12402.9432,W,2,07,01.4,21.3,M,-22.1,M,12.0,0302*60
06/07/2019,22:41:37.559,$GPGGA,224136,4437.5831,N,12402.9432,W,2,07,01.4,21.3,M,-22.1,M,10.0,0302*61
06/07/2019,22:41:38.645,$GPGGA,224137,4437.5831,N,12402.9432,W,2,07,01.4,21.3,M,-22.1,M,11.0,0302*61
06/07/2019,22:41:39.631,$GPGGA,224138,4437.5831,N,12402.9432,W,2,07,01.4,21.3,M,-22.1,M,12.0,0302*6D
06/07/2019,22:41:41.231,$GPGGA,224139,4437.5831,N,12402.9432,W,2,07,01.4,21.3,M,-22.1,M,10.0,0302*6E
06/07/2019,22:41:41.781,$GPGGA,224140,4437.5831,N,12402.9432,W,2,07,01.4,21.3,M,-22.1,M,11.0,0302*61
06/07/2019,22:41:42.587,$GPGGA,224141,4437.5831,N,12402.9432,W,2,07,01.4,21.3,M,-22.1,M,12.0,0302*63
06/07/2019,22:41:43.583,$GPGGA,224142,4437.5831,N,12402.9432,W,2,07,01.4,21.3,M,-22.1,M,10.0,0302*62
06/07/2019,22:41:44.976,$GPGGA,224143,4437.5831,N,12402.9432,W,2,07,01.4,21.3,M,-22.1,M,11.0,0302*62
06/07/2019,22:41:45.696,$GPGGA,224144,4437.5831,N,12402.9432,W,2,07,01.4,21.3,M,-22.1,M,12.0,0302*66
06/07/2019,22:41:46.538,$GPGGA,224145,4437.5831,N,12402.9432,W,2,07,01.4,21.3,M,-22.1,M,10.0,0302*65
06/07/2019,22:41:47.632,$GPGGA,224146,4437.5831,N,12402.9432,W,2,07,01.4,21.3,M,-22.1,M,11.0,0302*67
06/07/2019,22:41:48.531,$GPGGA,224147,4437.5831,N,12402.9432,W,2,07,01.4,21.3,M,-22.1,M,12.0,0302*65
06/07/2019,22:41:49.648,$GPGGA,224148,4437.5831,N,12402.9432,W,2,07,01.4,21.3,M,-22.1,M,10.0,0302*68
06/07/2019,22:41:50.539,$GPGGA,224149,4437.5831,N,12402.9432,W,2,07,01.4,21.3,M,-22.1,M,11.0,0302*68
06/07/2019,22:41:51.831,$GPGGA,224150,4437.5831,N,12402.9432,W,2,07,01.4,21.3,M,-22.1,M,12.0,0302*63
06/07/2019,22:41:52.927,$GPGGA,224151,4437.5831,N,12402.9432,W,2,07,01.4,21.3,M,-22.1,M,10.0,0302*60
06/07/2019,22:41:53.647,$GPGGA,224152,4437.5831,N,12402.9432,W,2,07,01.4,21.2,M,-22.1,M,11.0,0302*63
06/07/2019,22:41:54.538,$GPGGA,224153,4437.5831,N,12402.9432,W,2,07,01.4,21.3,M,-22.1,M,12.0,0302*60
06/07/2019,22:41:55.420,$GPGGA,224154,4437.5831,N,12402.9432,W,2,07,01.4,21.3,M,-22.1,M,10.0,0302*65
06/07/2019,22:41:56.575,$GPGGA,224155,4437.5831,N,12402.9432,W,2,07,01.4,21.3,M,-22.1,M,11.0,0302*65
06/07/2019,22:41:57.697,$GPGGA,224156,4437.5831,N,12402.9432,W,2,07,01.4,21.3,M,-22.1,M,12.0,0302*65
06/07/2019,22:41:58.539,$GPGGA,224157,4437.5831,N,12402.9432,W,2,07,01.4,21.3,M,-22.1,M,10.0,0302*66
06/07/2019,22:41:59.631,$GPGGA,224158,4437.5831,N,12402.9432,W,2,07,01.4,21.2,M,-22.1,M,11.0,0302*69
06/07/2019,22:42:00.532,$GPGGA,224159,4437.5831,N,12402.9432,W,2,07,01.4,21.2,M,-22.1,M,12.0,0302*6B
06/07/2019,22:42:02.559,$GPGGA,224201,4437.5831,N,12402.9432,W,2,07,01.4,21.2,M,-22.1,M,11.0,0302*66
06/07/2019,22:42:03.486,$GPGGA,224202,4437.5831,N,12402.9432,W,2,07,01.4,21.2,M,-22.1,M,12.0,0302*66
06/07/2019,22:42:04.674,$GPGGA,224203,4437.5831,N,12402.9432,W,2,07,01.4,21.2,M,-22.1,M,10.0,0302*65
06/07/2019,22:42:05.479,$GPGGA,224204,4437.5831,N,12402.9432,W,2,07,01.4,21.2,M,-22.1,M,11.0,0302*63
06/07/2019,22:42:06.608,$GPGGA,224205,4437.5831,N,12402.9432,W,2,07,01.4,21.2,M,-22.1,M,12.0,0302*61
06/07/2019,22:42:07.486,$GPGGA,224206,4437.5831,N,12402.9432,W,2,07,01.4,21.2,M,-22.1,M,10.0,0302*60
06/07/2019,22:42:09.671,$GPGGA,224208,4437.5831,N,12402.9432,W,2,07,01.4,21.2,M,-22.1,M,12.0,0302*6C
06/07/2019,22:42:10.479,$GPGGA,224209,4437.5831,N,12402.9432,W,2,07,01.4,21.2,M,-22.1,M,10.0,0302*6F
06/07/2019,22:42:11.598,$GPGGA,224210,4437.5831,N,12402.9432,W,2,07,01.4,21.2,M,-22.1,M,11.0,0302*66
06/07/2019,22:42:12.487,$GPGGA,224211,4437.5831,N,12402.9432,W,2,07,01.4,21.2,M,-22.1,M,12.0,0302*64
06/07/2019,22:42:13.671,$GPGGA,224212,4437.5831,N,12402.9432,W,2,07,01.4,21.2,M,-22.1,M,10.0,0302*65
06/07/2019,22:42:14.479,$GPGGA,224213,4437.5831,N,12402.9432,W,2,07,01.4,21.2,M,-22.1,M,11.0,0302*65
06/07/2019,22:42:15.602,$GPGGA,224214,4437.5831,N,12402.9432,W,2,07,01.4,21.2,M,-22.1,M,12.0,0302*61
06/07/2019,22:42:16.487,$GPGGA,224215,4437.5831,N,12402.9432,W,2,07,01.4,21.2,M,-22.1,M,10.0,0302*62
06/07/2019,22:42:17.681,$GPGGA,224216,4437.5831,N,12402.9432,W,2,07,01.4,21.2,M,-22.1,M,11.0,0302*60
06/07/2019,22:42:18.479,$GPGGA,224217,4437.5831,N,12402.9432,W,2,07,01.4,21.2,M,-22.1,M,12.0,0302*62
06/07/2019,22:42:19.706,$GPGGA,224218,4437.5831,N,12402.9432,W,2,07,01.4,21.2,M,-22.1,M,10.0,0302*6F
06/07/2019,22:42:20.583,$GPGGA,224219,4437.5830,N,12402.9432,W,2,07,01.4,21.2,M,-22.1,M,11.0,0302*6E
06/07/2019,22:42:21.589,$GPGGA,224220,4437.5831,N,12402.9432,W,2,07,01.4,21.2,M,-22.1,M,12.0,0302*66
06/07/2019,22:42:22.597,$GPGGA,224221,4437.5831,N,12402.9432,W,2,07,01.4,21.1,M,-22.1,M,10.0,0302*66
06/07/2019,22:42:23.559,$GPGGA,224222,4437.5831,N,12402.9432,W,2,07,01.4,21.1,M,-22.1,M,11.0,0302*64
06/07/2019,22:42:24.629,$GPGGA,224223,4437.5831,N,12402.9432,W,2,07,01.4,21.1,M,-22.1,M,12.0,0302*66
06/07/2019,22:42:25.632,$GPGGA,224224,4437.5830,N,12402.9432,W,2,07,01.4,21.1,M,-22.1,M,10.0,0302*62
06/07/2019,22:42:26.644,$GPGGA,224225,4437.5831,N,12402.9432,W,2,07,01.4,21.1,M,-22.1,M,11.0,0302*63
06/07/2019,22:42:27.349,$GPGGA,224226,4437.5831,N,12402.9432,W,2,07,01.4,21.1,M,-22.1,M,12.0,0302*63
06/07/2019,22:42:28.683,$GPGGA,224227,4437.5831,N,12402.9432,W,2,07,01.4,21.1,M,-22.1,M,10.0,0302*60
06/07/2019,22:42:30.579,$GPGGA,224229,4437.5831,N,12402.9432,W,2,07,01.4,21.1,M,-22.1,M,12.0,0302*6C
06/07/2019,22:42:31.682,$GPGGA,224230,4437.5831,N,12402.9432,W,2,07,01.4,21.1,M,-22.1,M,10.0,0302*66
06/07/2019,22:42:32.508,$GPGGA,224231,4437.5831,N,12402.9432,W,2,07,01.4,21.1,M,-22.1,M,11.0,0302*66
06/07/2019,22:42:33.489,$GPGGA,224232,4437.5831,N,12402.9432,W,2,07,01.4,21.1,M,-22.1,M,12.0,0302*66
06/07/2019,22:42:34.683,$GPGGA,224233,4437.5831,N,12402.9432,W,2,07,01.4,21.1,M,-22.1,M,10.0,0302*65
06/07/2019,22:42:35.481,$GPGGA,224234,4437.5830,N,12402.9432,W,2,07,01.4,21.1,M,-22.1,M,11.0,0302*62
06/07/2019,22:42:36.602,$GPGGA,224235,4437.5830,N,12402.9432,W,2,07,01.4,21.1,M,-22.1,M,12.0,0302*60
06/07/2019,22:42:37.488,$GPGGA,224236,4437.5830,N,12402.9432,W,2,07,01.4,21.1,M,-22.1,M,10.0,0302*61
06/07/2019,22:42:38.682,$GPGGA,224237,4437.5830,N,12402.9432,W,2,07,01.4,21.1,M,-22.1,M,11.0,0302*61
06/07/2019,22:42:39.481,$GPGGA,224238,4437.5830,N,12402.9432,W,2,07,01.4,21.1,M,-22.1,M,12.0,0302*6D
06/07/2019,22:42:40.602,$GPGGA,224239,4437.5830,N,12402.9432,W,2,07,01.4,21.1,M,-22.1,M,10.0,0302*6E
06/07/2019,22:42:42.488,$GPGGA,224241,4437.5831,N,12402.9432,W,2,07,01.4,21.1,M,-22.1,M,12.0,0302*62
06/07/2019,22:42:43.633,$GPGGA,224242,4437.5831,N,12402.9432,W,2,07,01.4,21.1,M,-22.1,M,10.0,0302*63
06/07/2019,22:42:44.534,$GPGGA,224243,4437.5831,N,12402.9432,W,2,07,01.4,21.1,M,-22.1,M,11.0,0302*63
06/07/2019,22:42:46.661,$GPGGA,224245,4437.5831,N,12402.9432,W,2,07,01.4,21.1,M,-22.1,M,10.0,0302*64
06/07/2019,22:42:47.541,$GPGGA,224246,4437.5831,N,12402.9432,W,2,07,01.4,21.1,M,-22.1,M,11.0,0302*66
06/07/2019,22:42:48.634,$GPGGA,224247,4437.5831,N,12402.9432,W,2,07,01.4,21.1,M,-22.1,M,12.0,0302*64
06/07/2019,22:42:49.624,$GPGGA,224248,4437.5831,N,12402.9432,W,2,07,01.4,21.1,M,-22.1,M,10.0,0302*69
06/07/2019,22:42:50.561,$GPGGA,224249,4437.5831,N,12402.9432,W,2,07,01.4,21.1,M,-22.1,M,11.0,0302*69
06/07/2019,22:42:51.741,$GPGGA,224250,4437.5831,N,12402.9432,W,2,07,01.4,21.1,M,-22.1,M,12.0,0302*62
06/07/2019,22:42:52.634,$GPGGA,224251,4437.5831,N,12402.9432,W,2,07,01.4,21.1,M,-22.1,M,10.0,0302*61
06/07/2019,22:42:53.534,$GPGGA,224252,4437.5831,N,12402.9432,W,2,07,01.4,21.1,M,-22.1,M,11.0,0302*63
06/07/2019,22:42:55.560,$GPGGA,224254,4437.5831,N,12402.9432,W,2,07,01.4,21.1,M,-22.1,M,10.0,0302*64
06/07/2019,22:42:56.542,$GPGGA,224255,4437.5831,N,12402.9432,W,2,07,01.4,21.1,M,-22.1,M,11.0,0302*64
06/07/2019,22:42:57.731,$GPGGA,224256,4437.5831,N,12402.9432,W,2,07,01.4,21.2,M,-22.1,M,12.0,0302*67
06/07/2019,22:42:58.535,$GPGGA,224257,4437.5831,N,12402.9432,W,2,07,01.4,21.2,M,-22.1,M,10.0,0302*64
06/07/2019,22:42:59.761,$GPGGA,224258,4437.5831,N,12402.9432,W,2,07,01.4,21.2,M,-22.1,M,11.0,0302*6A
06/07/2019,22:43:00.542,$GPGGA,224259,4437.5831,N,12402.9432,W,2,07,01.4,21.2,M,-22.1,M,12.0,0302*68
06/07/2019,22:43:01.723,$GPGGA,224300,4437.5831,N,12402.9432,W,2,07,01.4,21.2,M,-22.1,M,10.0,0302*67
06/07/2019,22:43:02.535,$GPGGA,224301,4437.5831,N,12402.9432,W,2,07,01.4,21.2,M,-22.1,M,11.0,0302*67
06/07/2019,22:43:03.599,$GPGGA,224302,4437.5831,N,12402.9432,W,2,07,01.4,21.2,M,-22.1,M,12.0,0302*67
06/07/2019,22:43:04.489,$GPGGA,224303,4437.5831,N,12402.9432,W,2,07,01.4,21.2,M,-22.1,M,10.0,0302*64
06/07/2019,22:43:05.673,$GPGGA,224304,4437.5831,N,12402.9432,W,2,07,01.4,21.2,M,-22.1,M,11.0,0302*62
06/07/2019,22:43:06.483,$GPGGA,224305,4437.5831,N,12402.9432,W,2,07,01.4,21.2,M,-22.1,M,12.0,0302*60
06/07/2019,22:43:07.509,$GPGGA,224306,4437.5831,N,12402.9432,W,2,07,01.4,21.2,M,-22.1,M,10.0,0302*61
06/07/2019,22:43:08.584,$GPGGA,224307,4437.5831,N,12402.9432,W,2,07,01.4,21.2,M,-22.1,M,11.0,0302*61
06/07/2019,22:43:09.583,$GPGGA,224308,4437.5831,N,12402.9432,W,2,07,01.4,21.3,M,-22.1,M,12.0,0302*6C
06/07/2019,22:43:10.482,$GPGGA,224309,4437.5831,N,12402.9432,W,2,07,01.4,21.3,M,-22.1,M,10.0,0302*6F
06/07/2019,22:43:11.560,$GPGGA,224310,4437.5831,N,12402.9432,W,2,07,01.4,21.3,M,-22.1,M,11.0,0302*66
06/07/2019,22:43:12.591,$GPGGA,224311,4437.5831,N,12402.9432,W,2,07,01.4,21.3,M,-22.1,M,12.0,0302*64
06/07/2019,22:43:13.582,$GPGGA,224312,4437.5831,N,12402.9432,W,2,07,01.4,21.3,M,-22.1,M,10.0,0302*65
06/07/2019,22:43:14.602,$GPGGA,224313,4437.5831,N,12402.9432,W,2,07,01.4,21.3,M,-22.1,M,11.0,0302*65
06/07/2019,22:43:15.901,$GPGGA,224314,4437.5831,N,12402.9432,W,2,07,01.4,21.3,M,-22.1,M,12.0,0302*61
06/07/2019,22:43:16.600,$GPGGA,224315,4437.5831,N,12402.9432,W,2,07,01.4,21.3,M,-22.1,M,10.0,0302*62
06/07/2019,22:43:17.583,$GPGGA,224316,4437.5831,N,12402.9432,W,2,07,01.4,21.3,M,-22.1,M,11.0,0302*60
06/07/2019,22:43:18.585,$GPGGA,224317,4437.5831,N,12402.9432,W,2,07,01.4,21.3,M,-22.1,M,12.0,0302*62
06/07/2019,22:43:19.510,$GPGGA,224318,4437.5831,N,12402.9432,W,2,07,01.4,21.3,M,-22.1,M,10.0,0302*6F
06/07/2019,22:43:20.584,$GPGGA,224319,4437.5831,N,12402.9432,W,2,07,01.4,21.3,M,-22.1,M,11.0,0302*6F
06/07/2019,22:43:21.583,$GPGGA,224320,4437.5831,N,12402.9432,W,2,07,01.4,21.3,M,-22.1,M,09.0,0302*6C
06/07/2019,22:43:22.584,$GPGGA,224321,4437.5831,N,12402.9432,W,2,07,01.4,21.3,M,-22.1,M,10.0,0302*65
06/07/2019,22:43:23.902,$GPGGA,224322,4437.5831,N,12402.9432,W,2,07,01.4,21.3,M,-22.1,M,08.0,0302*6F
06/07/2019,22:43:24.601,$GPGGA,224323,4437.5831,N,12402.9432,W,2,07,01.4,21.3,M,-22.1,M,09.0,0302*6F
06/07/2019,22:43:25.784,$GPGGA,224324,4437.5831,N,12402.9432,W,2,07,01.4,21.3,M,-22.1,M,10.0,0302*60
06/07/2019,22:43:26.875,$GPGGA,224325,4437.5831,N,12402.9432,W,2,07,01.4,21.3,M,-22.1,M,10.0,0302*61
06/07/2019,22:43:27.612,$GPGGA,224326,4437.5831,N,12402.9432,W,2,07,01.4,21.3,M,-22.1,M,11.0,0302*63
06/07/2019,22:43:28.584,$GPGGA,224327,4437.5831,N,12402.9432,W,2,07,01.4,21.3,M,-22.1,M,12.0,0302*61
06/07/2019,22:43:29.584,$GPGGA,224328,4437.5831,N,12402.9432,W,2,07,01.4,21.3,M,-22.1,M,13.0,0302*6F
06/07/2019,22:43:30.585,$GPGGA,224329,4437.5831,N,12402.9432,W,2,07,01.4,21.3,M,-22.1,M,11.0,0302*6C
06/07/2019,22:43:31.511,$GPGGA,224330,4437.5831,N,12402.9432,W,2,07,01.4,21.3,M,-22.1,M,12.0,0302*67
06/07/2019,22:43:32.692,$GPGGA,224331,4437.5831,N,12402.9432,W,2,07,01.4,21.3,M,-22.1,M,13.0,0302*67
06/07/2019,22:43:33.583,$GPGGA,224332,4437.5831,N,12402.9432,W,2,07,01.4,21.3,M,-22.1,M,11.0,0302*66
06/07/2019,22:43:34.981,$GPGGA,224333,4437.5831,N,12402.9432,W,2,07,01.4,21.3,M,-22.1,M,12.0,0302*64
06/07/2019,22:43:35.716,$GPGGA,224334,4437.5831,N,12402.9432,W,2,07,01.4,21.3,M,-22.1,M,13.0,0302*62
06/07/2019,22:43:36.687,$GPGGA,224335,4437.5831,N,12402.9432,W,2,07,01.4,21.3,M,-22.1,M,09.0,0302*68
06/07/2019,22:43:38.685,$GPGGA,224337,4437.5831,N,12402.9432,W,2,07,01.4,21.3,M,-22.1,M,11.0,0302*63
06/07/2019,22:43:39.600,$GPGGA,224338,4437.5831,N,12402.9432,W,2,07,01.4,21.3,M,-22.1,M,09.0,0302*65
06/07/2019,22:43:40.511,$GPGGA,224339,4437.5831,N,12402.9432,W,2,07,01.4,21.3,M,-22.1,M,10.0,0302*6C
06/07/2019,22:43:41.582,$GPGGA,224340,4437.5831,N,12402.9432,W,2,07,01.4,21.3,M,-22.1,M,11.0,0302*63
06/07/2019,22:43:42.584,$GPGGA,224341,4437.5831,N,12402.9432,W,2,07,01.4,21.3,M,-22.1,M,09.0,0302*6B
06/07/2019,22:43:43.484,$GPGGA,224342,4437.5831,N,12402.9432,W,2,07,01.4,21.3,M,-22.1,M,10.0,0302*60
06/07/2019,22:43:44.510,$GPGGA,224343,4437.5831,N,12402.9432,W,2,07,01.4,21.3,M,-22.1,M,08.0,0302*68
06/07/2019,22:43:45.581,$GPGGA,224344,4437.5831,N,12402.9432,W,2,07,01.4,21.3,M,-22.1,M,09.0,0302*6E
06/07/2019,22:43:46.584,$GPGGA,224345,4437.5831,N,12402.9432,W,2,07,01.4,21.3,M,-22.1,M,08.0,0302*6E
06/07/2019,22:43:47.484,$GPGGA,224346,4437.5831,N,12402.9432,W,2,07,01.4,21.3,M,-22.1,M,09.0,0302*6C
06/07/2019,22:43:48.604,$GPGGA,224347,4437.5831,N,12402.9432,W,2,07,01.4,21.3,M,-22.1,M,10.0,0302*65
06/07/2019,22:43:49.492,$GPGGA,224348,4437.5831,N,12402.9432,W,2,07,01.4,21.3,M,-22.1,M,10.0,0302*6A
06/07/2019,22:43:50.686,$GPGGA,224349,4437.5831,N,12402.9432,W,2,07,01.4,21.3,M,-22.1,M,11.0,0302*6A
06/07/2019,22:43:52.680,$GPGGA,224351,4437.5831,N,12402.9432,W,2,07,01.4,21.2,M,-22.1,M,09.0,0302*6B
06/07/2019,22:43:54.613,$GPGGA,224353,4437.5831,N,12402.9432,W,2,07,01.4,21.2,M,-22.1,M,11.0,0302*60
06/07/2019,22:43:55.582,$GPGGA,224354,4437.5831,N,12402.9432,W,2,07,01.4,21.2,M,-22.1,M,09.0,0302*6E
06/07/2019,22:43:56.585,$GPGGA,224355,4437.5831,N,12402.9432,W,2,07,01.4,21.3,M,-22.1,M,10.0,0302*66
06/07/2019,22:43:57.485,$GPGGA,224356,4437.5831,N,12402.9432,W,2,07,01.4,21.2,M,-22.1,M,11.0,0302*65
06/07/2019,22:43:58.511,$GPGGA,224357,4437.5831,N,12402.9432,W,2,07,01.4,21.2,M,-22.1,M,09.0,0302*6D
06/07/2019,22:43:59.582,$GPGGA,224358,4437.5831,N,12402.9432,W,2,07,01.4,21.2,M,-22.1,M,10.0,0302*6A
06/07/2019,22:44:00.679,$GPGGA,224359,4437.5831,N,12402.9432,W,2,07,01.4,21.2,M,-22.1,M,11.0,0302*6A
06/07/2019,22:44:01.485,$GPGGA,224400,4437.5831,N,12402.9432,W,2,07,01.4,21.2,M,-22.1,M,09.0,0302*68
06/07/2019,22:44:02.614,$GPGGA,224401,4437.5831,N,12402.9432,W,2,07,01.4,21.2,M,-22.1,M,10.0,0302*61
06/07/2019,22:44:03.493,$GPGGA,224402,4437.5831,N,12402.9432,W,2,07,01.4,21.2,M,-22.1,M,11.0,0302*63
