07/18/2019,16:39:06.658,$GPGGA,163906,4437.5847,N,12402.8840,W,2,07,01.2,19.6,M,-22.1,M,09.0,0272*65
07/18/2019,16:39:07.659,$GPGGA,163907,4437.5847,N,12402.8840,W,2,07,01.2,19.6,M,-22.1,M,10.0,0272*6C
07/18/2019,16:39:08.592,$GPGGA,163908,4437.5847,N,12402.8840,W,2,07,01.2,19.7,M,-22.1,M,11.0,0272*63
07/18/2019,16:39:09.683,$GPGGA,163909,4437.5847,N,12402.8840,W,2,07,01.2,19.7,M,-22.1,M,09.0,0272*6B
07/18/2019,16:39:10.606,$GPGGA,163910,4437.5847,N,12402.8840,W,2,07,01.2,19.7,M,-22.1,M,10.0,0272*6B
07/18/2019,16:39:11.710,$GPGGA,163911,4437.5847,N,12402.8840,W,2,07,01.2,19.7,M,-22.1,M,11.0,0272*6B
07/18/2019,16:39:12.601,$GPGGA,163912,4437.5847,N,12402.8840,W,2,07,01.2,19.8,M,-22.1,M,09.0,0272*6E
07/18/2019,16:39:13.687,$GPGGA,163913,4437.5847,N,12402.8840,W,2,07,01.2,19.8,M,-22.1,M,10.0,0272*67
07/18/2019,16:39:14.642,$GPGGA,163914,4437.5847,N,12402.8840,W,2,07,01.2,19.8,M,-22.1,M,11.0,0272*61
07/18/2019,16:39:15.668,$GPGGA,163915,4437.5847,N,12402.8840,W,2,07,01.2,19.8,M,-22.1,M,09.0,0272*69
07/18/2019,16:39:16.592,$GPGGA,163916,4437.5847,N,12402.8840,W,2,07,01.2,19.8,M,-22.1,M,10.0,0272*62
07/18/2019,16:39:17.743,$GPGGA,163917,4437.5847,N,12402.8840,W,2,07,01.2,19.8,M,-22.1,M,11.0,0272*62
07/18/2019,16:39:18.642,$GPGGA,163918,4437.5847,N,12402.8840,W,2,07,01.2,19.9,M,-22.1,M,09.0,0272*65
07/18/2019,16:39:19.659,$GPGGA,163919,4437.5847,N,12402.8840,W,2,07,01.2,19.9,M,-22.1,M,10.0,0272*6C
07/18/2019,16:39:20.604,$GPGGA,163920,4437.5847,N,12402.8840,W,2,07,01.2,19.9,M,-22.1,M,11.0,0272*67
07/18/2019,16:39:21.783,$GPGGA,163921,4437.5847,N,12402.8840,W,2,07,01.2,19.9,M,-22.1,M,09.0,0272*6F
07/18/2019,16:39:22.595,$GPGGA,163922,4437.5847,N,12402.8840,W,2,07,01.2,19.8,M,-22.1,M,10.0,0272*65
07/18/2019,16:39:23.639,$GPGGA,163923,4437.5847,N,12402.8840,W,2,07,01.2,19.9,M,-22.1,M,11.0,0272*64
07/18/2019,16:39:24.603,$GPGGA,163924,4437.5847,N,12402.8840,W,2,07,01.2,19.9,M,-22.1,M,09.0,0272*6A
07/18/2019,16:39:25.683,$GPGGA,163925,4437.5847,N,12402.8840,W,2,07,01.2,19.9,M,-22.1,M,10.0,0272*63
07/18/2019,16:39:26.658,$GPGGA,163926,4437.5847,N,12402.8840,W,2,07,01.2,19.9,M,-22.1,M,11.0,0272*61
07/18/2019,16:39:27.670,$GPGGA,163927,4437.5847,N,12402.8840,W,2,07,01.2,19.9,M,-22.1,M,09.0,0272*69
07/18/2019,16:39:28.640,$GPGGA,163928,4437.5847,N,12402.8840,W,2,07,01.2,19.9,M,-22.1,M,10.0,0272*6E
07/18/2019,16:39:29.783,$GPGGA,163929,4437.5847,N,12402.8840,W,2,06,01.7,19.8,M,-22.1,M,11.0,0272*6B
07/18/2019,16:39:30.595,$GPGGA,163930,4437.5847,N,12402.8840,W,2,06,01.7,19.8,M,-22.1,M,09.0,0272*6A
07/18/2019,16:39:31.711,$GPGGA,163931,4437.5847,N,12402.8840,W,2,06,01.7,19.8,M,-22.1,M,10.0,0272*63
07/18/2019,16:39:32.603,$GPGGA,163932,4437.5847,N,12402.8840,W,2,06,01.7,19.8,M,-22.1,M,11.0,0272*61
07/18/2019,16:39:33.684,$GPGGA,163933,4437.5847,N,12402.8840,W,2,06,01.7,19.7,M,-22.1,M,09.0,0272*66
07/18/2019,16:39:34.595,$GPGGA,163934,4437.5847,N,12402.8840,W,2,06,01.7,19.7,M,-22.1,M,10.0,0272*69
07/18/2019,16:39:35.711,$GPGGA,163935,4437.5847,N,12402.8840,W,2,06,01.7,19.7,M,-22.1,M,11.0,0272*69
07/18/2019,16:39:36.691,$GPGGA,163936,4437.5847,N,12402.8840,W,2,06,01.7,19.7,M,-22.1,M,09.0,0272*63
07/18/2019,16:39:37.733,$GPGGA,163937,4437.5847,N,12402.8841,W,2,06,01.7,19.6,M,-22.1,M,10.0,0272*6A
07/18/2019,16:39:38.611,$GPGGA,163938,4437.5847,N,12402.8841,W,2,06,01.7,19.6,M,-22.1,M,11.0,0272*64
07/18/2019,16:39:39.615,$GPGGA,163939,4437.5847,N,12402.8841,W,2,06,01.7,19.6,M,-22.1,M,09.0,0272*6C
07/18/2019,16:39:40.651,$GPGGA,163940,4437.5847,N,12402.8841,W,2,06,01.7,19.6,M,-22.1,M,10.0,0272*6A
07/18/2019,16:39:41.733,$GPGGA,163941,4437.5847,N,12402.8841,W,2,06,01.7,19.6,M,-22.1,M,11.0,0272*6A
07/18/2019,16:39:42.696,$GPGGA,163942,4437.5847,N,12402.8841,W,2,06,01.7,19.6,M,-22.1,M,09.0,0272*60
07/18/2019,16:39:43.711,$GPGGA,163943,4437.5847,N,12402.8841,W,2,07,01.2,19.6,M,-22.1,M,10.0,0272*6D
07/18/2019,16:39:44.652,$GPGGA,163944,4437.5848,N,12402.8841,W,2,07,01.2,19.5,M,-22.1,M,08.0,0272*6F
07/18/2019,16:39:45.744,$GPGGA,163945,4437.5848,N,12402.8841,W,2,07,01.2,19.5,M,-22.1,M,09.0,0272*6F
07/18/2019,16:39:46.644,$GPGGA,163946,4437.5847,N,12402.8841,W,2,07,01.2,19.5,M,-22.1,M,10.0,0272*6B
07/18/2019,16:39:47.661,$GPGGA,163947,4437.5847,N,12402.8841,W,2,07,01.2,19.5,M,-22.1,M,08.0,0272*63
07/18/2019,16:39:48.702,$GPGGA,163948,4437.5847,N,12402.8841,W,2,07,01.2,19.5,M,-22.1,M,09.0,0272*6D
07/18/2019,16:39:49.684,$GPGGA,163949,4437.5848,N,12402.8841,W,2,07,01.2,19.5,M,-22.1,M,10.0,0272*6B
07/18/2019,16:39:50.644,$GPGGA,163950,4437.5848,N,12402.8841,W,2,07,01.2,19.5,M,-22.1,M,09.0,0272*6B
07/18/2019,16:39:51.660,$GPGGA,163951,4437.5847,N,12402.8841,W,2,07,01.2,19.5,M,-22.1,M,10.0,0272*6D
07/18/2019,16:39:52.709,$GPGGA,163952,4437.5847,N,12402.8841,W,2,07,01.2,19.5,M,-22.1,M,11.0,0272*6F
07/18/2019,16:39:53.684,$GPGGA,163953,4437.5847,N,12402.8841,W,2,07,01.2,19.5,M,-22.1,M,09.0,0272*67
07/18/2019,16:39:54.646,$GPGGA,163954,4437.5847,N,12402.8841,W,2,07,01.2,19.5,M,-22.1,M,10.0,0272*68
07/18/2019,16:39:55.661,$GPGGA,163955,4437.5848,N,12402.8841,W,2,07,01.2,19.5,M,-22.1,M,08.0,0272*6F
07/18/2019,16:39:56.594,$GPGGA,163956,4437.5848,N,12402.8841,W,2,07,01.2,19.5,M,-22.1,M,09.0,0272*6D
07/18/2019,16:39:57.745,$GPGGA,163957,4437.5847,N,12402.8841,W,2,07,01.2,19.5,M,-22.1,M,10.0,0272*6B
07/18/2019,16:39:58.645,$GPGGA,163958,4437.5847,N,12402.8841,W,2,07,01.2,19.4,M,-22.1,M,11.0,0272*64
07/18/2019,16:39:59.681,$GPGGA,163959,4437.5847,N,12402.8841,W,2,07,01.2,19.4,M,-22.1,M,12.0,0272*66
07/18/2019,16:40:00.640,$GPGGA,164000,4437.5847,N,12402.8841,W,2,07,01.2,19.4,M,-22.1,M,13.0,0272*65
07/18/2019,16:40:01.788,$GPGGA,164001,4437.5847,N,12402.8841,W,2,07,01.2,19.4,M,-22.1,M,10.0,0272*67
07/18/2019,16:40:02.596,$GPGGA,164002,4437.5847,N,12402.8841,W,2,07,01.2,19.4,M,-22.1,M,11.0,0272*65
07/18/2019,16:40:03.630,$GPGGA,164003,4437.5847,N,12402.8841,W,2,07,01.2,19.4,M,-22.1,M,12.0,0272*67
07/18/2019,16:40:04.594,$GPGGA,164004,4437.5847,N,12402.8841,W,2,07,01.2,19.4,M,-22.1,M,10.0,0272*62
07/18/2019,16:40:05.745,$GPGGA,164005,4437.5847,N,12402.8841,W,2,07,01.2,19.4,M,-22.1,M,11.0,0272*62
07/18/2019,16:40:06.646,$GPGGA,164006,4437.5847,N,12402.8841,W,2,07,01.2,19.4,M,-22.1,M,12.0,0272*62
07/18/2019,16:40:07.662,$GPGGA,164007,4437.5847,N,12402.8841,W,2,07,01.2,19.4,M,-22.1,M,10.0,0272*61
07/18/2019,16:40:08.641,$GPGGA,164008,4437.5847,N,12402.8841,W,2,07,01.2,19.4,M,-22.1,M,11.0,0272*6F
07/18/2019,16:40:09.735,$GPGGA,164009,4437.5847,N,12402.8841,W,2,07,01.2,19.4,M,-22.1,M,09.0,0272*67
07/18/2019,16:40:10.646,$GPGGA,164010,4437.5847,N,12402.8841,W,2,07,01.2,19.4,M,-22.1,M,10.0,0272*67
07/18/2019,16:40:11.671,$GPGGA,164011,4437.5847,N,12402.8841,W,2,07,01.2,19.4,M,-22.1,M,08.0,0272*6F
07/18/2019,16:40:12.652,$GPGGA,164012,4437.5847,N,12402.8841,W,2,07,01.2,19.4,M,-22.1,M,09.0,0272*6D
07/18/2019,16:40:13.741,$GPGGA,164013,4437.5847,N,12402.8841,W,2,07,01.2,19.4,M,-22.1,M,10.0,0272*64
07/18/2019,16:40:14.658,$GPGGA,164014,4437.5847,N,12402.8841,W,2,07,01.2,19.4,M,-22.1,M,11.0,0272*62
07/18/2019,16:40:15.661,$GPGGA,164015,4437.5847,N,12402.8841,W,2,07,01.2,19.4,M,-22.1,M,08.0,0272*6B
07/18/2019,16:40:16.607,$GPGGA,164016,4437.5847,N,12402.8841,W,2,07,01.2,19.4,M,-22.1,M,09.0,0272*69
07/18/2019,16:40:17.746,$GPGGA,164017,4437.5847,N,12402.8841,W,2,07,01.2,19.4,M,-22.1,M,10.0,0272*60
07/18/2019,16:40:18.647,$GPGGA,164018,4437.5847,N,12402.8841,W,2,07,01.2,19.4,M,-22.1,M,10.0,0272*6F
07/18/2019,16:40:19.662,$GPGGA,164019,4437.5847,N,12402.8841,W,2,06,01.7,19.4,M,-22.1,M,11.0,0272*6B
07/18/2019,16:40:20.594,$GPGGA,164020,4437.5847,N,12402.8841,W,2,06,01.7,19.4,M,-22.1,M,12.0,0272*62
07/18/2019,16:40:21.796,$GPGGA,164021,4437.5847,N,12402.8841,W,2,06,01.7,19.3,M,-22.1,M,09.0,0272*6E
07/18/2019,16:40:22.697,$GPGGA,164022,4437.5847,N,12402.8841,W,2,06,01.7,19.3,M,-22.1,M,10.0,0272*65
07/18/2019,16:40:23.713,$GPGGA,164023,4437.5847,N,12402.8841,W,2,06,01.7,19.3,M,-22.1,M,11.0,0272*65
07/18/2019,16:40:24.642,$GPGGA,164024,4437.5847,N,12402.8841,W,2,07,01.2,19.3,M,-22.1,M,09.0,0272*6F
07/18/2019,16:40:25.690,$GPGGA,164025,4437.5847,N,12402.8841,W,2,07,01.2,19.3,M,-22.1,M,10.0,0272*66
07/18/2019,16:40:26.661,$GPGGA,164026,4437.5847,N,12402.8841,W,2,07,01.2,19.3,M,-22.1,M,11.0,0272*64
07/18/2019,16:40:27.674,$GPGGA,164027,4437.5847,N,12402.8841,W,2,07,01.2,19.3,M,-22.1,M,09.0,0272*6C
07/18/2019,16:40:28.694,$GPGGA,164028,4437.5847,N,12402.8841,W,2,07,01.2,19.3,M,-22.1,M,10.0,0272*6B
07/18/2019,16:40:29.686,$GPGGA,164029,4437.5847,N,12402.8841,W,2,07,01.2,19.3,M,-22.1,M,11.0,0272*6B
07/18/2019,16:40:30.646,$GPGGA,164030,4437.5847,N,12402.8841,W,2,07,01.2,19.4,M,-22.1,M,09.0,0272*6D
07/18/2019,16:40:31.662,$GPGGA,164031,4437.5847,N,12402.8841,W,2,07,01.2,19.4,M,-22.1,M,10.0,0272*64
07/18/2019,16:40:32.604,$GPGGA,164032,4437.5847,N,12402.8841,W,2,07,01.2,19.5,M,-22.1,M,11.0,0272*67
07/18/2019,16:40:33.786,$GPGGA,164033,4437.5847,N,12402.8841,W,2,07,01.2,19.5,M,-22.1,M,09.0,0272*6F
07/18/2019,16:40:34.598,$GPGGA,164034,4437.5847,N,12402.8841,W,2,07,01.2,19.5,M,-22.1,M,10.0,0272*60
07/18/2019,16:40:35.618,$GPGGA,164035,4437.5847,N,12402.8841,W,2,07,01.2,19.5,M,-22.1,M,11.0,0272*60
07/18/2019,16:40:36.653,$GPGGA,164036,4437.5847,N,12402.8841,W,2,07,01.2,19.5,M,-22.1,M,09.0,0272*6A
07/18/2019,16:40:37.735,$GPGGA,164037,4437.5847,N,12402.8840,W,2,07,01.2,19.5,M,-22.1,M,10.0,0272*62
07/18/2019,16:40:38.599,$GPGGA,164038,4437.5847,N,12402.8840,W,2,07,01.2,19.5,M,-22.1,M,11.0,0272*6C
07/18/2019,16:40:39.614,$GPGGA,164039,4437.5847,N,12402.8840,W,2,07,01.2,19.5,M,-22.1,M,09.0,0272*64
07/18/2019,16:40:40.605,$GPGGA,164040,4437.5847,N,12402.8840,W,2,07,01.2,19.5,M,-22.1,M,10.0,0272*62
07/18/2019,16:40:41.686,$GPGGA,164041,4437.5847,N,12402.8840,W,2,07,01.2,19.5,M,-22.1,M,11.0,0272*62
07/18/2019,16:40:42.647,$GPGGA,164042,4437.5847,N,12402.8841,W,2,07,01.2,19.5,M,-22.1,M,09.0,0272*69
07/18/2019,16:40:43.663,$GPGGA,164043,4437.5847,N,12402.8841,W,2,07,01.2,19.5,M,-22.1,M,10.0,0272*60
07/18/2019,16:40:44.704,$GPGGA,164044,4437.5847,N,12402.8841,W,2,07,01.2,19.5,M,-22.1,M,11.0,0272*66
07/18/2019,16:40:45.686,$GPGGA,164045,4437.5847,N,12402.8841,W,2,07,01.2,19.5,M,-22.1,M,09.0,0272*6E
07/18/2019,16:40:46.647,$GPGGA,164046,4437.5847,N,12402.8841,W,2,07,01.2,19.5,M,-22.1,M,10.0,0272*65
07/18/2019,16:40:47.663,$GPGGA,164047,4437.5847,N,12402.8840,W,2,07,01.2,19.6,M,-22.1,M,11.0,0272*67
07/18/2019,16:40:48.693,$GPGGA,164048,4437.5847,N,12402.8840,W,2,07,01.2,19.6,M,-22.1,M,09.0,0272*61
07/18/2019,16:40:49.736,$GPGGA,164049,4437.5847,N,12402.8840,W,2,07,01.2,19.6,M,-22.1,M,10.0,0272*68
07/18/2019,16:40:50.661,$GPGGA,164050,4437.5847,N,12402.8840,W,2,07,01.2,19.6,M,-22.1,M,11.0,0272*61
07/18/2019,16:40:51.663,$GPGGA,164051,4437.5847,N,12402.8840,W,2,07,01.2,19.7,M,-22.1,M,09.0,0272*68
07/18/2019,16:40:52.694,$GPGGA,164052,4437.5847,N,12402.8840,W,2,07,01.2,19.7,M,-22.1,M,10.0,0272*63
07/18/2019,16:40:53.787,$GPGGA,164053,4437.5847,N,12402.8840,W,2,07,01.2,19.7,M,-22.1,M,11.0,0272*63
07/18/2019,16:40:54.662,$GPGGA,164054,4437.5847,N,12402.8840,W,2,07,01.2,19.7,M,-22.1,M,09.0,0272*6D
07/18/2019,16:40:55.672,$GPGGA,164055,4437.5846,N,12402.8840,W,2,07,01.2,19.8,M,-22.1,M,10.0,0272*6A
07/18/2019,16:40:56.649,$GPGGA,164056,4437.5846,N,12402.8840,W,2,07,01.2,19.8,M,-22.1,M,08.0,0272*60
07/18/2019,16:40:57.699,$GPGGA,164057,4437.5847,N,12402.8840,W,2,07,01.2,19.8,M,-22.1,M,09.0,0272*61
07/18/2019,16:40:58.598,$GPGGA,164058,4437.5847,N,12402.8840,W,2,07,01.2,19.7,M,-22.1,M,08.0,0272*60
07/18/2019,16:40:59.621,$GPGGA,164059,4437.5847,N,12402.8840,W,2,07,01.2,19.7,M,-22.1,M,09.0,0272*60
07/18/2019,16:41:00.695,$GPGGA,164100,4437.5847,N,12402.8840,W,2,07,01.2,19.8,M,-22.1,M,09.0,0272*62
07/18/2019,16:41:01.697,$GPGGA,164101,4437.5847,N,12402.8840,W,2,07,01.2,19.7,M,-22.1,M,10.0,0272*64
07/18/2019,16:41:02.615,$GPGGA,164102,4437.5847,N,12402.8841,W,2,07,01.2,19.7,M,-22.1,M,08.0,0272*6F
07/18/2019,16:41:03.664,$GPGGA,164103,4437.5847,N,12402.8841,W,2,07,01.2,19.7,M,-22.1,M,09.0,0272*6F
07/18/2019,16:41:04.596,$GPGGA,164104,4437.5847,N,12402.8841,W,2,06,01.7,19.7,M,-22.1,M,10.0,0272*64
07/18/2019,16:41:05.788,$GPGGA,164105,4437.5847,N,12402.8841,W,2,06,01.7,19.6,M,-22.1,M,10.0,0272*64
07/18/2019,16:41:06.599,$GPGGA,164106,4437.5847,N,12402.8841,W,2,06,01.7,19.6,M,-22.1,M,11.0,0272*66
07/18/2019,16:41:07.714,$GPGGA,164107,4437.5847,N,12402.8841,W,2,06,01.7,19.6,M,-22.1,M,12.0,0272*64
07/18/2019,16:41:08.595,$GPGGA,164108,4437.5847,N,12402.8841,W,2,06,01.7,19.5,M,-22.1,M,09.0,0272*62
07/18/2019,16:41:09.747,$GPGGA,164109,4437.5847,N,12402.8841,W,2,07,01.2,19.5,M,-22.1,M,10.0,0272*6F
07/18/2019,16:41:10.675,$GPGGA,164110,4437.5847,N,12402.8841,W,2,07,01.2,19.5,M,-22.1,M,11.0,0272*66
07/18/2019,16:41:11.674,$GPGGA,164111,4437.5847,N,12402.8841,W,2,07,01.2,19.5,M,-22.1,M,09.0,0272*6E
07/18/2019,16:41:12.670,$GPGGA,164112,4437.5847,N,12402.8841,W,2,07,01.2,19.5,M,-22.1,M,10.0,0272*65
07/18/2019,16:41:13.695,$GPGGA,164113,4437.5847,N,12402.8841,W,2,07,01.2,19.5,M,-22.1,M,11.0,0272*65
07/18/2019,16:41:14.666,$GPGGA,164114,4437.5847,N,12402.8841,W,2,07,01.2,19.5,M,-22.1,M,10.0,0272*63
07/18/2019,16:41:15.664,$GPGGA,164115,4437.5847,N,12402.8841,W,2,07,01.2,19.6,M,-22.1,M,11.0,0272*60
07/18/2019,16:41:16.644,$GPGGA,164116,4437.5847,N,12402.8841,W,2,07,01.2,19.6,M,-22.1,M,12.0,0272*60
07/18/2019,16:41:17.746,$GPGGA,164117,4437.5847,N,12402.8841,W,2,07,01.2,19.6,M,-22.1,M,10.0,0272*63
07/18/2019,16:41:18.648,$GPGGA,164118,4437.5847,N,12402.8841,W,2,07,01.2,19.7,M,-22.1,M,11.0,0272*6C
07/18/2019,16:41:19.664,$GPGGA,164119,4437.5847,N,12402.8841,W,2,07,01.2,19.7,M,-22.1,M,12.0,0272*6E
07/18/2019,16:41:20.695,$GPGGA,164120,4437.5847,N,12402.8841,W,2,07,01.2,19.7,M,-22.1,M,10.0,0272*66
07/18/2019,16:41:21.688,$GPGGA,164121,4437.5847,N,12402.8841,W,2,07,01.2,19.7,M,-22.1,M,11.0,0272*66
07/18/2019,16:41:22.649,$GPGGA,164122,4437.5846,N,12402.8841,W,2,07,01.2,19.8,M,-22.1,M,12.0,0272*68
07/18/2019,16:41:23.665,$GPGGA,164123,4437.5846,N,12402.8840,W,2,07,01.2,19.8,M,-22.1,M,10.0,0272*6A
07/18/2019,16:41:24.597,$GPGGA,164124,4437.5846,N,12402.8840,W,2,07,01.2,19.8,M,-22.1,M,11.0,0272*6C
07/18/2019,16:41:25.748,$GPGGA,164125,4437.5846,N,12402.8840,W,2,07,01.2,19.8,M,-22.1,M,12.0,0272*6E
07/18/2019,16:41:26.649,$GPGGA,164126,4437.5846,N,12402.8840,W,2,07,01.2,19.8,M,-22.1,M,10.0,0272*6F
07/18/2019,16:41:27.676,$GPGGA,164127,4437.5846,N,12402.8840,W,2,07,01.2,19.8,M,-22.1,M,11.0,0272*6F
07/18/2019,16:41:28.696,$GPGGA,164128,4437.5846,N,12402.8840,W,2,07,01.2,19.9,M,-22.1,M,12.0,0272*62
07/18/2019,16:41:29.788,$GPGGA,164129,4437.5846,N,12402.8840,W,2,07,01.2,19.9,M,-22.1,M,10.0,0272*61
07/18/2019,16:41:30.665,$GPGGA,164130,4437.5846,N,12402.8840,W,2,07,01.2,19.9,M,-22.1,M,11.0,0272*68
07/18/2019,16:41:31.675,$GPGGA,164131,4437.5846,N,12402.8841,W,2,07,01.2,19.9,M,-22.1,M,12.0,0272*6B
07/18/2019,16:41:32.653,$GPGGA,164132,4437.5846,N,12402.8841,W,2,07,01.2,19.9,M,-22.1,M,09.0,0272*62
07/18/2019,16:41:33.737,$GPGGA,164133,4437.5846,N,12402.8841,W,2,07,01.2,19.9,M,-22.1,M,10.0,0272*6B
07/18/2019,16:41:34.649,$GPGGA,164134,4437.5846,N,12402.8841,W,2,07,01.2,19.9,M,-22.1,M,11.0,0272*6D
07/18/2019,16:41:35.672,$GPGGA,164135,4437.5846,N,12402.8841,W,2,07,01.2,19.9,M,-22.1,M,10.0,0272*6D
07/18/2019,16:41:36.697,$GPGGA,164136,4437.5846,N,12402.8841,W,2,07,01.2,19.9,M,-22.1,M,11.0,0272*6F
07/18/2019,16:41:37.716,$GPGGA,164137,4437.5846,N,12402.8841,W,2,07,01.2,19.9,M,-22.1,M,12.0,0272*6D
07/18/2019,16:41:38.656,$GPGGA,164138,4437.5846,N,12402.8841,W,2,07,01.2,19.9,M,-22.1,M,10.0,0272*60
07/18/2019,16:41:39.716,$GPGGA,164139,4437.5846,N,12402.8841,W,2,07,01.2,20.0,M,-22.1,M,11.0,0272*63
07/18/2019,16:41:40.605,$GPGGA,164140,4437.5846,N,12402.8841,W,2,07,01.2,20.0,M,-22.1,M,12.0,0272*6E
07/18/2019,16:41:41.699,$GPGGA,164141,4437.5846,N,12402.8841,W,2,07,01.2,20.0,M,-22.1,M,10.0,0272*6D
07/18/2019,16:41:42.701,$GPGGA,164142,4437.5846,N,12402.8840,W,2,07,01.2,20.0,M,-22.1,M,11.0,0272*6E
07/18/2019,16:41:43.635,$GPGGA,164143,4437.5846,N,12402.8840,W,2,07,01.2,20.1,M,-22.1,M,12.0,0272*6D
07/18/2019,16:41:44.696,$GPGGA,164144,4437.5846,N,12402.8840,W,2,07,01.2,20.1,M,-22.1,M,10.0,0272*68
07/18/2019,16:41:45.709,$GPGGA,164145,4437.5846,N,12402.8840,W,2,07,01.2,20.1,M,-22.1,M,11.0,0272*68
07/18/2019,16:41:46.614,$GPGGA,164146,4437.5846,N,12402.8841,W,2,07,01.2,20.0,M,-22.1,M,09.0,0272*62
07/18/2019,16:41:47.666,$GPGGA,164147,4437.5846,N,12402.8841,W,2,07,01.2,20.0,M,-22.1,M,10.0,0272*6B
07/18/2019,16:41:48.697,$GPGGA,164148,4437.5846,N,12402.8841,W,2,07,01.2,19.9,M,-22.1,M,11.0,0272*66
07/18/2019,16:41:49.789,$GPGGA,164149,4437.5846,N,12402.8841,W,2,07,01.2,19.9,M,-22.1,M,09.0,0272*6E
07/18/2019,16:41:50.601,$GPGGA,164150,4437.5846,N,12402.8841,W,2,07,01.2,19.8,M,-22.1,M,10.0,0272*6F
07/18/2019,16:41:51.625,$GPGGA,164151,4437.5846,N,12402.8841,W,2,07,01.2,19.8,M,-22.1,M,11.0,0272*6F
07/18/2019,16:41:52.654,$GPGGA,164152,4437.5846,N,12402.8841,W,2,07,01.2,19.8,M,-22.1,M,10.0,0272*6D
07/18/2019,16:41:53.738,$GPGGA,164153,4437.5846,N,12402.8841,W,2,07,01.2,19.8,M,-22.1,M,11.0,0272*6D
07/18/2019,16:41:54.693,$GPGGA,164154,4437.5846,N,12402.8841,W,2,07,01.2,19.8,M,-22.1,M,09.0,0272*63
07/18/2019,16:41:55.716,$GPGGA,164155,4437.5846,N,12402.8841,W,2,07,01.2,19.8,M,-22.1,M,10.0,0272*6A
07/18/2019,16:41:56.609,$GPGGA,164156,4437.5846,N,12402.8841,W,2,07,01.2,19.8,M,-22.1,M,08.0,0272*60
07/18/2019,16:41:57.823,$GPGGA,164157,4437.5846,N,12402.8841,W,2,07,01.2,19.8,M,-22.1,M,09.0,0272*60
07/18/2019,16:41:58.602,$GPGGA,164158,4437.5846,N,12402.8841,W,2,07,01.2,19.7,M,-22.1,M,10.0,0272*68
07/18/2019,16:41:59.717,$GPGGA,164159,4437.5847,N,12402.8841,W,2,07,01.2,19.7,M,-22.1,M,11.0,0272*69
07/18/2019,16:42:00.646,$GPGGA,164200,4437.5847,N,12402.8841,W,2,07,01.2,19.7,M,-22.1,M,12.0,0272*65
07/18/2019,16:42:01.698,$GPGGA,164201,4437.5847,N,12402.8841,W,2,07,01.2,19.7,M,-22.1,M,08.0,0272*6F
07/18/2019,16:42:02.601,$GPGGA,164202,4437.5847,N,12402.8841,W,2,07,01.2,19.7,M,-22.1,M,09.0,0272*6D
07/18/2019,16:42:03.717,$GPGGA,164203,4437.5847,N,12402.8842,W,2,07,01.2,19.7,M,-22.1,M,08.0,0272*6E
07/18/2019,16:42:04.619,$GPGGA,164204,4437.5847,N,12402.8842,W,2,07,01.2,19.6,M,-22.1,M,09.0,0272*69
07/18/2019,16:42:05.749,$GPGGA,164205,4437.5847,N,12402.8842,W,2,07,01.2,19.6,M,-22.1,M,10.0,0272*60
07/18/2019,16:42:06.651,$GPGGA,164206,4437.5847,N,12402.8842,W,2,07,01.2,19.6,M,-22.1,M,10.0,0272*63
07/18/2019,16:42:07.677,$GPGGA,164207,4437.5847,N,12402.8842,W,2,07,01.2,19.6,M,-22.1,M,11.0,0272*63
07/18/2019,16:42:08.647,$GPGGA,164208,4437.5847,N,12402.8842,W,2,07,01.2,19.6,M,-22.1,M,12.0,0272*6F
07/18/2019,16:42:09.739,$GPGGA,164209,4437.5847,N,12402.8842,W,2,07,01.2,19.6,M,-22.1,M,09.0,0272*64
07/18/2019,16:42:10.663,$GPGGA,164210,4437.5847,N,12402.8842,W,2,07,01.2,19.6,M,-22.1,M,10.0,0272*64
07/18/2019,16:42:11.667,$GPGGA,164211,4437.5847,N,12402.8842,W,2,07,01.2,19.6,M,-22.1,M,11.0,0272*64
07/18/2019,16:42:12.608,$GPGGA,164212,4437.5847,N,12402.8842,W,2,07,01.2,19.6,M,-22.1,M,10.0,0272*66
07/18/2019,16:42:13.690,$GPGGA,164213,4437.5847,N,12402.8842,W,2,07,01.2,19.6,M,-22.1,M,11.0,0272*66
07/18/2019,16:42:14.666,$GPGGA,164214,4437.5847,N,12402.8842,W,2,07,01.2,19.6,M,-22.1,M,12.0,0272*62
07/18/2019,16:42:15.666,$GPGGA,164215,4437.5847,N,12402.8842,W,2,07,01.2,19.6,M,-22.1,M,09.0,0272*69
07/18/2019,16:42:16.602,$GPGGA,164216,4437.5847,N,12402.8842,W,2,07,01.2,19.5,M,-22.1,M,10.0,0272*61
07/18/2019,16:42:17.739,$GPGGA,164217,4437.5847,N,12402.8842,W,2,07,01.2,19.5,M,-22.1,M,11.0,0272*61
07/18/2019,16:42:18.603,$GPGGA,164218,4437.5847,N,12402.8842,W,2,07,01.2,19.5,M,-22.1,M,09.0,0272*67
07/18/2019,16:42:19.618,$GPGGA,164219,4437.5847,N,12402.8842,W,2,07,01.2,19.5,M,-22.1,M,10.0,0272*6E
07/18/2019,16:42:20.647,$GPGGA,164220,4437.5847,N,12402.8842,W,2,08,01.0,19.5,M,-22.1,M,11.0,0272*68
07/18/2019,16:42:21.740,$GPGGA,164221,4437.5847,N,12402.8842,W,2,08,01.0,19.5,M,-22.1,M,10.0,0272*68
07/18/2019,16:42:22.663,$GPGGA,164222,4437.5847,N,12402.8842,W,2,08,01.0,19.5,M,-22.1,M,11.0,0272*6A
07/18/2019,16:42:23.667,$GPGGA,164223,4437.5847,N,12402.8842,W,2,08,01.0,19.5,M,-22.1,M,12.0,0272*68
07/18/2019,16:42:24.647,$GPGGA,164224,4437.5847,N,12402.8842,W,2,08,01.0,19.5,M,-22.1,M,09.0,0272*65
07/18/2019,16:42:25.701,$GPGGA,164225,4437.5847,N,12402.8842,W,2,08,01.0,19.5,M,-22.1,M,10.0,0272*6C
07/18/2019,16:42:26.602,$GPGGA,164226,4437.5847,N,12402.8842,W,2,08,01.0,19.5,M,-22.1,M,11.0,0272*6E
07/18/2019,16:42:27.678,$GPGGA,164227,4437.5847,N,12402.8842,W,2,08,01.0,19.5,M,-22.1,M,09.0,0272*66
07/18/2019,16:42:28.599,$GPGGA,164228,4437.5848,N,12402.8842,W,2,08,01.0,19.4,M,-22.1,M,10.0,0272*6F
07/18/2019,16:42:29.703,$GPGGA,164229,4437.5848,N,12402.8842,W,2,08,01.0,19.4,M,-22.1,M,08.0,0272*67
07/18/2019,16:42:30.696,$GPGGA,164230,4437.5848,N,12402.8842,W,2,08,01.0,19.4,M,-22.1,M,09.0,0272*6E
07/18/2019,16:42:31.668,$GPGGA,164231,4437.5848,N,12402.8842,W,2,08,01.0,19.4,M,-22.1,M,08.0,0272*6E
07/18/2019,16:42:32.699,$GPGGA,164232,4437.5848,N,12402.8843,W,2,07,01.3,19.4,M,-22.1,M,09.0,0272*61
07/18/2019,16:42:33.691,$GPGGA,164233,4437.5848,N,12402.8843,W,2,07,01.3,19.4,M,-22.1,M,10.0,0272*68
07/18/2019,16:42:34.657,$GPGGA,164234,4437.5848,N,12402.8843,W,2,07,01.3,19.3,M,-22.1,M,10.0,0272*68
07/18/2019,16:42:35.667,$GPGGA,164235,4437.5848,N,12402.8843,W,2,07,01.3,19.3,M,-22.1,M,11.0,0272*68
07/18/2019,16:42:36.599,$GPGGA,164236,4437.5848,N,12402.8843,W,2,07,01.3,19.3,M,-22.1,M,08.0,0272*63
07/18/2019,16:42:37.740,$GPGGA,164237,4437.5848,N,12402.8843,W,2,07,01.3,19.3,M,-22.1,M,09.0,0272*63
07/18/2019,16:42:38.652,$GPGGA,164238,4437.5848,N,12402.8843,W,2,07,01.3,19.3,M,-22.1,M,10.0,0272*64
07/18/2019,16:42:39.678,$GPGGA,164239,4437.5848,N,12402.8843,W,2,07,01.3,19.3,M,-22.1,M,11.0,0272*64
07/18/2019,16:42:40.648,$GPGGA,164240,4437.5848,N,12402.8843,W,2,07,01.3,19.3,M,-22.1,M,12.0,0272*69
07/18/2019,16:42:41.692,$GPGGA,164241,4437.5848,N,12402.8843,W,2,07,01.3,19.3,M,-22.1,M,13.0,0272*69
