06/13/2019,15:32:25.802,$GPGGA,153224,4437.5827,N,12402.9430,W,2,09,00.9,20.5,M,-22.1,M,14.0,0302*66
06/13/2019,15:32:26.517,$GPGGA,153225,4437.5827,N,12402.9430,W,2,09,00.9,20.5,M,-22.1,M,15.0,0302*66
06/13/2019,15:32:27.736,$GPGGA,153226,4437.5827,N,12402.9430,W,2,09,00.9,20.5,M,-22.1,M,16.0,0302*66
06/13/2019,15:32:28.836,$GPGGA,153227,4437.5827,N,12402.9430,W,2,09,00.9,20.5,M,-22.1,M,17.0,0302*66
06/13/2019,15:32:29.564,$GPGGA,153228,4437.5827,N,12402.9430,W,2,09,00.9,20.5,M,-22.1,M,18.0,0302*66
06/13/2019,15:32:31.554,$GPGGA,153230,4437.5827,N,12402.9430,W,2,09,00.9,20.5,M,-22.1,M,20.0,0302*64
06/13/2019,15:32:32.488,$GPGGA,153231,4437.5827,N,12402.9430,W,2,09,00.9,20.5,M,-22.1,M,21.0,0302*64
06/13/2019,15:32:33.549,$GPGGA,153232,4437.5827,N,12402.9430,W,2,09,00.9,20.5,M,-22.1,M,22.0,0302*64
06/13/2019,15:32:35.570,$GPGGA,153234,4437.5827,N,12402.9430,W,2,09,00.9,20.5,M,-22.1,M,24.0,0302*64
06/13/2019,15:32:36.333,$GPGGA,153235,4437.5827,N,12402.9430,W,2,09,00.9,20.5,M,-22.1,M,25.0,0302*64
06/13/2019,15:32:37.652,$GPGGA,153236,4437.5827,N,12402.9430,W,2,09,00.9,20.5,M,-22.1,M,26.0,0302*64
06/13/2019,15:32:38.328,$GPGGA,153237,4437.5827,N,12402.9430,W,2,09,00.9,20.5,M,-22.1,M,27.0,0302*64
06/13/2019,15:32:39.570,$GPGGA,153238,4437.5827,N,12402.9430,W,2,09,00.9,20.5,M,-22.1,M,28.0,0302*64
06/13/2019,15:32:40.334,$GPGGA,153239,4437.5827,N,12402.9430,W,2,09,00.9,20.5,M,-22.1,M,29.0,0302*64
06/13/2019,15:32:41.648,$GPGGA,153240,4437.5827,N,12402.9430,W,2,09,00.9,20.5,M,-22.1,M,30.0,0302*62
06/13/2019,15:32:43.637,$GPGGA,153242,4437.5827,N,12402.9430,W,2,09,00.9,20.5,M,-22.1,M,32.0,0302*62
06/13/2019,15:32:44.354,$GPGGA,153243,4437.5827,N,12402.9430,W,2,09,00.9,20.5,M,-22.1,M,33.0,0302*62
06/13/2019,15:32:45.596,$GPGGA,153244,4437.5827,N,12402.9430,W,2,09,00.9,20.5,M,-22.1,M,34.0,0302*62
06/13/2019,15:32:46.388,$GPGGA,153245,4437.5827,N,12402.9430,W,2,09,00.9,20.5,M,-22.1,M,35.0,0302*62
06/13/2019,15:32:47.547,$GPGGA,153246,4437.5827,N,12402.9430,W,2,09,00.9,20.5,M,-22.1,M,36.0,0302*62
06/13/2019,15:32:48.354,$GPGGA,153247,4437.5827,N,12402.9430,W,2,09,00.9,20.5,M,-22.1,M,37.0,0302*62
06/13/2019,15:32:49.595,$GPGGA,153248,4437.5827,N,12402.9430,W,2,09,00.9,20.5,M,-22.1,M,31.0,0302*6B
06/13/2019,15:32:50.378,$GPGGA,153249,4437.5827,N,12402.9430,W,2,09,00.9,20.5,M,-22.1,M,32.0,0302*69
06/13/2019,15:32:51.546,$GPGGA,153250,4437.5827,N,12402.9430,W,2,09,00.9,20.5,M,-22.1,M,33.0,0302*60
06/13/2019,15:32:52.354,$GPGGA,153251,4437.5827,N,12402.9430,W,2,09,00.9,20.5,M,-22.1,M,34.0,0302*66
06/13/2019,15:32:53.596,$GPGGA,153252,4437.5827,N,12402.9430,W,2,09,00.9,20.5,M,-22.1,M,35.0,0302*64
06/13/2019,15:32:54.478,$GPGGA,153253,4437.5827,N,12402.9430,W,2,09,00.9,20.5,M,-22.1,M,36.0,0302*66
06/13/2019,15:32:55.387,$GPGGA,153254,4437.5827,N,12402.9430,W,2,09,00.9,20.5,M,-22.1,M,09.0,0302*6D
06/13/2019,15:32:56.718,$GPGGA,153255,4437.5827,N,12402.9430,W,2,09,00.9,20.5,M,-22.1,M,10.0,0302*64
06/13/2019,15:32:58.611,$GPGGA,153257,4437.5827,N,12402.9430,W,2,09,00.9,20.5,M,-22.1,M,12.0,0302*64
06/13/2019,15:32:59.478,$GPGGA,153258,4437.5827,N,12402.9430,W,2,09,00.9,20.5,M,-22.1,M,13.0,0302*6A
06/13/2019,15:33:00.890,$GPGGA,153259,4437.5827,N,12402.9430,W,2,09,00.9,20.5,M,-22.1,M,14.0,0302*6C
06/13/2019,15:33:01.612,$GPGGA,153300,4437.5827,N,12402.9430,W,2,09,00.9,20.5,M,-22.1,M,15.0,0302*60
06/13/2019,15:33:02.385,$GPGGA,153301,4437.5827,N,12402.9430,W,2,10,00.8,20.5,M,-22.1,M,13.0,0302*6E
06/13/2019,15:33:03.998,$GPGGA,153302,4437.5827,N,12402.9430,W,2,10,00.8,20.5,M,-22.1,M,14.0,0302*6A
06/13/2019,15:33:04.337,$GPGGA,153303,4437.5827,N,12402.9430,W,2,10,00.8,20.5,M,-22.1,M,12.0,0302*6D
06/13/2019,15:33:05.573,$GPGGA,153304,4437.5827,N,12402.9430,W,2,10,00.8,20.5,M,-22.1,M,13.0,0302*6B
06/13/2019,15:33:06.335,$GPGGA,153305,4437.5827,N,12402.9430,W,2,10,00.8,20.5,M,-22.1,M,14.0,0302*6D
06/13/2019,15:33:07.656,$GPGGA,153306,4437.5827,N,12402.9430,W,2,10,00.8,20.5,M,-22.1,M,12.0,0302*68
06/13/2019,15:33:08.329,$GPGGA,153307,4437.5827,N,12402.9430,W,2,10,00.8,20.5,M,-22.1,M,13.0,0302*68
06/13/2019,15:33:09.574,$GPGGA,153308,4437.5827,N,12402.9430,W,2,10,00.8,20.5,M,-22.1,M,11.0,0302*65
06/13/2019,15:33:10.842,$GPGGA,153309,4437.5827,N,12402.9430,W,2,10,00.8,20.5,M,-22.1,M,12.0,0302*67
06/13/2019,15:33:11.684,$GPGGA,153310,4437.5827,N,12402.9430,W,2,10,00.8,20.5,M,-22.1,M,12.0,0302*6F
06/13/2019,15:33:12.782,$GPGGA,153311,4437.5827,N,12402.9430,W,2,10,00.8,20.5,M,-22.1,M,13.0,0302*6F
06/13/2019,15:33:13.516,$GPGGA,153312,4437.5827,N,12402.9430,W,2,10,00.8,20.5,M,-22.1,M,10.0,0302*6F
06/13/2019,15:33:14.609,$GPGGA,153313,4437.5827,N,12402.9430,W,2,10,00.8,20.5,M,-22.1,M,11.0,0302*6F
06/13/2019,15:33:15.479,$GPGGA,153314,4437.5827,N,12402.9430,W,2,10,00.8,20.5,M,-22.1,M,12.0,0302*6B
06/13/2019,15:33:16.589,$GPGGA,153315,4437.5827,N,12402.9430,W,2,10,00.8,20.5,M,-22.1,M,13.0,0302*6B
06/13/2019,15:33:17.406,$GPGGA,153316,4437.5827,N,12402.9430,W,2,10,00.8,20.5,M,-22.1,M,14.0,0302*6F
06/13/2019,15:33:18.602,$GPGGA,153317,4437.5827,N,12402.9430,W,2,10,00.8,20.5,M,-22.1,M,15.0,0302*6F
06/13/2019,15:33:19.479,$GPGGA,153318,4437.5827,N,12402.9430,W,2,10,00.8,20.5,M,-22.1,M,12.0,0302*67
06/13/2019,15:33:20.588,$GPGGA,153319,4437.5827,N,12402.9430,W,2,10,00.8,20.5,M,-22.1,M,13.0,0302*67
06/13/2019,15:33:21.806,$GPGGA,153320,4437.5827,N,12402.9430,W,2,10,00.8,20.5,M,-22.1,M,14.0,0302*6A
06/13/2019,15:33:22.497,$GPGGA,153321,4437.5827,N,12402.9430,W,2,10,00.8,20.5,M,-22.1,M,15.0,0302*6A
06/13/2019,15:33:23.737,$GPGGA,153322,4437.5827,N,12402.9430,W,2,10,00.8,20.5,M,-22.1,M,16.0,0302*6A
06/13/2019,15:33:24.292,$GPGGA,153323,4437.5827,N,12402.9430,W,2,10,00.8,20.5,M,-22.1,M,12.0,0302*6F
06/13/2019,15:33:25.420,$GPGGA,153324,4437.5827,N,12402.9430,W,2,10,00.8,20.5,M,-22.1,M,13.0,0302*69
06/13/2019,15:33:26.692,$GPGGA,153325,4437.5827,N,12402.9430,W,2,10,00.8,20.5,M,-22.1,M,14.0,0302*6F
06/13/2019,15:33:27.489,$GPGGA,153326,4437.5826,N,12402.9430,W,2,10,00.8,20.5,M,-22.1,M,12.0,0302*6B
06/13/2019,15:33:28.557,$GPGGA,153327,4437.5827,N,12402.9430,W,2,10,00.8,20.5,M,-22.1,M,13.0,0302*6A
06/13/2019,15:33:29.355,$GPGGA,153328,4437.5827,N,12402.9430,W,2,10,00.8,20.5,M,-22.1,M,14.0,0302*62
06/13/2019,15:33:30.612,$GPGGA,153329,4437.5827,N,12402.9430,W,2,10,00.8,20.5,M,-22.1,M,14.0,0302*63
06/13/2019,15:33:32.279,$GPGGA,153331,4437.5827,N,12402.9430,W,2,10,00.8,20.5,M,-22.1,M,16.0,0302*68
06/13/2019,15:33:33.551,$GPGGA,153332,4437.5827,N,12402.9430,W,2,10,00.8,20.5,M,-22.1,M,12.0,0302*6F
06/13/2019,15:33:34.866,$GPGGA,153333,4437.5827,N,12402.9430,W,2,10,00.8,20.5,M,-22.1,M,13.0,0302*6F
06/13/2019,15:33:36.561,$GPGGA,153335,4437.5827,N,12402.9430,W,2,10,00.8,20.5,M,-22.1,M,15.0,0302*6F
06/13/2019,15:33:37.429,$GPGGA,153336,4437.5827,N,12402.9430,W,2,10,00.8,20.5,M,-22.1,M,13.0,0302*6A
06/13/2019,15:33:38.551,$GPGGA,153337,4437.5827,N,12402.9430,W,2,10,00.8,20.5,M,-22.1,M,14.0,0302*6C
06/13/2019,15:33:40.406,$GPGGA,153339,4437.5827,N,12402.9430,W,2,10,00.8,20.5,M,-22.1,M,16.0,0302*60
06/13/2019,15:33:41.286,$GPGGA,153340,4437.5827,N,12402.9430,W,2,10,00.8,20.5,M,-22.1,M,14.0,0302*6C
06/13/2019,15:33:42.656,$GPGGA,153341,4437.5827,N,12402.9430,W,2,10,00.8,20.5,M,-22.1,M,15.0,0302*6C
06/13/2019,15:33:43.885,$GPGGA,153342,4437.5827,N,12402.9430,W,2,10,00.8,20.5,M,-22.1,M,16.0,0302*6C
06/13/2019,15:33:44.610,$GPGGA,153343,4437.5827,N,12402.9430,W,2,10,00.8,20.5,M,-22.1,M,14.0,0302*6F
06/13/2019,15:33:45.386,$GPGGA,153344,4437.5827,N,12402.9430,W,2,10,00.8,20.5,M,-22.1,M,15.0,0302*69
06/13/2019,15:33:46.479,$GPGGA,153345,4437.5827,N,12402.9430,W,2,10,00.8,20.5,M,-22.1,M,16.0,0302*6B
06/13/2019,15:33:47.994,$GPGGA,153346,4437.5827,N,12402.9430,W,2,10,00.8,20.5,M,-22.1,M,17.0,0302*69
06/13/2019,15:33:48.260,$GPGGA,153347,4437.5827,N,12402.9430,W,2,10,00.8,20.5,M,-22.1,M,15.0,0302*6A
06/13/2019,15:33:49.386,$GPGGA,153348,4437.5827,N,12402.9430,W,2,10,00.8,20.5,M,-22.1,M,16.0,0302*66
06/13/2019,15:33:50.990,$GPGGA,153349,4437.5827,N,12402.9430,W,2,10,00.8,20.5,M,-22.1,M,17.0,0302*66
06/13/2019,15:33:51.605,$GPGGA,153350,4437.5827,N,12402.9430,W,2,10,00.8,20.5,M,-22.1,M,14.0,0302*6D
06/13/2019,15:33:52.666,$GPGGA,153351,4437.5827,N,12402.9430,W,2,10,00.8,20.5,M,-22.1,M,15.0,0302*6D
06/13/2019,15:33:53.336,$GPGGA,153352,4437.5827,N,12402.9430,W,2,10,00.8,20.5,M,-22.1,M,16.0,0302*6D
06/13/2019,15:33:54.338,$GPGGA,153353,4437.5827,N,12402.9430,W,2,10,00.8,20.5,M,-22.1,M,14.0,0302*6E
06/13/2019,15:33:55.547,$GPGGA,153354,4437.5827,N,12402.9430,W,2,10,00.8,20.5,M,-22.1,M,15.0,0302*68
06/13/2019,15:33:56.406,$GPGGA,153355,4437.5827,N,12402.9430,W,2,10,00.8,20.4,M,-22.1,M,16.0,0302*6B
06/13/2019,15:33:57.386,$GPGGA,153356,4437.5827,N,12402.9430,W,2,10,00.8,20.4,M,-22.1,M,13.0,0302*6D
06/13/2019,15:33:58.786,$GPGGA,153357,4437.5827,N,12402.9430,W,2,10,00.8,20.4,M,-22.1,M,14.0,0302*6B
06/13/2019,15:33:59.392,$GPGGA,153358,4437.5827,N,12402.9430,W,2,10,00.8,20.4,M,-22.1,M,15.0,0302*65
06/13/2019,15:34:00.583,$GPGGA,153359,4437.5827,N,12402.9430,W,2,10,00.8,20.4,M,-22.1,M,13.0,0302*62
06/13/2019,15:34:01.736,$GPGGA,153400,4437.5827,N,12402.9430,W,2,10,00.8,20.4,M,-22.1,M,14.0,0302*6E
06/13/2019,15:34:02.529,$GPGGA,153401,4437.5827,N,12402.9430,W,2,10,00.8,20.4,M,-22.1,M,15.0,0302*6E
06/13/2019,15:34:03.835,$GPGGA,153402,4437.5827,N,12402.9430,W,2,10,00.8,20.4,M,-22.1,M,16.0,0302*6E
06/13/2019,15:34:04.370,$GPGGA,153403,4437.5827,N,12402.9430,W,2,10,00.8,20.4,M,-22.1,M,14.0,0302*6D
06/13/2019,15:34:05.687,$GPGGA,153404,4437.5827,N,12402.9430,W,2,10,00.8,20.4,M,-22.1,M,15.0,0302*6B
06/13/2019,15:34:07.650,$GPGGA,153406,4437.5828,N,12402.9430,W,2,10,00.8,20.4,M,-22.1,M,14.0,0302*67
06/13/2019,15:34:08.330,$GPGGA,153407,4437.5828,N,12402.9430,W,2,10,00.8,20.4,M,-22.1,M,15.0,0302*67
06/13/2019,15:34:09.576,$GPGGA,153408,4437.5828,N,12402.9430,W,2,10,00.8,20.4,M,-22.1,M,16.0,0302*6B
06/13/2019,15:34:10.337,$GPGGA,153409,4437.5828,N,12402.9430,W,2,10,00.8,20.4,M,-22.1,M,14.0,0302*68
06/13/2019,15:34:11.647,$GPGGA,153410,4437.5828,N,12402.9430,W,2,10,00.8,20.4,M,-22.1,M,15.0,0302*61
06/13/2019,15:34:12.331,$GPGGA,153411,4437.5828,N,12402.9430,W,2,10,00.8,20.4,M,-22.1,M,16.0,0302*63
06/13/2019,15:34:13.657,$GPGGA,153412,4437.5828,N,12402.9430,W,2,10,00.8,20.4,M,-22.1,M,13.0,0302*65
06/13/2019,15:34:14.387,$GPGGA,153413,4437.5828,N,12402.9430,W,2,10,00.8,20.4,M,-22.1,M,14.0,0302*63
06/13/2019,15:34:15.686,$GPGGA,153414,4437.5828,N,12402.9430,W,2,10,00.8,20.4,M,-22.1,M,15.0,0302*65
06/13/2019,15:34:16.331,$GPGGA,153415,4437.5828,N,12402.9430,W,2,10,00.8,20.4,M,-22.1,M,13.0,0302*62
06/13/2019,15:34:17.862,$GPGGA,153416,4437.5828,N,12402.9430,W,2,10,00.8,20.4,M,-22.1,M,14.0,0302*66
06/13/2019,15:34:18.549,$GPGGA,153417,4437.5829,N,12402.9430,W,2,10,00.8,20.4,M,-22.1,M,15.0,0302*67
06/13/2019,15:34:19.380,$GPGGA,153418,4437.5829,N,12402.9431,W,2,10,00.8,20.4,M,-22.1,M,13.0,0302*6F
06/13/2019,15:34:20.557,$GPGGA,153419,4437.5829,N,12402.9431,W,2,10,00.8,20.4,M,-22.1,M,14.0,0302*69
06/13/2019,15:34:21.868,$GPGGA,153420,4437.5829,N,12402.9431,W,2,10,00.8,20.4,M,-22.1,M,15.0,0302*62
06/13/2019,15:34:22.349,$GPGGA,153421,4437.5829,N,12402.9431,W,2,10,00.8,20.4,M,-22.1,M,12.0,0302*64
06/13/2019,15:34:23.480,$GPGGA,153422,4437.5829,N,12402.9431,W,2,10,00.8,20.4,M,-22.1,M,13.0,0302*66
06/13/2019,15:34:24.584,$GPGGA,153423,4437.5829,N,12402.9431,W,2,10,00.8,20.4,M,-22.1,M,14.0,0302*60
06/13/2019,15:34:25.757,$GPGGA,153424,4437.5830,N,12402.9431,W,2,10,00.8,20.4,M,-22.1,M,12.0,0302*69
06/13/2019,15:34:26.438,$GPGGA,153425,4437.5830,N,12402.9431,W,2,10,00.8,20.4,M,-22.1,M,13.0,0302*69
06/13/2019,15:34:27.881,$GPGGA,153426,4437.5830,N,12402.9431,W,2,10,00.8,20.4,M,-22.1,M,14.0,0302*6D
06/13/2019,15:34:29.381,$GPGGA,153428,4437.5830,N,12402.9431,W,2,10,00.8,20.4,M,-22.1,M,13.0,0302*64
06/13/2019,15:34:30.715,$GPGGA,153429,4437.5831,N,12402.9431,W,2,10,00.8,20.4,M,-22.1,M,14.0,0302*63
06/13/2019,15:34:32.693,$GPGGA,153431,4437.5831,N,12402.9432,W,2,10,00.8,20.4,M,-22.1,M,13.0,0302*6E
06/13/2019,15:34:33.482,$GPGGA,153432,4437.5831,N,12402.9431,W,2,10,00.8,20.4,M,-22.1,M,14.0,0302*69
06/13/2019,15:34:34.382,$GPGGA,153433,4437.5830,N,12402.9431,W,2,10,00.8,20.4,M,-22.1,M,15.0,0302*68
06/13/2019,15:34:35.408,$GPGGA,153434,4437.5830,N,12402.9431,W,2,10,00.8,20.4,M,-22.1,M,13.0,0302*69
06/13/2019,15:34:36.688,$GPGGA,153435,4437.5830,N,12402.9431,W,2,10,00.8,20.4,M,-22.1,M,14.0,0302*6F
06/13/2019,15:34:37.491,$GPGGA,153436,4437.5830,N,12402.9431,W,2,10,00.8,20.4,M,-22.1,M,12.0,0302*6A
06/13/2019,15:34:38.555,$GPGGA,153437,4437.5830,N,12402.9431,W,2,10,00.8,20.4,M,-22.1,M,13.0,0302*6A
06/13/2019,15:34:40.582,$GPGGA,153439,4437.5831,N,12402.9432,W,2,10,00.8,20.4,M,-22.1,M,11.0,0302*64
06/13/2019,15:34:41.738,$GPGGA,153440,4437.5831,N,12402.9432,W,2,10,00.8,20.4,M,-22.1,M,12.0,0302*69
06/13/2019,15:34:42.532,$GPGGA,153441,4437.5831,N,12402.9432,W,2,10,00.8,20.4,M,-22.1,M,13.0,0302*69
06/13/2019,15:34:43.593,$GPGGA,153442,4437.5831,N,12402.9432,W,2,10,00.8,20.4,M,-22.1,M,12.0,0302*6B
06/13/2019,15:34:44.409,$GPGGA,153443,4437.5831,N,12402.9432,W,2,10,00.8,20.4,M,-22.1,M,13.0,0302*6B
06/13/2019,15:34:45.799,$GPGGA,153444,4437.5831,N,12402.9432,W,2,10,00.8,20.4,M,-22.1,M,14.0,0302*6B
06/13/2019,15:34:46.600,$GPGGA,153445,4437.5831,N,12402.9432,W,2,10,00.8,20.4,M,-22.1,M,14.0,0302*6A
06/13/2019,15:34:47.332,$GPGGA,153446,4437.5831,N,12402.9432,W,2,10,00.8,20.4,M,-22.1,M,15.0,0302*68
06/13/2019,15:34:48.580,$GPGGA,153447,4437.5831,N,12402.9432,W,2,10,00.8,20.4,M,-22.1,M,16.0,0302*6A
06/13/2019,15:34:49.337,$GPGGA,153448,4437.5831,N,12402.9432,W,2,10,00.8,20.4,M,-22.1,M,13.0,0302*60
06/13/2019,15:34:50.659,$GPGGA,153449,4437.5831,N,12402.9432,W,2,10,00.8,20.4,M,-22.1,M,14.0,0302*66
06/13/2019,15:34:51.732,$GPGGA,153450,4437.5831,N,12402.9432,W,2,10,00.8,20.4,M,-22.1,M,12.0,0302*68
06/13/2019,15:34:52.458,$GPGGA,153451,4437.5831,N,12402.9432,W,2,10,00.8,20.4,M,-22.1,M,13.0,0302*68
06/13/2019,15:34:53.389,$GPGGA,153452,4437.5831,N,12402.9432,W,2,10,00.8,20.4,M,-22.1,M,11.0,0302*69
06/13/2019,15:34:54.789,$GPGGA,153453,4437.5831,N,12402.9432,W,2,10,00.8,20.4,M,-22.1,M,12.0,0302*6B
06/13/2019,15:34:55.395,$GPGGA,153454,4437.5831,N,12402.9432,W,2,10,00.8,20.4,M,-22.1,M,10.0,0302*6E
06/13/2019,15:34:56.584,$GPGGA,153455,4437.5831,N,12402.9432,W,2,10,00.8,20.4,M,-22.1,M,11.0,0302*6E
06/13/2019,15:34:57.239,$GPGGA,153456,4437.5830,N,12402.9432,W,2,10,00.8,20.4,M,-22.1,M,12.0,0302*6F
06/13/2019,15:34:58.482,$GPGGA,153457,4437.5830,N,12402.9432,W,2,10,00.8,20.5,M,-22.1,M,13.0,0302*6E
06/13/2019,15:34:59.783,$GPGGA,153458,4437.5830,N,12402.9432,W,2,10,00.8,20.5,M,-22.1,M,14.0,0302*66
06/13/2019,15:35:00.600,$GPGGA,153459,4437.5830,N,12402.9432,W,2,10,00.8,20.5,M,-22.1,M,15.0,0302*66
06/13/2019,15:35:01.646,$GPGGA,153500,4437.5830,N,12402.9432,W,2,10,00.8,20.5,M,-22.1,M,12.0,0302*6C
06/13/2019,15:35:02.343,$GPGGA,153501,4437.5830,N,12402.9432,W,2,10,00.8,20.5,M,-22.1,M,13.0,0302*6C
06/13/2019,15:35:03.553,$GPGGA,153502,4437.5830,N,12402.9432,W,2,10,00.8,20.5,M,-22.1,M,14.0,0302*68
06/13/2019,15:35:04.359,$GPGGA,153503,4437.5831,N,12402.9432,W,2,10,00.8,20.5,M,-22.1,M,15.0,0302*69
06/13/2019,15:35:05.555,$GPGGA,153504,4437.5831,N,12402.9432,W,2,10,00.8,20.4,M,-22.1,M,16.0,0302*6C
06/13/2019,15:35:06.432,$GPGGA,153505,4437.5831,N,12402.9432,W,2,10,00.8,20.4,M,-22.1,M,17.0,0302*6C
06/13/2019,15:35:07.557,$GPGGA,153506,4437.5831,N,12402.9432,W,2,10,00.8,20.4,M,-22.1,M,13.0,0302*6B
06/13/2019,15:35:08.359,$GPGGA,153507,4437.5831,N,12402.9432,W,2,10,00.8,20.4,M,-22.1,M,14.0,0302*6D
06/13/2019,15:35:09.390,$GPGGA,153508,4437.5831,N,12402.9432,W,2,10,00.8,20.4,M,-22.1,M,12.0,0302*64
06/13/2019,15:35:10.699,$GPGGA,153509,4437.5831,N,12402.9432,W,2,10,00.8,20.4,M,-22.1,M,13.0,0302*64
06/13/2019,15:35:11.383,$GPGGA,153510,4437.5831,N,12402.9432,W,2,10,00.8,20.4,M,-22.1,M,11.0,0302*6E
06/13/2019,15:35:12.409,$GPGGA,153511,4437.5831,N,12402.9432,W,2,10,00.8,20.4,M,-22.1,M,12.0,0302*6C
06/13/2019,15:35:13.797,$GPGGA,153512,4437.5831,N,12402.9432,W,2,10,00.8,20.4,M,-22.1,M,12.0,0302*6F
06/13/2019,15:35:14.629,$GPGGA,153513,4437.5831,N,12402.9432,W,2,10,00.8,20.5,M,-22.1,M,13.0,0302*6E
06/13/2019,15:35:15.553,$GPGGA,153514,4437.5831,N,12402.9432,W,2,10,00.8,20.5,M,-22.1,M,14.0,0302*6E
06/13/2019,15:35:16.360,$GPGGA,153515,4437.5831,N,12402.9432,W,2,10,00.8,20.5,M,-22.1,M,11.0,0302*6A
06/13/2019,15:35:17.390,$GPGGA,153516,4437.5831,N,12402.9432,W,2,10,00.8,20.5,M,-22.1,M,12.0,0302*6A
06/13/2019,15:35:18.788,$GPGGA,153517,4437.5831,N,12402.9432,W,2,10,00.8,20.5,M,-22.1,M,13.0,0302*6A
06/13/2019,15:35:19.395,$GPGGA,153518,4437.5831,N,12402.9432,W,2,10,00.8,20.5,M,-22.1,M,14.0,0302*62
06/13/2019,15:35:20.584,$GPGGA,153519,4437.5831,N,12402.9432,W,2,10,00.8,20.5,M,-22.1,M,14.0,0302*63
06/13/2019,15:35:22.339,$GPGGA,153521,4437.5831,N,12402.9432,W,2,10,00.8,20.5,M,-22.1,M,16.0,0302*6A
06/13/2019,15:35:23.650,$GPGGA,153522,4437.5831,N,12402.9432,W,2,10,00.8,20.5,M,-22.1,M,13.0,0302*6C
06/13/2019,15:35:24.846,$GPGGA,153523,4437.5831,N,12402.9432,W,2,10,00.8,20.5,M,-22.1,M,14.0,0302*6A
06/13/2019,15:35:25.568,$GPGGA,153524,4437.5831,N,12402.9432,W,2,10,00.8,20.5,M,-22.1,M,15.0,0302*6C
06/13/2019,15:35:26.290,$GPGGA,153525,4437.5831,N,12402.9432,W,2,10,00.8,20.5,M,-22.1,M,16.0,0302*6E
06/13/2019,15:35:27.658,$GPGGA,153526,4437.5831,N,12402.9432,W,2,10,00.8,20.5,M,-22.1,M,14.0,0302*6F
06/13/2019,15:35:28.843,$GPGGA,153527,4437.5831,N,12402.9432,W,2,10,00.8,20.5,M,-22.1,M,15.0,0302*6F
06/13/2019,15:35:29.375,$GPGGA,153528,4437.5831,N,12402.9432,W,2,10,00.9,20.5,M,-22.1,M,16.0,0302*62
06/13/2019,15:35:30.568,$GPGGA,153529,4437.5831,N,12402.9432,W,2,10,00.9,20.5,M,-22.1,M,17.0,0302*62
06/13/2019,15:35:31.883,$GPGGA,153530,4437.5831,N,12402.9431,W,2,10,00.9,20.5,M,-22.1,M,15.0,0302*6B
06/13/2019,15:35:32.495,$GPGGA,153531,4437.5831,N,12402.9431,W,2,10,00.9,20.5,M,-22.1,M,16.0,0302*69
06/13/2019,15:35:33.359,$GPGGA,153532,4437.5830,N,12402.9431,W,2,10,00.9,20.5,M,-22.1,M,17.0,0302*6A
06/13/2019,15:35:34.695,$GPGGA,153533,4437.5830,N,12402.9431,W,2,10,00.9,20.5,M,-22.1,M,15.0,0302*69
06/13/2019,15:35:35.494,$GPGGA,153534,4437.5830,N,12402.9431,W,2,10,00.9,20.5,M,-22.1,M,16.0,0302*6D
06/13/2019,15:35:36.559,$GPGGA,153535,4437.5830,N,12402.9431,W,2,10,00.9,20.5,M,-22.1,M,17.0,0302*6D
06/13/2019,15:35:37.761,$GPGGA,153536,4437.5830,N,12402.9431,W,2,10,00.9,20.5,M,-22.1,M,18.0,0302*61
06/13/2019,15:35:38.441,$GPGGA,153537,4437.5830,N,12402.9431,W,2,10,00.9,20.5,M,-22.1,M,14.0,0302*6C
06/13/2019,15:35:39.484,$GPGGA,153538,4437.5830,N,12402.9431,W,2,10,00.9,20.5,M,-22.1,M,15.0,0302*62
06/13/2019,15:35:40.823,$GPGGA,153539,4437.5829,N,12402.9431,W,2,10,00.9,20.5,M,-22.1,M,13.0,0302*6D
06/13/2019,15:35:41.540,$GPGGA,153540,4437.5829,N,12402.9431,W,2,10,00.9,20.5,M,-22.1,M,14.0,0302*64
06/13/2019,15:35:42.567,$GPGGA,153541,4437.5829,N,12402.9431,W,2,09,01.0,20.5,M,-22.1,M,12.0,0302*63
06/13/2019,15:35:43.885,$GPGGA,153542,4437.5829,N,12402.9431,W,2,09,01.0,20.5,M,-22.1,M,13.0,0302*61
06/13/2019,15:35:44.502,$GPGGA,153543,4437.5829,N,12402.9431,W,2,09,01.0,20.5,M,-22.1,M,14.0,0302*67
06/13/2019,15:35:45.411,$GPGGA,153544,4437.5829,N,12402.9431,W,2,09,01.0,20.5,M,-22.1,M,15.0,0302*61
06/13/2019,15:35:46.696,$GPGGA,153545,4437.5830,N,12402.9431,W,2,09,01.0,20.5,M,-22.1,M,12.0,0302*6F
06/13/2019,15:35:47.495,$GPGGA,153546,4437.5830,N,12402.9431,W,2,09,01.0,20.5,M,-22.1,M,13.0,0302*6D
06/13/2019,15:35:48.559,$GPGGA,153547,4437.5830,N,12402.9431,W,2,09,01.0,20.5,M,-22.1,M,14.0,0302*6B
06/13/2019,15:35:49.412,$GPGGA,153548,4437.5830,N,12402.9431,W,2,09,01.0,20.6,M,-22.1,M,15.0,0302*66
06/13/2019,15:35:50.392,$GPGGA,153549,4437.5830,N,12402.9431,W,2,09,01.0,20.6,M,-22.1,M,16.0,0302*64
06/13/2019,15:35:51.996,$GPGGA,153550,4437.5830,N,12402.9431,W,2,09,01.0,20.7,M,-22.1,M,17.0,0302*6C
06/13/2019,15:35:52.619,$GPGGA,153551,4437.5830,N,12402.9431,W,2,09,01.0,20.7,M,-22.1,M,13.0,0302*69
06/13/2019,15:35:53.672,$GPGGA,153552,4437.5830,N,12402.9431,W,2,09,01.0,20.7,M,-22.1,M,14.0,0302*6D
06/13/2019,15:35:54.849,$GPGGA,153553,4437.5830,N,12402.9431,W,2,09,01.0,20.7,M,-22.1,M,15.0,0302*6D
06/13/2019,15:35:55.447,$GPGGA,153554,4437.5830,N,12402.9431,W,2,09,01.0,20.7,M,-22.1,M,13.0,0302*6C
06/13/2019,15:35:56.685,$GPGGA,153555,4437.5830,N,12402.9431,W,2,09,01.0,20.7,M,-22.1,M,14.0,0302*6A
06/13/2019,15:35:57.411,$GPGGA,153556,4437.5830,N,12402.9431,W,2,09,01.0,20.7,M,-22.1,M,15.0,0302*68
06/13/2019,15:35:58.392,$GPGGA,153557,4437.5830,N,12402.9431,W,2,09,01.0,20.7,M,-22.1,M,16.0,0302*6A
06/13/2019,15:35:59.885,$GPGGA,153558,4437.5830,N,12402.9431,W,2,09,01.0,20.7,M,-22.1,M,13.0,0302*60
06/13/2019,15:36:00.513,$GPGGA,153559,4437.5830,N,12402.9431,W,2,09,01.0,20.8,M,-22.1,M,14.0,0302*69
06/13/2019,15:36:01.670,$GPGGA,153600,4437.5830,N,12402.9431,W,2,09,01.0,20.8,M,-22.1,M,15.0,0302*67
06/13/2019,15:36:02.305,$GPGGA,153601,4437.5830,N,12402.9431,W,2,09,01.0,20.8,M,-22.1,M,16.0,0302*65
06/13/2019,15:36:03.485,$GPGGA,153602,4437.5830,N,12402.9431,W,2,09,01.0,20.8,M,-22.1,M,17.0,0302*67
06/13/2019,15:36:04.896,$GPGGA,153603,4437.5830,N,12402.9430,W,2,09,01.0,20.8,M,-22.1,M,18.0,0302*68
06/13/2019,15:36:05.623,$GPGGA,153604,4437.5830,N,12402.9431,W,2,09,01.0,20.8,M,-22.1,M,14.0,0302*62
06/13/2019,15:36:06.903,$GPGGA,153605,4437.5830,N,12402.9431,W,2,09,01.0,20.8,M,-22.1,M,15.0,0302*62
06/13/2019,15:36:07.710,$GPGGA,153606,4437.5830,N,12402.9431,W,2,09,01.0,20.8,M,-22.1,M,12.0,0302*66
06/13/2019,15:36:08.386,$GPGGA,153607,4437.5830,N,12402.9431,W,2,09,01.0,20.8,M,-22.1,M,13.0,0302*66
06/13/2019,15:36:09.412,$GPGGA,153608,4437.5830,N,12402.9431,W,2,09,01.0,20.8,M,-22.1,M,14.0,0302*6E
06/13/2019,15:36:10.604,$GPGGA,153609,4437.5830,N,12402.9431,W,2,09,01.0,20.8,M,-22.1,M,12.0,0302*69
06/13/2019,15:36:11.486,$GPGGA,153610,4437.5830,N,12402.9431,W,2,09,01.0,20.8,M,-22.1,M,13.0,0302*60
06/13/2019,15:36:12.387,$GPGGA,153611,4437.5830,N,12402.9431,W,2,09,01.0,20.8,M,-22.1,M,14.0,0302*66
06/13/2019,15:36:13.821,$GPGGA,153612,4437.5829,N,12402.9431,W,2,09,01.0,20.8,M,-22.1,M,12.0,0302*6B
06/13/2019,15:36:14.542,$GPGGA,153613,4437.5829,N,12402.9431,W,2,09,01.0,20.8,M,-22.1,M,13.0,0302*6B
06/13/2019,15:36:15.735,$GPGGA,153614,4437.5829,N,12402.9431,W,2,09,01.0,20.8,M,-22.1,M,14.0,0302*6B
06/13/2019,15:36:16.801,$GPGGA,153615,4437.5829,N,12402.9431,W,2,09,01.0,20.8,M,-22.1,M,15.0,0302*6B
06/13/2019,15:36:17.557,$GPGGA,153616,4437.5829,N,12402.9431,W,2,09,01.0,20.8,M,-22.1,M,16.0,0302*6B
06/13/2019,15:36:18.570,$GPGGA,153617,4437.5829,N,12402.9431,W,2,09,01.0,20.8,M,-22.1,M,17.0,0302*6B
06/13/2019,15:36:20.485,$GPGGA,153619,4437.5829,N,12402.9431,W,2,09,01.0,20.8,M,-22.1,M,14.0,0302*66
06/13/2019,15:36:21.795,$GPGGA,153620,4437.5829,N,12402.9431,W,2,09,01.0,20.8,M,-22.1,M,15.0,0302*6D
06/13/2019,15:36:23.413,$GPGGA,153622,4437.5829,N,12402.9431,W,2,09,01.0,20.8,M,-22.1,M,14.0,0302*6E
06/13/2019,15:36:24.899,$GPGGA,153623,4437.5829,N,12402.9431,W,2,09,01.0,20.9,M,-22.1,M,15.0,0302*6F
06/13/2019,15:36:25.500,$GPGGA,153624,4437.5829,N,12402.9431,W,2,09,01.0,20.9,M,-22.1,M,16.0,0302*6B
06/13/2019,15:36:26.559,$GPGGA,153625,4437.5829,N,12402.9431,W,2,09,01.0,20.9,M,-22.1,M,14.0,0302*68
06/13/2019,15:36:27.813,$GPGGA,153626,4437.5829,N,12402.9431,W,2,09,01.0,20.9,M,-22.1,M,15.0,0302*6A
06/13/2019,15:36:28.506,$GPGGA,153627,4437.5829,N,12402.9431,W,2,09,01.0,20.9,M,-22.1,M,16.0,0302*68
06/13/2019,15:36:29.896,$GPGGA,153628,4437.5829,N,12402.9431,W,2,09,01.0,20.9,M,-22.1,M,17.0,0302*66
06/13/2019,15:36:31.399,$GPGGA,153630,4437.5829,N,12402.9431,W,2,09,01.0,20.9,M,-22.1,M,16.0,0302*6E
06/13/2019,15:36:32.412,$GPGGA,153631,4437.5829,N,12402.9431,W,2,09,01.0,20.9,M,-22.1,M,17.0,0302*6E
06/13/2019,15:36:33.612,$GPGGA,153632,4437.5829,N,12402.9431,W,2,09,01.0,20.9,M,-22.1,M,18.0,0302*62
06/13/2019,15:36:34.487,$GPGGA,153633,4437.5829,N,12402.9431,W,2,09,01.0,20.9,M,-22.1,M,19.0,0302*62
06/13/2019,15:36:35.793,$GPGGA,153634,4437.5829,N,12402.9431,W,2,09,01.0,20.9,M,-22.1,M,20.0,0302*6F
06/13/2019,15:36:36.529,$GPGGA,153635,4437.5829,N,12402.9431,W,2,09,01.0,20.9,M,-22.1,M,21.0,0302*6F
06/13/2019,15:36:37.393,$GPGGA,153636,4437.5829,N,12402.9431,W,2,09,01.0,20.9,M,-22.1,M,15.0,0302*6B
06/13/2019,15:36:38.487,$GPGGA,153637,4437.5829,N,12402.9431,W,2,09,01.0,20.9,M,-22.1,M,16.0,0302*69
06/13/2019,15:36:39.893,$GPGGA,153638,4437.5829,N,12402.9431,W,2,09,01.0,20.9,M,-22.1,M,17.0,0302*67
06/13/2019,15:36:40.428,$GPGGA,153639,4437.5829,N,12402.9432,W,2,09,01.0,20.9,M,-22.1,M,18.0,0302*6A
06/13/2019,15:36:41.342,$GPGGA,153640,4437.5829,N,12402.9432,W,2,09,01.0,20.9,M,-22.1,M,19.0,0302*65
06/13/2019,15:36:42.662,$GPGGA,153641,4437.5829,N,12402.9432,W,2,09,01.0,20.9,M,-22.1,M,20.0,0302*6E
06/13/2019,15:36:43.891,$GPGGA,153642,4437.5829,N,12402.9432,W,2,09,01.0,20.9,M,-22.1,M,21.0,0302*6C
06/13/2019,15:36:44.616,$GPGGA,153643,4437.5829,N,12402.9432,W,2,09,01.0,20.9,M,-22.1,M,18.0,0302*67
06/13/2019,15:36:45.244,$GPGGA,153644,4437.5829,N,12402.9432,W,2,09,01.0,20.9,M,-22.1,M,19.0,0302*61
06/13/2019,15:36:46.487,$GPGGA,153645,4437.5829,N,12402.9432,W,2,09,01.0,20.9,M,-22.1,M,20.0,0302*6A
06/13/2019,15:36:47.800,$GPGGA,153646,4437.5829,N,12402.9432,W,2,09,01.0,20.9,M,-22.1,M,14.0,0302*6E
06/13/2019,15:36:48.526,$GPGGA,153647,4437.5829,N,12402.9432,W,2,09,01.0,20.9,M,-22.1,M,15.0,0302*6E
06/13/2019,15:36:49.294,$GPGGA,153648,4437.5829,N,12402.9432,W,2,09,01.0,20.9,M,-22.1,M,16.0,0302*62
06/13/2019,15:36:50.658,$GPGGA,153649,4437.5829,N,12402.9432,W,2,09,01.0,20.9,M,-22.1,M,17.0,0302*62
06/13/2019,15:36:51.738,$GPGGA,153650,4437.5829,N,12402.9432,W,2,09,01.0,20.9,M,-22.1,M,14.0,0302*69
06/13/2019,15:36:52.464,$GPGGA,153651,4437.5829,N,12402.9432,W,2,09,01.0,20.9,M,-22.1,M,15.0,0302*69
06/13/2019,15:36:53.562,$GPGGA,153652,4437.5829,N,12402.9432,W,2,09,01.0,20.9,M,-22.1,M,16.0,0302*69
06/13/2019,15:36:54.436,$GPGGA,153653,4437.5829,N,12402.9432,W,2,09,01.0,20.9,M,-22.1,M,14.0,0302*6A
06/13/2019,15:36:55.552,$GPGGA,153654,4437.5829,N,12402.9432,W,2,09,01.0,20.9,M,-22.1,M,15.0,0302*6C
06/13/2019,15:36:56.364,$GPGGA,153655,4437.5829,N,12402.9432,W,2,09,01.0,20.9,M,-22.1,M,16.0,0302*6E
06/13/2019,15:36:57.621,$GPGGA,153656,4437.5829,N,12402.9432,W,2,09,01.0,20.9,M,-22.1,M,14.0,0302*6F
06/13/2019,15:36:58.488,$GPGGA,153657,4437.5829,N,12402.9432,W,2,09,01.0,20.9,M,-22.1,M,15.0,0302*6F
06/13/2019,15:36:59.800,$GPGGA,153658,4437.5829,N,12402.9432,W,2,09,01.0,20.9,M,-22.1,M,16.0,0302*63
06/13/2019,15:37:00.526,$GPGGA,153659,4437.5829,N,12402.9432,W,2,09,01.0,20.9,M,-22.1,M,13.0,0302*67
06/13/2019,15:37:01.795,$GPGGA,153700,4437.5829,N,12402.9432,W,2,09,01.0,20.9,M,-22.1,M,14.0,0302*6D
06/13/2019,15:37:03.691,$GPGGA,153702,4437.5829,N,12402.9432,W,2,09,01.0,20.9,M,-22.1,M,13.0,0302*68
06/13/2019,15:37:04.744,$GPGGA,153703,4437.5829,N,12402.9432,W,2,09,01.0,20.9,M,-22.1,M,14.0,0302*6E
06/13/2019,15:37:05.464,$GPGGA,153704,4437.5829,N,12402.9432,W,2,09,01.0,20.9,M,-22.1,M,15.0,0302*68
06/13/2019,15:37:06.153,$GPGGA,153705,4437.5829,N,12402.9432,W,2,09,01.0,20.9,M,-22.1,M,13.0,0302*6F
06/13/2019,15:37:07.488,$GPGGA,153706,4437.5829,N,12402.9432,W,2,09,01.0,20.9,M,-22.1,M,14.0,0302*6B
06/13/2019,15:37:08.690,$GPGGA,153707,4437.5829,N,12402.9432,W,2,09,01.0,20.9,M,-22.1,M,15.0,0302*6B
06/13/2019,15:37:09.426,$GPGGA,153708,4437.5829,N,12402.9432,W,2,09,01.0,20.9,M,-22.1,M,10.0,0302*61
06/13/2019,15:37:10.626,$GPGGA,153709,4437.5829,N,12402.9432,W,2,09,01.0,20.9,M,-22.1,M,11.0,0302*61
06/13/2019,15:37:11.837,$GPGGA,153710,4437.5829,N,12402.9432,W,2,09,01.0,20.9,M,-22.1,M,12.0,0302*6A
06/13/2019,15:37:13.339,$GPGGA,153712,4437.5829,N,12402.9431,W,2,09,01.0,20.9,M,-22.1,M,14.0,0302*6D
06/13/2019,15:37:14.591,$GPGGA,153713,4437.5829,N,12402.9431,W,2,09,01.0,20.9,M,-22.1,M,15.0,0302*6D
06/13/2019,15:37:15.245,$GPGGA,153714,4437.5829,N,12402.9431,W,2,09,01.0,20.9,M,-22.1,M,16.0,0302*69
06/13/2019,15:37:16.787,$GPGGA,153715,4437.5829,N,12402.9431,W,2,09,01.0,20.9,M,-22.1,M,14.0,0302*6A
06/13/2019,15:37:17.400,$GPGGA,153716,4437.5829,N,12402.9431,W,2,09,01.0,20.9,M,-22.1,M,15.0,0302*68
06/13/2019,15:37:18.590,$GPGGA,153717,4437.5829,N,12402.9431,W,2,09,01.0,20.9,M,-22.1,M,16.0,0302*6A
06/13/2019,15:37:19.745,$GPGGA,153718,4437.5829,N,12402.9431,W,2,09,01.0,20.9,M,-22.1,M,14.0,0302*67
06/13/2019,15:37:20.538,$GPGGA,153719,4437.5829,N,12402.9431,W,2,09,01.0,20.9,M,-22.1,M,15.0,0302*67
06/13/2019,15:37:21.739,$GPGGA,153720,4437.5829,N,12402.9431,W,2,09,01.0,20.9,M,-22.1,M,16.0,0302*6E
06/13/2019,15:37:22.465,$GPGGA,153721,4437.5829,N,12402.9431,W,2,09,01.0,20.9,M,-22.1,M,14.0,0302*6D
06/13/2019,15:37:23.395,$GPGGA,153722,4437.5829,N,12402.9431,W,2,09,01.0,20.9,M,-22.1,M,15.0,0302*6F
06/13/2019,15:37:24.488,$GPGGA,153723,4437.5829,N,12402.9431,W,2,09,01.0,20.9,M,-22.1,M,16.0,0302*6D
06/13/2019,15:37:25.390,$GPGGA,153724,4437.5829,N,12402.9431,W,2,09,01.0,20.9,M,-22.1,M,13.0,0302*6F
06/13/2019,15:37:26.426,$GPGGA,153725,4437.5829,N,12402.9431,W,2,09,01.0,20.9,M,-22.1,M,14.0,0302*69
06/13/2019,15:37:28.008,$GPGGA,153726,4437.5829,N,12402.9431,W,2,09,01.0,20.9,M,-22.1,M,15.0,0302*6B
06/13/2019,15:37:28.348,$GPGGA,153727,4437.5829,N,12402.9431,W,2,09,01.0,20.9,M,-22.1,M,12.0,0302*6D
06/13/2019,15:37:29.391,$GPGGA,153728,4437.5829,N,12402.9431,W,2,09,01.0,20.9,M,-22.1,M,13.0,0302*63
06/13/2019,15:37:30.924,$GPGGA,153729,4437.5829,N,12402.9431,W,2,09,01.0,20.9,M,-22.1,M,14.0,0302*65
06/13/2019,15:37:31.597,$GPGGA,153730,4437.5829,N,12402.9431,W,2,09,01.0,20.9,M,-22.1,M,12.0,0302*6B
06/13/2019,15:37:32.489,$GPGGA,153731,4437.5829,N,12402.9431,W,2,09,01.0,20.9,M,-22.1,M,13.0,0302*6B
06/13/2019,15:37:33.790,$GPGGA,153732,4437.5829,N,12402.9431,W,2,09,01.0,20.9,M,-22.1,M,14.0,0302*6F
06/13/2019,15:37:34.540,$GPGGA,153733,4437.5830,N,12402.9431,W,2,09,01.0,20.9,M,-22.1,M,12.0,0302*60
06/13/2019,15:37:35.345,$GPGGA,153734,4437.5830,N,12402.9431,W,2,09,01.0,20.9,M,-22.1,M,13.0,0302*66
06/13/2019,15:37:36.664,$GPGGA,153735,4437.5830,N,12402.9431,W,2,09,01.0,20.9,M,-22.1,M,14.0,0302*60
06/13/2019,15:37:37.390,$GPGGA,153736,4437.5830,N,12402.9431,W,2,09,01.0,20.9,M,-22.1,M,12.0,0302*65
06/13/2019,15:37:38.416,$GPGGA,153737,4437.5830,N,12402.9431,W,2,09,01.0,20.9,M,-22.1,M,13.0,0302*65
06/13/2019,15:37:39.908,$GPGGA,153738,4437.5830,N,12402.9431,W,2,09,01.0,20.9,M,-22.1,M,14.0,0302*6D
06/13/2019,15:37:40.503,$GPGGA,153739,4437.5830,N,12402.9431,W,2,09,01.0,20.9,M,-22.1,M,09.0,0302*60
06/13/2019,15:37:41.558,$GPGGA,153740,4437.5830,N,12402.9431,W,2,09,01.0,20.9,M,-22.1,M,10.0,0302*66
06/13/2019,15:37:42.781,$GPGGA,153741,4437.5830,N,12402.9431,W,2,09,01.0,20.9,M,-22.1,M,11.0,0302*66
06/13/2019,15:37:43.554,$GPGGA,153742,4437.5830,N,12402.9431,W,2,09,01.0,20.9,M,-22.1,M,12.0,0302*66
06/13/2019,15:37:44.841,$GPGGA,153743,4437.5830,N,12402.9431,W,2,09,01.0,20.9,M,-22.1,M,13.0,0302*66
06/13/2019,15:37:46.565,$GPGGA,153745,4437.5830,N,12402.9431,W,2,09,01.0,20.9,M,-22.1,M,12.0,0302*61
06/13/2019,15:37:47.366,$GPGGA,153746,4437.5830,N,12402.9431,W,2,09,01.0,20.9,M,-22.1,M,13.0,0302*63
06/13/2019,15:37:48.396,$GPGGA,153747,4437.5830,N,12402.9431,W,2,09,01.0,20.9,M,-22.1,M,14.0,0302*65
06/13/2019,15:37:49.489,$GPGGA,153748,4437.5830,N,12402.9431,W,2,09,01.0,20.9,M,-22.1,M,12.0,0302*6C
06/13/2019,15:37:50.805,$GPGGA,153749,4437.5830,N,12402.9431,W,2,09,01.0,20.9,M,-22.1,M,13.0,0302*6C
06/13/2019,15:37:51.332,$GPGGA,153750,4437.5830,N,12402.9431,W,2,09,01.0,20.9,M,-22.1,M,14.0,0302*63
06/13/2019,15:37:52.573,$GPGGA,153751,4437.5830,N,12402.9431,W,2,09,01.0,20.9,M,-22.1,M,12.0,0302*64
06/13/2019,15:37:53.439,$GPGGA,153752,4437.5830,N,12402.9431,W,2,09,01.0,20.9,M,-22.1,M,13.0,0302*66
06/13/2019,15:37:54.556,$GPGGA,153753,4437.5830,N,12402.9431,W,2,09,01.0,20.9,M,-22.1,M,14.0,0302*60
06/13/2019,15:37:55.317,$GPGGA,153754,4437.5830,N,12402.9431,W,2,09,01.0,20.9,M,-22.1,M,12.0,0302*61
06/13/2019,15:37:56.569,$GPGGA,153755,4437.5830,N,12402.9431,W,2,09,01.0,20.9,M,-22.1,M,13.0,0302*61
06/13/2019,15:37:57.439,$GPGGA,153756,4437.5830,N,12402.9431,W,2,09,01.0,20.9,M,-22.1,M,14.0,0302*65
06/13/2019,15:37:58.562,$GPGGA,153757,4437.5830,N,12402.9431,W,2,09,01.0,20.9,M,-22.1,M,12.0,0302*62
06/13/2019,15:37:59.317,$GPGGA,153758,4437.5830,N,12402.9431,W,2,09,01.0,20.9,M,-22.1,M,13.0,0302*6C
06/13/2019,15:38:00.570,$GPGGA,153759,4437.5829,N,12402.9431,W,2,09,01.0,20.9,M,-22.1,M,14.0,0302*62
06/13/2019,15:38:01.439,$GPGGA,153800,4437.5829,N,12402.9431,W,2,09,01.0,20.9,M,-22.1,M,12.0,0302*67
06/13/2019,15:38:02.565,$GPGGA,153801,4437.5829,N,12402.9431,W,2,09,01.0,20.9,M,-22.1,M,13.0,0302*67
06/13/2019,15:38:03.831,$GPGGA,153802,4437.5829,N,12402.9431,W,2,09,01.0,20.9,M,-22.1,M,14.0,0302*63
06/13/2019,15:38:04.517,$GPGGA,153803,4437.5830,N,12402.9431,W,2,09,01.0,21.0,M,-22.1,M,12.0,0302*64
06/13/2019,15:38:05.391,$GPGGA,153804,4437.5830,N,12402.9431,W,2,09,01.0,21.0,M,-22.1,M,13.0,0302*62
06/13/2019,15:38:06.567,$GPGGA,153805,4437.5829,N,12402.9431,W,2,09,01.0,21.0,M,-22.1,M,14.0,0302*6C
06/13/2019,15:38:07.267,$GPGGA,153806,4437.5829,N,12402.9431,W,2,09,01.0,21.0,M,-22.1,M,12.0,0302*69
06/13/2019,15:38:08.600,$GPGGA,153807,4437.5829,N,12402.9431,W,2,09,01.0,21.0,M,-22.1,M,13.0,0302*69
06/13/2019,15:38:09.846,$GPGGA,153808,4437.5829,N,12402.9431,W,2,09,01.0,21.0,M,-22.1,M,14.0,0302*61
06/13/2019,15:38:10.442,$GPGGA,153809,4437.5829,N,12402.9431,W,2,09,01.0,21.0,M,-22.1,M,09.0,0302*6C
06/13/2019,15:38:11.717,$GPGGA,153810,4437.5829,N,12402.9431,W,2,09,01.0,21.0,M,-22.1,M,10.0,0302*6C
06/13/2019,15:38:12.662,$GPGGA,153811,4437.5829,N,12402.9431,W,2,09,01.0,21.0,M,-22.1,M,11.0,0302*6C
06/13/2019,15:38:13.341,$GPGGA,153812,4437.5829,N,12402.9431,W,2,09,01.0,21.0,M,-22.1,M,12.0,0302*6C
06/13/2019,15:38:14.393,$GPGGA,153813,4437.5829,N,12402.9431,W,2,09,01.0,21.0,M,-22.1,M,13.0,0302*6C
06/13/2019,15:38:15.924,$GPGGA,153814,4437.5829,N,12402.9431,W,2,09,01.0,21.0,M,-22.1,M,14.0,0302*6C
06/13/2019,15:38:16.410,$GPGGA,153815,4437.5829,N,12402.9431,W,2,09,01.0,21.0,M,-22.1,M,12.0,0302*6B
06/13/2019,15:38:17.668,$GPGGA,153816,4437.5828,N,12402.9431,W,2,09,01.0,21.0,M,-22.1,M,13.0,0302*68
06/13/2019,15:38:18.342,$GPGGA,153817,4437.5828,N,12402.9431,W,2,09,01.0,21.0,M,-22.1,M,14.0,0302*6E
06/13/2019,15:38:19.582,$GPGGA,153818,4437.5828,N,12402.9431,W,2,09,01.0,21.0,M,-22.1,M,12.0,0302*67
06/13/2019,15:38:20.347,$GPGGA,153819,4437.5828,N,12402.9431,W,2,09,01.0,21.0,M,-22.1,M,13.0,0302*67
06/13/2019,15:38:21.659,$GPGGA,153820,4437.5828,N,12402.9431,W,2,09,01.0,21.0,M,-22.1,M,14.0,0302*6A
06/13/2019,15:38:22.342,$GPGGA,153821,4437.5828,N,12402.9431,W,2,09,01.0,21.1,M,-22.1,M,12.0,0302*6C
06/13/2019,15:38:23.584,$GPGGA,153822,4437.5828,N,12402.9431,W,2,09,01.0,21.1,M,-22.1,M,13.0,0302*6E
06/13/2019,15:38:24.348,$GPGGA,153823,4437.5828,N,12402.9431,W,2,09,01.0,21.1,M,-22.1,M,14.0,0302*68
06/13/2019,15:38:25.441,$GPGGA,153824,4437.5828,N,12402.9431,W,2,09,01.0,21.1,M,-22.1,M,12.0,0302*69
06/13/2019,15:38:26.567,$GPGGA,153825,4437.5828,N,12402.9431,W,2,09,01.0,21.1,M,-22.1,M,13.0,0302*69
06/13/2019,15:38:27.368,$GPGGA,153826,4437.5828,N,12402.9431,W,2,09,01.0,21.1,M,-22.1,M,14.0,0302*6D
06/13/2019,15:38:28.629,$GPGGA,153827,4437.5828,N,12402.9430,W,2,09,01.0,21.1,M,-22.1,M,12.0,0302*6B
06/13/2019,15:38:30.657,$GPGGA,153829,4437.5828,N,12402.9430,W,2,09,01.0,21.1,M,-22.1,M,14.0,0302*63
06/13/2019,15:38:31.393,$GPGGA,153830,4437.5828,N,12402.9430,W,2,09,01.0,21.1,M,-22.1,M,12.0,0302*6D
06/13/2019,15:38:32.652,$GPGGA,153831,4437.5828,N,12402.9430,W,2,09,01.0,21.1,M,-22.1,M,13.0,0302*6D
06/13/2019,15:38:33.299,$GPGGA,153832,4437.5828,N,12402.9430,W,2,09,01.0,21.1,M,-22.1,M,14.0,0302*69
06/13/2019,15:38:34.668,$GPGGA,153833,4437.5828,N,12402.9430,W,2,09,01.0,21.1,M,-22.1,M,12.0,0302*6E
06/13/2019,15:38:35.743,$GPGGA,153834,4437.5828,N,12402.9430,W,2,09,01.0,21.1,M,-22.1,M,13.0,0302*68
06/13/2019,15:38:36.469,$GPGGA,153835,4437.5828,N,12402.9430,W,2,09,01.0,21.1,M,-22.1,M,14.0,0302*6E
06/13/2019,15:38:37.348,$GPGGA,153836,4437.5828,N,12402.9430,W,2,09,01.0,21.2,M,-22.1,M,12.0,0302*68
06/13/2019,15:38:38.667,$GPGGA,153837,4437.5828,N,12402.9431,W,2,09,01.0,21.2,M,-22.1,M,13.0,0302*69
06/13/2019,15:38:39.294,$GPGGA,153838,4437.5828,N,12402.9430,W,2,09,01.0,21.2,M,-22.1,M,14.0,0302*60
06/13/2019,15:38:40.588,$GPGGA,153839,4437.5828,N,12402.9431,W,2,09,01.0,21.2,M,-22.1,M,09.0,0302*6C
06/13/2019,15:38:41.748,$GPGGA,153840,4437.5828,N,12402.9430,W,2,09,01.0,21.2,M,-22.1,M,10.0,0302*6B
06/13/2019,15:38:42.541,$GPGGA,153841,4437.5828,N,12402.9430,W,2,09,01.0,21.2,M,-22.1,M,11.0,0302*6B
06/13/2019,15:38:43.597,$GPGGA,153842,4437.5828,N,12402.9430,W,2,09,01.0,21.2,M,-22.1,M,12.0,0302*6B
06/13/2019,15:38:44.368,$GPGGA,153843,4437.5828,N,12402.9430,W,2,09,01.0,21.2,M,-22.1,M,13.0,0302*6B
06/13/2019,15:38:45.855,$GPGGA,153844,4437.5828,N,12402.9430,W,2,09,01.0,21.2,M,-22.1,M,14.0,0302*6B
06/13/2019,15:38:46.652,$GPGGA,153845,4437.5828,N,12402.9430,W,2,09,01.0,21.2,M,-22.1,M,12.0,0302*6C
06/13/2019,15:38:47.394,$GPGGA,153846,4437.5828,N,12402.9430,W,2,09,01.0,21.2,M,-22.1,M,13.0,0302*6E
06/13/2019,15:38:48.621,$GPGGA,153847,4437.5828,N,12402.9430,W,2,09,01.0,21.2,M,-22.1,M,14.0,0302*68
06/13/2019,15:38:49.749,$GPGGA,153848,4437.5828,N,12402.9430,W,2,09,01.0,21.2,M,-22.1,M,12.0,0302*61
06/13/2019,15:38:50.542,$GPGGA,153849,4437.5828,N,12402.9430,W,2,09,01.0,21.2,M,-22.1,M,13.0,0302*61
06/13/2019,15:38:51.394,$GPGGA,153850,4437.5828,N,12402.9430,W,2,09,01.0,21.3,M,-22.1,M,14.0,0302*6F
06/13/2019,15:38:52.419,$GPGGA,153851,4437.5828,N,12402.9430,W,2,09,01.0,21.3,M,-22.1,M,12.0,0302*68
06/13/2019,15:38:53.809,$GPGGA,153852,4437.5828,N,12402.9430,W,2,09,01.0,21.3,M,-22.1,M,13.0,0302*6A
06/13/2019,15:38:54.609,$GPGGA,153853,4437.5828,N,12402.9430,W,2,09,01.0,21.3,M,-22.1,M,14.0,0302*6C
06/13/2019,15:38:55.343,$GPGGA,153854,4437.5828,N,12402.9430,W,2,09,01.0,21.3,M,-22.1,M,12.0,0302*6D
06/13/2019,15:38:56.587,$GPGGA,153855,4437.5828,N,12402.9430,W,2,09,01.0,21.3,M,-22.1,M,13.0,0302*6D
06/13/2019,15:38:57.749,$GPGGA,153856,4437.5828,N,12402.9430,W,2,09,01.0,21.3,M,-22.1,M,14.0,0302*69
06/13/2019,15:38:58.543,$GPGGA,153857,4437.5828,N,12402.9430,W,2,09,01.0,21.3,M,-22.1,M,12.0,0302*6E
06/13/2019,15:38:59.395,$GPGGA,153858,4437.5828,N,12402.9430,W,2,09,01.0,21.3,M,-22.1,M,13.0,0302*60
06/13/2019,15:39:00.721,$GPGGA,153859,4437.5828,N,12402.9430,W,2,09,01.0,21.3,M,-22.1,M,14.0,0302*66
06/13/2019,15:39:01.412,$GPGGA,153900,4437.5828,N,12402.9430,W,2,09,01.0,21.3,M,-22.1,M,12.0,0302*6D
06/13/2019,15:39:02.669,$GPGGA,153901,4437.5828,N,12402.9430,W,2,09,01.0,21.3,M,-22.1,M,13.0,0302*6D
06/13/2019,15:39:03.407,$GPGGA,153902,4437.5828,N,12402.9430,W,2,09,01.0,21.3,M,-22.1,M,14.0,0302*69
06/13/2019,15:39:04.420,$GPGGA,153903,4437.5828,N,12402.9430,W,2,09,01.0,21.3,M,-22.1,M,12.0,0302*6E
06/13/2019,15:39:05.809,$GPGGA,153904,4437.5828,N,12402.9430,W,2,09,01.0,21.3,M,-22.1,M,13.0,0302*68
06/13/2019,15:39:06.604,$GPGGA,153905,4437.5828,N,12402.9430,W,2,09,01.0,21.3,M,-22.1,M,14.0,0302*6E
06/13/2019,15:39:07.567,$GPGGA,153906,4437.5828,N,12402.9430,W,2,09,01.0,21.3,M,-22.1,M,12.0,0302*6B
06/13/2019,15:39:08.369,$GPGGA,153907,4437.5828,N,12402.9430,W,2,09,01.0,21.3,M,-22.1,M,13.0,0302*6B
06/13/2019,15:39:09.350,$GPGGA,153908,4437.5828,N,12402.9430,W,2,09,01.0,21.3,M,-22.1,M,14.0,0302*63
06/13/2019,15:39:10.666,$GPGGA,153909,4437.5828,N,12402.9430,W,2,09,01.0,21.3,M,-22.1,M,09.0,0302*6E
06/13/2019,15:39:11.296,$GPGGA,153910,4437.5828,N,12402.9430,W,2,09,01.0,21.3,M,-22.1,M,10.0,0302*6E
06/13/2019,15:39:12.605,$GPGGA,153911,4437.5828,N,12402.9431,W,2,09,01.0,21.3,M,-22.1,M,11.0,0302*6F
06/13/2019,15:39:13.749,$GPGGA,153912,4437.5828,N,12402.9430,W,2,09,01.0,21.3,M,-22.1,M,12.0,0302*6E
06/13/2019,15:39:14.543,$GPGGA,153913,4437.5828,N,12402.9430,W,2,09,01.0,21.3,M,-22.1,M,13.0,0302*6E
06/13/2019,15:39:15.800,$GPGGA,153914,4437.5828,N,12402.9431,W,2,09,01.0,21.3,M,-22.1,M,14.0,0302*6F
06/13/2019,15:39:17.220,$GPGGA,153916,4437.5828,N,12402.9430,W,2,09,01.0,21.3,M,-22.1,M,13.0,0302*6B
06/13/2019,15:39:18.350,$GPGGA,153917,4437.5828,N,12402.9430,W,2,09,01.0,21.3,M,-22.1,M,14.0,0302*6D
06/13/2019,15:39:19.660,$GPGGA,153918,4437.5828,N,12402.9430,W,2,09,01.0,21.3,M,-22.1,M,12.0,0302*64
06/13/2019,15:39:20.345,$GPGGA,153919,4437.5828,N,12402.9430,W,2,09,01.0,21.3,M,-22.1,M,13.0,0302*64
06/13/2019,15:39:21.370,$GPGGA,153920,4437.5828,N,12402.9430,W,2,09,01.0,21.4,M,-22.1,M,14.0,0302*6E
06/13/2019,15:39:22.577,$GPGGA,153921,4437.5828,N,12402.9430,W,2,09,01.0,21.4,M,-22.1,M,12.0,0302*69
06/13/2019,15:39:23.494,$GPGGA,153922,4437.5828,N,12402.9430,W,2,09,01.0,21.4,M,-22.1,M,13.0,0302*6B
06/13/2019,15:39:24.406,$GPGGA,153923,4437.5828,N,12402.9430,W,2,09,01.0,21.4,M,-22.1,M,14.0,0302*6D
06/13/2019,15:39:25.823,$GPGGA,153924,4437.5828,N,12402.9430,W,2,09,01.0,21.4,M,-22.1,M,12.0,0302*6C
06/13/2019,15:39:26.514,$GPGGA,153925,4437.5828,N,12402.9430,W,2,09,01.0,21.4,M,-22.1,M,13.0,0302*6C
06/13/2019,15:39:27.443,$GPGGA,153926,4437.5828,N,12402.9430,W,2,09,01.0,21.4,M,-22.1,M,14.0,0302*68
06/13/2019,15:39:28.565,$GPGGA,153927,4437.5828,N,12402.9430,W,2,09,01.0,21.4,M,-22.1,M,12.0,0302*6F
06/13/2019,15:39:29.370,$GPGGA,153928,4437.5828,N,12402.9430,W,2,09,01.0,21.4,M,-22.1,M,13.0,0302*61
06/13/2019,15:39:30.400,$GPGGA,153929,4437.5828,N,12402.9430,W,2,09,01.0,21.4,M,-22.1,M,14.0,0302*67
06/13/2019,15:39:31.660,$GPGGA,153930,4437.5828,N,12402.9430,W,2,09,01.0,21.4,M,-22.1,M,12.0,0302*69
06/13/2019,15:39:32.345,$GPGGA,153931,4437.5828,N,12402.9430,W,2,09,01.0,21.4,M,-22.1,M,13.0,0302*69
06/13/2019,15:39:33.590,$GPGGA,153932,4437.5828,N,12402.9430,W,2,09,01.0,21.4,M,-22.1,M,14.0,0302*6D
06/13/2019,15:39:35.570,$GPGGA,153934,4437.5828,N,12402.9430,W,2,09,01.0,21.3,M,-22.1,M,13.0,0302*6B
06/13/2019,15:39:36.444,$GPGGA,153935,4437.5828,N,12402.9430,W,2,09,01.0,21.3,M,-22.1,M,14.0,0302*6D
06/13/2019,15:39:37.565,$GPGGA,153936,4437.5828,N,12402.9430,W,2,09,01.0,21.3,M,-22.1,M,12.0,0302*68
06/13/2019,15:39:38.371,$GPGGA,153937,4437.5828,N,12402.9430,W,2,09,01.0,21.3,M,-22.1,M,13.0,0302*68
06/13/2019,15:39:39.601,$GPGGA,153938,4437.5828,N,12402.9430,W,2,09,01.0,21.3,M,-22.1,M,14.0,0302*60
06/13/2019,15:39:40.846,$GPGGA,153939,4437.5828,N,12402.9430,W,2,09,01.0,21.3,M,-22.1,M,09.0,0302*6D
06/13/2019,15:39:41.446,$GPGGA,153940,4437.5828,N,12402.9430,W,2,09,01.0,21.3,M,-22.1,M,10.0,0302*6B
06/13/2019,15:39:42.589,$GPGGA,153941,4437.5828,N,12402.9430,W,2,09,01.0,21.3,M,-22.1,M,11.0,0302*6B
06/13/2019,15:39:43.402,$GPGGA,153942,4437.5828,N,12402.9430,W,2,09,01.0,21.3,M,-22.1,M,12.0,0302*6B
06/13/2019,15:39:45.495,$GPGGA,153944,4437.5828,N,12402.9430,W,2,09,01.0,21.3,M,-22.1,M,14.0,0302*6B
06/13/2019,15:39:46.197,$GPGGA,153945,4437.5828,N,12402.9430,W,2,09,01.0,21.3,M,-22.1,M,12.0,0302*6C
06/13/2019,15:39:47.597,$GPGGA,153946,4437.5828,N,12402.9430,W,2,09,01.0,21.3,M,-22.1,M,13.0,0302*6E
06/13/2019,15:39:48.351,$GPGGA,153947,4437.5828,N,12402.9430,W,2,09,01.0,21.3,M,-22.1,M,14.0,0302*68
06/13/2019,15:39:49.344,$GPGGA,153948,4437.5828,N,12402.9430,W,2,09,01.0,21.3,M,-22.1,M,12.0,0302*61
06/13/2019,15:39:50.699,$GPGGA,153949,4437.5828,N,12402.9430,W,2,09,01.0,21.3,M,-22.1,M,13.0,0302*61
06/13/2019,15:39:51.421,$GPGGA,153950,4437.5828,N,12402.9430,W,2,09,01.0,21.3,M,-22.1,M,14.0,0302*6E
06/13/2019,15:39:52.301,$GPGGA,153951,4437.5828,N,12402.9430,W,2,09,01.0,21.3,M,-22.1,M,12.0,0302*69
06/13/2019,15:39:53.445,$GPGGA,153952,4437.5828,N,12402.9430,W,2,09,01.0,21.3,M,-22.1,M,13.0,0302*6B
06/13/2019,15:39:54.578,$GPGGA,153953,4437.5828,N,12402.9430,W,2,09,01.0,21.3,M,-22.1,M,14.0,0302*6D
06/13/2019,15:39:56.372,$GPGGA,153955,4437.5828,N,12402.9430,W,2,09,01.0,21.3,M,-22.1,M,13.0,0302*6C
06/13/2019,15:39:57.352,$GPGGA,153956,4437.5828,N,12402.9430,W,2,09,01.0,21.3,M,-22.1,M,14.0,0302*68
06/13/2019,15:39:58.657,$GPGGA,153957,4437.5828,N,12402.9430,W,2,09,01.0,21.3,M,-22.1,M,12.0,0302*6F
06/13/2019,15:39:59.297,$GPGGA,153958,4437.5828,N,12402.9430,W,2,09,01.0,21.3,M,-22.1,M,13.0,0302*61
06/13/2019,15:40:00.594,$GPGGA,153959,4437.5828,N,12402.9430,W,2,09,01.0,21.3,M,-22.1,M,14.0,0302*67
06/13/2019,15:40:01.351,$GPGGA,154000,4437.5828,N,12402.9430,W,2,09,01.0,21.3,M,-22.1,M,12.0,0302*63
06/13/2019,15:40:02.669,$GPGGA,154001,4437.5828,N,12402.9430,W,2,09,01.0,21.3,M,-22.1,M,13.0,0302*63
06/13/2019,15:40:03.797,$GPGGA,154002,4437.5828,N,12402.9430,W,2,09,01.0,21.3,M,-22.1,M,14.0,0302*67
06/13/2019,15:40:04.546,$GPGGA,154003,4437.5828,N,12402.9430,W,2,09,01.0,21.3,M,-22.1,M,12.0,0302*60
06/13/2019,15:40:05.303,$GPGGA,154004,4437.5828,N,12402.9430,W,2,09,01.0,21.3,M,-22.1,M,13.0,0302*66
06/13/2019,15:40:06.673,$GPGGA,154005,4437.5828,N,12402.9430,W,2,09,01.0,21.3,M,-22.1,M,14.0,0302*60
06/13/2019,15:40:07.747,$GPGGA,154006,4437.5828,N,12402.9430,W,2,09,01.0,21.2,M,-22.1,M,12.0,0302*64
06/13/2019,15:40:08.473,$GPGGA,154007,4437.5828,N,12402.9430,W,2,09,01.0,21.2,M,-22.1,M,13.0,0302*64
06/13/2019,15:40:09.752,$GPGGA,154008,4437.5828,N,12402.9430,W,2,09,01.0,21.2,M,-22.1,M,14.0,0302*6C
06/13/2019,15:40:10.546,$GPGGA,154009,4437.5828,N,12402.9430,W,2,09,01.0,21.2,M,-22.1,M,09.0,0302*61
06/13/2019,15:40:11.397,$GPGGA,154010,4437.5828,N,12402.9430,W,2,09,01.0,21.2,M,-22.1,M,10.0,0302*61
06/13/2019,15:40:12.836,$GPGGA,154011,4437.5828,N,12402.9430,W,2,09,01.0,21.2,M,-22.1,M,11.0,0302*61
06/13/2019,15:40:13.521,$GPGGA,154012,4437.5828,N,12402.9430,W,2,09,01.0,21.2,M,-22.1,M,12.0,0302*61
06/13/2019,15:40:14.496,$GPGGA,154013,4437.5828,N,12402.9430,W,2,09,01.0,21.2,M,-22.1,M,13.0,0302*61
06/13/2019,15:40:15.848,$GPGGA,154014,4437.5828,N,12402.9430,W,2,09,01.0,21.2,M,-22.1,M,14.0,0302*61
06/13/2019,15:40:16.600,$GPGGA,154015,4437.5828,N,12402.9430,W,2,09,01.0,21.2,M,-22.1,M,12.0,0302*66
06/13/2019,15:40:17.352,$GPGGA,154016,4437.5828,N,12402.9430,W,2,09,01.0,21.2,M,-22.1,M,13.0,0302*64
06/13/2019,15:40:18.670,$GPGGA,154017,4437.5828,N,12402.9430,W,2,09,01.0,21.2,M,-22.1,M,14.0,0302*62
06/13/2019,15:40:19.347,$GPGGA,154018,4437.5828,N,12402.9430,W,2,09,01.0,21.2,M,-22.1,M,12.0,0302*6B
06/13/2019,15:40:20.607,$GPGGA,154019,4437.5828,N,12402.9431,W,2,09,01.0,21.1,M,-22.1,M,13.0,0302*69
06/13/2019,15:40:21.352,$GPGGA,154020,4437.5828,N,12402.9431,W,2,09,01.0,21.1,M,-22.1,M,14.0,0302*64
06/13/2019,15:40:22.669,$GPGGA,154021,4437.5828,N,12402.9431,W,2,09,01.0,21.1,M,-22.1,M,12.0,0302*63
06/13/2019,15:40:23.398,$GPGGA,154022,4437.5828,N,12402.9431,W,2,09,01.0,21.1,M,-22.1,M,13.0,0302*61
06/13/2019,15:40:24.423,$GPGGA,154023,4437.5828,N,12402.9431,W,2,09,01.0,21.1,M,-22.1,M,14.0,0302*67
06/13/2019,15:40:25.432,$GPGGA,154024,4437.5828,N,12402.9431,W,2,09,01.0,21.1,M,-22.1,M,12.0,0302*66
06/13/2019,15:40:26.496,$GPGGA,154025,4437.5828,N,12402.9430,W,2,09,01.0,21.1,M,-22.1,M,13.0,0302*67
06/13/2019,15:40:27.908,$GPGGA,154026,4437.5828,N,12402.9430,W,2,09,01.0,21.1,M,-22.1,M,14.0,0302*63
06/13/2019,15:40:28.638,$GPGGA,154027,4437.5828,N,12402.9430,W,2,09,01.0,21.1,M,-22.1,M,12.0,0302*64
06/13/2019,15:40:29.714,$GPGGA,154028,4437.5828,N,12402.9430,W,2,09,01.0,21.1,M,-22.1,M,13.0,0302*6A
06/13/2019,15:40:31.497,$GPGGA,154030,4437.5828,N,12402.9430,W,2,09,01.0,21.1,M,-22.1,M,12.0,0302*62
06/13/2019,15:40:32.908,$GPGGA,154031,4437.5828,N,12402.9431,W,2,09,01.0,21.1,M,-22.1,M,13.0,0302*63
06/13/2019,15:40:33.439,$GPGGA,154032,4437.5828,N,12402.9430,W,2,09,01.0,21.1,M,-22.1,M,14.0,0302*66
06/13/2019,15:40:34.353,$GPGGA,154033,4437.5828,N,12402.9430,W,2,09,01.0,21.2,M,-22.1,M,12.0,0302*62
06/13/2019,15:40:35.664,$GPGGA,154034,4437.5828,N,12402.9430,W,2,09,01.0,21.2,M,-22.1,M,13.0,0302*64
06/13/2019,15:40:36.347,$GPGGA,154035,4437.5828,N,12402.9431,W,2,09,01.0,21.2,M,-22.1,M,14.0,0302*63
06/13/2019,15:40:37.273,$GPGGA,154036,4437.5828,N,12402.9430,W,2,09,01.0,21.2,M,-22.1,M,12.0,0302*67
06/13/2019,15:40:38.433,$GPGGA,154037,4437.5829,N,12402.9430,W,2,09,01.0,21.2,M,-22.1,M,13.0,0302*66
06/13/2019,15:40:39.949,$GPGGA,154038,4437.5829,N,12402.9430,W,2,09,01.0,21.2,M,-22.1,M,14.0,0302*6E
06/13/2019,15:40:40.574,$GPGGA,154039,4437.5829,N,12402.9430,W,2,09,01.0,21.1,M,-22.1,M,10.0,0302*68
06/13/2019,15:40:41.636,$GPGGA,154040,4437.5829,N,12402.9430,W,2,09,01.0,21.1,M,-22.1,M,11.0,0302*67
06/13/2019,15:40:42.305,$GPGGA,154041,4437.5829,N,12402.9430,W,2,09,01.0,21.2,M,-22.1,M,12.0,0302*66
06/13/2019,15:40:43.662,$GPGGA,154042,4437.5829,N,12402.9430,W,2,09,01.0,21.2,M,-22.1,M,13.0,0302*64
06/13/2019,15:40:44.755,$GPGGA,154043,4437.5829,N,12402.9430,W,2,09,01.0,21.2,M,-22.1,M,14.0,0302*62
06/13/2019,15:40:45.474,$GPGGA,154044,4437.5829,N,12402.9430,W,2,09,01.0,21.2,M,-22.1,M,15.0,0302*64
06/13/2019,15:40:46.575,$GPGGA,154045,4437.5829,N,12402.9430,W,2,09,01.0,21.2,M,-22.1,M,13.0,0302*63
06/13/2019,15:40:47.846,$GPGGA,154046,4437.5829,N,12402.9430,W,2,09,01.0,21.2,M,-22.1,M,14.0,0302*67
06/13/2019,15:40:48.449,$GPGGA,154047,4437.5829,N,12402.9430,W,2,09,01.0,21.2,M,-22.1,M,15.0,0302*67
06/13/2019,15:40:49.593,$GPGGA,154048,4437.5829,N,12402.9430,W,2,09,01.0,21.1,M,-22.1,M,12.0,0302*6C
06/13/2019,15:40:50.574,$GPGGA,154049,4437.5829,N,12402.9430,W,2,09,01.0,21.1,M,-22.1,M,13.0,0302*6C
06/13/2019,15:40:51.847,$GPGGA,154050,4437.5829,N,12402.9430,W,2,09,01.0,21.2,M,-22.1,M,14.0,0302*60
06/13/2019,15:40:52.449,$GPGGA,154051,4437.5829,N,12402.9430,W,2,09,01.0,21.2,M,-22.1,M,12.0,0302*67
06/13/2019,15:40:53.374,$GPGGA,154052,4437.5829,N,12402.9430,W,2,09,01.0,21.2,M,-22.1,M,13.0,0302*65
06/13/2019,15:40:54.582,$GPGGA,154053,4437.5829,N,12402.9430,W,2,09,01.0,21.1,M,-22.1,M,14.0,0302*60
06/13/2019,15:40:55.447,$GPGGA,154054,4437.5829,N,12402.9430,W,2,09,01.0,21.2,M,-22.1,M,12.0,0302*62
06/13/2019,15:40:56.567,$GPGGA,154055,4437.5829,N,12402.9430,W,2,09,01.0,21.2,M,-22.1,M,13.0,0302*62
06/13/2019,15:40:57.274,$GPGGA,154056,4437.5829,N,12402.9430,W,2,09,01.0,21.1,M,-22.1,M,14.0,0302*65
06/13/2019,15:40:58.525,$GPGGA,154057,4437.5829,N,12402.9430,W,2,09,01.0,21.1,M,-22.1,M,12.0,0302*62
06/13/2019,15:40:59.447,$GPGGA,154058,4437.5829,N,12402.9430,W,2,09,01.0,21.1,M,-22.1,M,13.0,0302*6C
06/13/2019,15:41:00.562,$GPGGA,154059,4437.5829,N,12402.9430,W,2,09,01.0,21.1,M,-22.1,M,14.0,0302*6A
06/13/2019,15:41:01.375,$GPGGA,154100,4437.5829,N,12402.9430,W,2,09,01.0,21.1,M,-22.1,M,12.0,0302*61
06/13/2019,15:41:02.583,$GPGGA,154101,4437.5829,N,12402.9430,W,2,09,01.0,21.1,M,-22.1,M,13.0,0302*61
06/13/2019,15:41:03.708,$GPGGA,154102,4437.5829,N,12402.9430,W,2,09,01.0,21.1,M,-22.1,M,14.0,0302*65
06/13/2019,15:41:04.300,$GPGGA,154103,4437.5829,N,12402.9430,W,2,09,01.0,21.2,M,-22.1,M,12.0,0302*61
06/13/2019,15:41:05.591,$GPGGA,154104,4437.5829,N,12402.9430,W,2,09,01.0,21.2,M,-22.1,M,13.0,0302*67
06/13/2019,15:41:06.354,$GPGGA,154105,4437.5829,N,12402.9430,W,2,09,01.0,21.2,M,-22.1,M,14.0,0302*61
06/13/2019,15:41:07.673,$GPGGA,154106,4437.5829,N,12402.9430,W,2,09,01.0,21.2,M,-22.1,M,12.0,0302*64
06/13/2019,15:41:08.349,$GPGGA,154107,4437.5829,N,12402.9430,W,2,09,01.0,21.2,M,-22.1,M,13.0,0302*64
06/13/2019,15:41:09.591,$GPGGA,154108,4437.5829,N,12402.9430,W,2,09,01.0,21.2,M,-22.1,M,14.0,0302*6C
06/13/2019,15:41:10.354,$GPGGA,154109,4437.5829,N,12402.9430,W,2,09,01.0,21.2,M,-22.1,M,09.0,0302*61
06/13/2019,15:41:11.956,$GPGGA,154110,4437.5829,N,12402.9430,W,2,09,01.0,21.2,M,-22.1,M,10.0,0302*61
06/13/2019,15:41:13.360,$GPGGA,154112,4437.5829,N,12402.9430,W,2,09,01.0,21.2,M,-22.1,M,12.0,0302*61
06/13/2019,15:41:14.604,$GPGGA,154113,4437.5830,N,12402.9430,W,2,09,01.0,21.3,M,-22.1,M,13.0,0302*68
06/13/2019,15:41:16.255,$GPGGA,154115,4437.5830,N,12402.9430,W,2,09,01.0,21.4,M,-22.1,M,12.0,0302*68
06/13/2019,15:41:17.612,$GPGGA,154116,4437.5830,N,12402.9430,W,2,09,01.0,21.4,M,-22.1,M,13.0,0302*6A
06/13/2019,15:41:18.621,$GPGGA,154117,4437.5830,N,12402.9429,W,2,09,01.0,21.5,M,-22.1,M,14.0,0302*65
06/13/2019,15:41:19.227,$GPGGA,154118,4437.5830,N,12402.9429,W,2,09,01.0,21.5,M,-22.1,M,12.0,0302*6C
06/13/2019,15:41:20.576,$GPGGA,154119,4437.5830,N,12402.9430,W,2,09,01.0,21.4,M,-22.1,M,13.0,0302*65
06/13/2019,15:41:21.448,$GPGGA,154120,4437.5830,N,12402.9430,W,2,09,01.0,21.4,M,-22.1,M,14.0,0302*68
06/13/2019,15:41:22.570,$GPGGA,154121,4437.5830,N,12402.9430,W,2,09,01.0,21.4,M,-22.1,M,12.0,0302*6F
06/13/2019,15:41:23.826,$GPGGA,154122,4437.5830,N,12402.9430,W,2,09,01.0,21.4,M,-22.1,M,13.0,0302*6D
06/13/2019,15:41:24.519,$GPGGA,154123,4437.5830,N,12402.9430,W,2,09,01.0,21.4,M,-22.1,M,14.0,0302*6B
06/13/2019,15:41:25.809,$GPGGA,154124,4437.5830,N,12402.9430,W,2,09,01.0,21.3,M,-22.1,M,12.0,0302*6D
06/13/2019,15:41:26.402,$GPGGA,154125,4437.5830,N,12402.9430,W,2,09,01.0,21.3,M,-22.1,M,13.0,0302*6D
06/13/2019,15:41:27.604,$GPGGA,154126,4437.5830,N,12402.9430,W,2,09,01.0,21.3,M,-22.1,M,14.0,0302*69
06/13/2019,15:41:28.355,$GPGGA,154127,4437.5830,N,12402.9430,W,2,09,01.0,21.3,M,-22.1,M,12.0,0302*6E
06/13/2019,15:41:29.665,$GPGGA,154128,4437.5830,N,12402.9430,W,2,09,01.0,21.3,M,-22.1,M,13.0,0302*60
06/13/2019,15:41:30.350,$GPGGA,154129,4437.5830,N,12402.9430,W,2,09,01.0,21.3,M,-22.1,M,14.0,0302*66
06/13/2019,15:41:31.590,$GPGGA,154130,4437.5830,N,12402.9430,W,2,09,01.0,21.3,M,-22.1,M,12.0,0302*68
06/13/2019,15:41:33.601,$GPGGA,154132,4437.5830,N,12402.9430,W,2,09,01.0,21.3,M,-22.1,M,14.0,0302*6C
06/13/2019,15:41:34.449,$GPGGA,154133,4437.5830,N,12402.9430,W,2,09,01.0,21.3,M,-22.1,M,12.0,0302*6B
06/13/2019,15:41:35.567,$GPGGA,154134,4437.5830,N,12402.9430,W,2,09,01.0,21.3,M,-22.1,M,13.0,0302*6D
06/13/2019,15:41:36.376,$GPGGA,154135,4437.5830,N,12402.9430,W,2,09,01.0,21.3,M,-22.1,M,14.0,0302*6B
06/13/2019,15:41:37.582,$GPGGA,154136,4437.5830,N,12402.9430,W,2,09,01.0,21.3,M,-22.1,M,12.0,0302*6E
06/13/2019,15:41:38.449,$GPGGA,154137,4437.5830,N,12402.9430,W,2,09,01.0,21.3,M,-22.1,M,13.0,0302*6E
06/13/2019,15:41:39.567,$GPGGA,154138,4437.5830,N,12402.9430,W,2,09,01.0,21.3,M,-22.1,M,14.0,0302*66
06/13/2019,15:41:41.593,$GPGGA,154140,4437.5830,N,12402.9430,W,2,09,01.0,21.3,M,-22.1,M,10.0,0302*6D
06/13/2019,15:41:42.356,$GPGGA,154141,4437.5830,N,12402.9430,W,2,09,01.0,21.3,M,-22.1,M,11.0,0302*6D
06/13/2019,15:41:43.666,$GPGGA,154142,4437.5830,N,12402.9430,W,2,09,01.0,21.3,M,-22.1,M,12.0,0302*6D
06/13/2019,15:41:44.351,$GPGGA,154143,4437.5830,N,12402.9430,W,2,09,01.0,21.3,M,-22.1,M,13.0,0302*6D
06/13/2019,15:41:45.888,$GPGGA,154144,4437.5830,N,12402.9430,W,2,09,01.0,21.3,M,-22.1,M,14.0,0302*6D
06/13/2019,15:41:46.599,$GPGGA,154145,4437.5830,N,12402.9430,W,2,09,01.0,21.3,M,-22.1,M,12.0,0302*6A
06/13/2019,15:41:47.723,$GPGGA,154146,4437.5830,N,12402.9430,W,2,09,01.0,21.3,M,-22.1,M,13.0,0302*68
06/13/2019,15:41:48.302,$GPGGA,154147,4437.5830,N,12402.9430,W,2,09,01.0,21.3,M,-22.1,M,14.0,0302*6E
06/13/2019,15:41:49.376,$GPGGA,154148,4437.5830,N,12402.9430,W,2,09,01.0,21.3,M,-22.1,M,12.0,0302*67
06/13/2019,15:41:50.583,$GPGGA,154149,4437.5830,N,12402.9430,W,2,09,01.0,21.3,M,-22.1,M,13.0,0302*67
06/13/2019,15:41:51.449,$GPGGA,154150,4437.5830,N,12402.9431,W,2,09,01.0,21.3,M,-22.1,M,14.0,0302*69
06/13/2019,15:41:52.260,$GPGGA,154151,4437.5830,N,12402.9431,W,2,09,01.0,21.3,M,-22.1,M,12.0,0302*6E
06/13/2019,15:41:53.593,$GPGGA,154152,4437.5830,N,12402.9431,W,2,09,01.0,21.3,M,-22.1,M,13.0,0302*6C
06/13/2019,15:41:54.356,$GPGGA,154153,4437.5830,N,12402.9431,W,2,09,01.0,21.3,M,-22.1,M,14.0,0302*6A
06/13/2019,15:41:55.665,$GPGGA,154154,4437.5830,N,12402.9431,W,2,09,01.0,21.3,M,-22.1,M,12.0,0302*6B
06/13/2019,15:41:56.352,$GPGGA,154155,4437.5830,N,12402.9431,W,2,09,01.0,21.3,M,-22.1,M,13.0,0302*6B
06/13/2019,15:41:57.602,$GPGGA,154156,4437.5830,N,12402.9431,W,2,09,01.0,21.3,M,-22.1,M,14.0,0302*6F
06/13/2019,15:41:58.357,$GPGGA,154157,4437.5830,N,12402.9431,W,2,09,01.0,21.3,M,-22.1,M,12.0,0302*68
06/13/2019,15:41:59.664,$GPGGA,154158,4437.5830,N,12402.9431,W,2,09,01.0,21.3,M,-22.1,M,13.0,0302*66
06/13/2019,15:42:00.351,$GPGGA,154159,4437.5830,N,12402.9431,W,2,09,01.0,21.3,M,-22.1,M,14.0,0302*60
06/13/2019,15:42:01.593,$GPGGA,154200,4437.5830,N,12402.9431,W,2,09,01.0,21.3,M,-22.1,M,12.0,0302*69
06/13/2019,15:42:02.357,$GPGGA,154201,4437.5831,N,12402.9431,W,2,09,01.0,21.2,M,-22.1,M,13.0,0302*69
06/13/2019,15:42:03.668,$GPGGA,154202,4437.5831,N,12402.9431,W,2,09,01.0,21.2,M,-22.1,M,14.0,0302*6D
06/13/2019,15:42:05.568,$GPGGA,154204,4437.5831,N,12402.9431,W,2,09,01.0,21.2,M,-22.1,M,13.0,0302*6C
06/13/2019,15:42:06.780,$GPGGA,154205,4437.5831,N,12402.9431,W,2,09,01.0,21.3,M,-22.1,M,14.0,0302*6B
06/13/2019,15:42:07.461,$GPGGA,154206,4437.5831,N,12402.9431,W,2,09,01.0,21.3,M,-22.1,M,12.0,0302*6E
06/13/2019,15:42:08.629,$GPGGA,154207,4437.5831,N,12402.9431,W,2,09,01.0,21.3,M,-22.1,M,13.0,0302*6E
06/13/2019,15:42:09.703,$GPGGA,154208,4437.5831,N,12402.9431,W,2,09,01.0,21.3,M,-22.1,M,14.0,0302*66
06/13/2019,15:42:10.429,$GPGGA,154209,4437.5831,N,12402.9431,W,2,09,01.0,21.3,M,-22.1,M,09.0,0302*6B
06/13/2019,15:42:11.520,$GPGGA,154210,4437.5831,N,12402.9431,W,2,09,01.0,21.3,M,-22.1,M,10.0,0302*6B
06/13/2019,15:42:12.730,$GPGGA,154211,4437.5831,N,12402.9431,W,2,09,01.0,21.3,M,-22.1,M,11.0,0302*6B
06/13/2019,15:42:13.203,$GPGGA,154212,4437.5831,N,12402.9432,W,2,09,01.0,21.3,M,-22.1,M,12.0,0302*68
06/13/2019,15:42:14.602,$GPGGA,154213,4437.5831,N,12402.9432,W,2,09,01.0,21.3,M,-22.1,M,13.0,0302*68
06/13/2019,15:42:15.357,$GPGGA,154214,4437.5831,N,12402.9432,W,2,09,01.0,21.3,M,-22.1,M,14.0,0302*68
06/13/2019,15:42:16.670,$GPGGA,154215,4437.5831,N,12402.9432,W,2,09,01.0,21.3,M,-22.1,M,12.0,0302*6F
06/13/2019,15:42:17.352,$GPGGA,154216,4437.5831,N,12402.9432,W,2,09,01.0,21.3,M,-22.1,M,13.0,0302*6D
06/13/2019,15:42:18.603,$GPGGA,154217,4437.5831,N,12402.9432,W,2,09,01.0,21.3,M,-22.1,M,14.0,0302*6B
06/13/2019,15:42:19.358,$GPGGA,154218,4437.5831,N,12402.9432,W,2,09,01.0,21.3,M,-22.1,M,12.0,0302*62
06/13/2019,15:42:20.672,$GPGGA,154219,4437.5831,N,12402.9432,W,2,09,01.0,21.3,M,-22.1,M,13.0,0302*62
06/13/2019,15:42:21.353,$GPGGA,154220,4437.5831,N,12402.9432,W,2,09,01.0,21.3,M,-22.1,M,14.0,0302*6F
06/13/2019,15:42:22.604,$GPGGA,154221,4437.5831,N,12402.9432,W,2,09,01.0,21.3,M,-22.1,M,12.0,0302*68
06/13/2019,15:42:23.619,$GPGGA,154222,4437.5830,N,12402.9432,W,2,09,01.0,21.2,M,-22.1,M,13.0,0302*6A
06/13/2019,15:42:24.712,$GPGGA,154223,4437.5830,N,12402.9432,W,2,09,01.0,21.3,M,-22.1,M,14.0,0302*6D
06/13/2019,15:42:25.304,$GPGGA,154224,4437.5830,N,12402.9432,W,2,09,01.0,21.3,M,-22.1,M,12.0,0302*6C
06/13/2019,15:42:26.602,$GPGGA,154225,4437.5830,N,12402.9432,W,2,09,01.0,21.3,M,-22.1,M,13.0,0302*6C
06/13/2019,15:42:27.358,$GPGGA,154226,4437.5830,N,12402.9432,W,2,09,01.0,21.3,M,-22.1,M,14.0,0302*68
06/13/2019,15:42:28.669,$GPGGA,154227,4437.5830,N,12402.9432,W,2,09,01.0,21.3,M,-22.1,M,12.0,0302*6F
06/13/2019,15:42:29.353,$GPGGA,154228,4437.5830,N,12402.9432,W,2,09,01.0,21.3,M,-22.1,M,13.0,0302*61
06/13/2019,15:42:30.605,$GPGGA,154229,4437.5830,N,12402.9432,W,2,09,01.0,21.3,M,-22.1,M,14.0,0302*67
06/13/2019,15:42:31.358,$GPGGA,154230,4437.5830,N,12402.9432,W,2,09,01.0,21.3,M,-22.1,M,12.0,0302*69
06/13/2019,15:42:32.675,$GPGGA,154231,4437.5830,N,12402.9432,W,2,09,01.0,21.3,M,-22.1,M,13.0,0302*69
06/13/2019,15:42:33.753,$GPGGA,154232,4437.5830,N,12402.9432,W,2,09,01.0,21.3,M,-22.1,M,14.0,0302*6D
06/13/2019,15:42:34.481,$GPGGA,154233,4437.5830,N,12402.9432,W,2,09,01.0,21.3,M,-22.1,M,12.0,0302*6A
06/13/2019,15:42:35.759,$GPGGA,154234,4437.5830,N,12402.9432,W,2,09,01.0,21.3,M,-22.1,M,13.0,0302*6C
06/13/2019,15:42:36.554,$GPGGA,154235,4437.5830,N,12402.9432,W,2,09,01.0,21.3,M,-22.1,M,14.0,0302*6A
06/13/2019,15:42:38.353,$GPGGA,154237,4437.5830,N,12402.9432,W,2,09,01.0,21.3,M,-22.1,M,13.0,0302*6F
06/13/2019,15:42:39.595,$GPGGA,154238,4437.5830,N,12402.9432,W,2,09,01.0,21.3,M,-22.1,M,14.0,0302*67
06/13/2019,15:42:40.359,$GPGGA,154239,4437.5830,N,12402.9432,W,2,09,01.0,21.3,M,-22.1,M,09.0,0302*6A
06/13/2019,15:42:41.668,$GPGGA,154240,4437.5830,N,12402.9432,W,2,09,01.0,21.3,M,-22.1,M,10.0,0302*6C
06/13/2019,15:42:42.354,$GPGGA,154241,4437.5830,N,12402.9432,W,2,09,01.0,21.3,M,-22.1,M,11.0,0302*6C
06/13/2019,15:42:43.596,$GPGGA,154242,4437.5830,N,12402.9432,W,2,09,01.0,21.3,M,-22.1,M,12.0,0302*6C
06/13/2019,15:42:44.871,$GPGGA,154243,4437.5830,N,12402.9432,W,2,08,01.0,21.3,M,-22.1,M,13.0,0302*6D
06/13/2019,15:42:45.659,$GPGGA,154244,4437.5830,N,12402.9432,W,2,08,01.1,21.3,M,-22.1,M,14.0,0302*6C
06/13/2019,15:42:47.253,$GPGGA,154246,4437.5831,N,12402.9432,W,2,08,01.1,21.3,M,-22.1,M,13.0,0302*68
06/13/2019,15:42:48.557,$GPGGA,154247,4437.5831,N,12402.9432,W,2,08,01.1,21.3,M,-22.1,M,14.0,0302*6E
06/13/2019,15:42:49.710,$GPGGA,154248,4437.5831,N,12402.9432,W,2,08,01.1,21.3,M,-22.1,M,12.0,0302*67
