ACQ Timestamp (Server Time in UTC), MessageID, Data Value For: GNSS-6452-$GPGGA
2023-07-30T07:09:31.1309817Z, 6cda8203-a249-e411-b0cc-f8bc1246af59, $GPGGA,070930.00,4106.8266,N,12422.8285,W,2,11,0.8,24.0,M,-25.7,M,,*6A
2023-07-30T07:09:31.4605411Z, 6cda8203-a249-e411-b0cc-f8bc1246af59, $GPGGA,070931.00,4106.8266,N,12422.8286,W,2,12,0.8,24.0,M,-25.7,M,,*6B
2023-07-30T07:09:32.4104175Z, 6cda8203-a249-e411-b0cc-f8bc1246af59, $GPGGA,070932.00,4106.8265,N,12422.8285,W,2,12,0.8,24.1,M,-25.7,M,,*69
2023-07-30T07:09:34.1409009Z, 6cda8203-a249-e411-b0cc-f8bc1246af59, $GPGGA,070933.00,4106.8264,N,12422.8284,W,2,12,0.8,24.1,M,-25.7,M,,*68
2023-07-30T07:09:34.4704526Z, 6cda8203-a249-e411-b0cc-f8bc1246af59, $GPGGA,070934.00,4106.8262,N,12422.8287,W,2,12,0.8,24.2,M,-25.7,M,,*69
2023-07-30T07:09:35.9711692Z, 6cda8203-a249-e411-b0cc-f8bc1246af59, $GPGGA,070935.00,4106.8261,N,12422.8290,W,2,12,0.8,24.2,M,-25.7,M,,*6D
2023-07-30T07:09:37.1406347Z, 6cda8203-a249-e411-b0cc-f8bc1246af59, $GPGGA,070936.00,4106.8260,N,12422.8291,W,2,12,0.8,24.4,M,-25.7,M,,*68
2023-07-30T07:09:37.4711740Z, 6cda8203-a249-e411-b0cc-f8bc1246af59, $GPGGA,070937.00,4106.8260,N,12422.8290,W,2,12,0.8,24.4,M,-25.7,M,,*68
2023-07-30T07:09:38.3812063Z, 6cda8203-a249-e411-b0cc-f8bc1246af59, $GPGGA,070938.00,4106.8259,N,12422.8290,W,2,12,0.8,24.6,M,-25.7,M,,*6F
2023-07-30T07:09:40.1415916Z, 6cda8203-a249-e411-b0cc-f8bc1246af59, $GPGGA,070939.00,4106.8258,N,12422.8292,W,2,12,0.8,24.6,M,-25.7,M,,*6D
2023-07-30T07:09:40.4711673Z, 6cda8203-a249-e411-b0cc-f8bc1246af59, $GPGGA,070940.00,4106.8256,N,12422.8293,W,2,12,0.8,24.5,M,-25.7,M,,*6F
2023-07-30T07:09:42.0115023Z, 6cda8203-a249-e411-b0cc-f8bc1246af59, $GPGGA,070941.00,4106.8255,N,12422.8294,W,2,12,0.8,24.5,M,-25.7,M,,*6A
2023-07-30T07:09:43.1416015Z, 6cda8203-a249-e411-b0cc-f8bc1246af59, $GPGGA,070942.00,4106.8253,N,12422.8294,W,2,12,0.8,24.5,M,-25.7,M,,*6F
2023-07-30T07:09:43.4711611Z, 6cda8203-a249-e411-b0cc-f8bc1246af59, $GPGGA,070943.00,4106.8251,N,12422.8294,W,2,12,0.8,24.5,M,-25.7,M,,*6C
2023-07-30T07:09:44.3812382Z, 6cda8203-a249-e411-b0cc-f8bc1246af59, $GPGGA,070944.00,4106.8248,N,12422.8295,W,2,12,0.8,24.4,M,-25.7,M,,*63
2023-07-30T07:09:45.7364275Z, 6cda8203-a249-e411-b0cc-f8bc1246af59, $GPGGA,070945.00,4106.8246,N,12422.8297,W,2,12,0.8,24.4,M,-25.7,M,,*6E
2023-07-30T07:09:47.0826670Z, 6cda8203-a249-e411-b0cc-f8bc1246af59, $GPGGA,070946.00,4106.8245,N,12422.8296,W,2,12,0.8,24.4,M,-25.7,M,,*6F
2023-07-30T07:09:47.4132286Z, 6cda8203-a249-e411-b0cc-f8bc1246af59, $GPGGA,070947.00,4106.8244,N,12422.8294,W,2,12,0.8,24.3,M,-25.7,M,,*6A
2023-07-30T07:09:48.9227953Z, 6cda8203-a249-e411-b0cc-f8bc1246af59, $GPGGA,070948.00,4106.8243,N,12422.8293,W,2,12,0.8,24.3,M,-25.7,M,,*65
2023-07-30T07:09:50.0829312Z, 6cda8203-a249-e411-b0cc-f8bc1246af59, $GPGGA,070949.00,4106.8241,N,12422.8295,W,2,12,0.8,24.3,M,-25.7,M,,*60
2023-07-30T07:09:50.4134886Z, 6cda8203-a249-e411-b0cc-f8bc1246af59, $GPGGA,070950.00,4106.8240,N,12422.8297,W,2,12,0.8,24.3,M,-25.7,M,,*6B
2023-07-30T07:09:51.7327661Z, 6cda8203-a249-e411-b0cc-f8bc1246af59, $GPGGA,070951.00,4106.8239,N,12422.8297,W,2,12,0.8,24.3,M,-25.7,M,,*64
2023-07-30T07:09:52.3331298Z, 6cda8203-a249-e411-b0cc-f8bc1246af59, $GPGGA,070952.00,4106.8239,N,12422.8295,W,2,12,0.8,24.3,M,-25.7,M,,*65
2023-07-30T07:09:53.4035109Z, 6cda8203-a249-e411-b0cc-f8bc1246af59, $GPGGA,070953.00,4106.8237,N,12422.8295,W,2,12,0.8,24.4,M,-25.7,M,,*6D
2023-07-30T07:09:54.9936230Z, 6cda8203-a249-e411-b0cc-f8bc1246af59, $GPGGA,070954.00,4106.8235,N,12422.8296,W,2,12,0.8,24.3,M,-25.7,M,,*6C
2023-07-30T07:09:56.0831402Z, 6cda8203-a249-e411-b0cc-f8bc1246af59, $GPGGA,070955.00,4106.8233,N,12422.8298,W,2,12,0.8,24.3,M,-25.7,M,,*65
2023-07-30T07:09:56.4137045Z, 6cda8203-a249-e411-b0cc-f8bc1246af59, $GPGGA,070956.00,4106.8231,N,12422.8299,W,2,12,0.8,24.3,M,-25.7,M,,*65
2023-07-30T07:09:57.2531624Z, 6cda8203-a249-e411-b0cc-f8bc1246af59, $GPGGA,070957.00,4106.8230,N,12422.8300,W,2,12,0.8,24.3,M,-25.7,M,,*64
2023-07-30T07:09:58.7836918Z, 6cda8203-a249-e411-b0cc-f8bc1246af59, $GPGGA,070958.00,4106.8229,N,12422.8299,W,2,12,0.8,24.3,M,-25.7,M,,*62
2023-07-30T07:09:59.4736642Z, 6cda8203-a249-e411-b0cc-f8bc1246af59, $GPGGA,070959.00,4106.8228,N,12422.8299,W,2,12,0.8,24.3,M,-25.7,M,,*62
2023-07-30T07:10:00.2533144Z, 6cda8203-a249-e411-b0cc-f8bc1246af59, $GPGGA,071000.00,4106.8227,N,12422.8300,W,2,12,0.8,24.3,M,-25.7,M,,*68
2023-07-30T07:10:01.9141124Z, 6cda8203-a249-e411-b0cc-f8bc1246af59, $GPGGA,071001.00,4106.8226,N,12422.8301,W,2,12,0.8,24.3,M,-25.7,M,,*69
2023-07-30T07:10:02.3743122Z, 6cda8203-a249-e411-b0cc-f8bc1246af59, $GPGGA,071002.00,4106.8226,N,12422.8303,W,2,12,0.8,24.3,M,-25.7,M,,*68
2023-07-30T07:10:03.4041134Z, 6cda8203-a249-e411-b0cc-f8bc1246af59, $GPGGA,071003.00,4106.8225,N,12422.8303,W,2,12,0.8,24.3,M,-25.7,M,,*6A
2023-07-30T07:10:04.7343530Z, 6cda8203-a249-e411-b0cc-f8bc1246af59, $GPGGA,071004.00,4106.8224,N,12422.8303,W,2,12,0.8,24.3,M,-25.7,M,,*6C
2023-07-30T07:10:06.0844999Z, 6cda8203-a249-e411-b0cc-f8bc1246af59, $GPGGA,071005.00,4106.8222,N,12422.8302,W,2,12,0.8,24.3,M,-25.7,M,,*6A
2023-07-30T07:10:06.4140544Z, 6cda8203-a249-e411-b0cc-f8bc1246af59, $GPGGA,071006.00,4106.8219,N,12422.8302,W,2,12,0.8,24.4,M,-25.7,M,,*66
2023-07-30T07:10:07.7345233Z, 6cda8203-a249-e411-b0cc-f8bc1246af59, $GPGGA,071007.00,4106.8218,N,12422.8303,W,2,12,0.8,24.4,M,-25.7,M,,*67
2023-07-30T07:10:08.5938656Z, 6cda8203-a249-e411-b0cc-f8bc1246af59, $GPGGA,071008.00,4106.8216,N,12422.8304,W,2,12,0.8,24.4,M,-25.7,M,,*61
2023-07-30T07:10:09.3147556Z, 6cda8203-a249-e411-b0cc-f8bc1246af59, $GPGGA,071009.00,4106.8216,N,12422.8305,W,2,12,0.8,24.4,M,-25.7,M,,*61
2023-07-30T07:10:10.7445349Z, 6cda8203-a249-e411-b0cc-f8bc1246af59, $GPGGA,071010.00,4106.8215,N,12422.8304,W,2,12,0.8,24.5,M,-25.7,M,,*6A
2023-07-30T07:10:11.3340120Z, 6cda8203-a249-e411-b0cc-f8bc1246af59, $GPGGA,071011.00,4106.8213,N,12422.8304,W,2,12,0.8,24.5,M,-25.7,M,,*6D
2023-07-30T07:10:12.3246841Z, 6cda8203-a249-e411-b0cc-f8bc1246af59, $GPGGA,071012.00,4106.8212,N,12422.8303,W,2,12,0.8,24.5,M,-25.7,M,,*68
2023-07-30T07:10:13.7445419Z, 6cda8203-a249-e411-b0cc-f8bc1246af59, $GPGGA,071013.00,4106.8211,N,12422.8303,W,2,12,0.8,24.6,M,-25.7,M,,*69
2023-07-30T07:10:14.3449163Z, 6cda8203-a249-e411-b0cc-f8bc1246af59, $GPGGA,071014.00,4106.8210,N,12422.8305,W,2,12,0.8,24.6,M,-25.7,M,,*69
2023-07-30T07:10:15.4143079Z, 6cda8203-a249-e411-b0cc-f8bc1246af59, $GPGGA,071015.00,4106.8209,N,12422.8306,W,2,12,0.8,24.6,M,-25.7,M,,*63
2023-07-30T07:10:16.7445332Z, 6cda8203-a249-e411-b0cc-f8bc1246af59, $GPGGA,071016.00,4106.8208,N,12422.8306,W,2,12,0.8,24.7,M,-25.7,M,,*60
2023-07-30T07:10:18.0847277Z, 6cda8203-a249-e411-b0cc-f8bc1246af59, $GPGGA,071017.00,4106.8208,N,12422.8307,W,2,12,0.8,24.7,M,-25.7,M,,*60
2023-07-30T07:10:18.4152982Z, 6cda8203-a249-e411-b0cc-f8bc1246af59, $GPGGA,071018.00,4106.8206,N,12422.8306,W,2,12,0.8,24.8,M,-25.7,M,,*6F
2023-07-30T07:10:19.7455142Z, 6cda8203-a249-e411-b0cc-f8bc1246af59, $GPGGA,071019.00,4106.8204,N,12422.8306,W,2,12,0.8,24.9,M,-25.7,M,,*6D
2023-07-30T07:10:20.3449054Z, 6cda8203-a249-e411-b0cc-f8bc1246af59, $GPGGA,071020.00,4106.8201,N,12422.8306,W,2,12,0.8,24.9,M,-25.7,M,,*62
2023-07-30T07:10:21.8756860Z, 6cda8203-a249-e411-b0cc-f8bc1246af59, $GPGGA,071021.00,4106.8199,N,12422.8308,W,2,12,0.8,25.0,M,-25.7,M,,*67
2023-07-30T07:10:22.7449332Z, 6cda8203-a249-e411-b0cc-f8bc1246af59, $GPGGA,071022.00,4106.8197,N,12422.8312,W,2,12,0.8,25.1,M,-25.7,M,,*60
2023-07-30T07:10:24.0851257Z, 6cda8203-a249-e411-b0cc-f8bc1246af59, $GPGGA,071023.00,4106.8198,N,12422.8314,W,2,12,0.8,25.1,M,-25.7,M,,*68
2023-07-30T07:10:24.4156872Z, 6cda8203-a249-e411-b0cc-f8bc1246af59, $GPGGA,071024.00,4106.8198,N,12422.8313,W,2,12,0.8,25.1,M,-25.7,M,,*68
2023-07-30T07:10:25.7459103Z, 6cda8203-a249-e411-b0cc-f8bc1246af59, $GPGGA,071025.00,4106.8198,N,12422.8312,W,2,11,0.8,25.0,M,-25.7,M,,*6A
2023-07-30T07:10:26.3453037Z, 6cda8203-a249-e411-b0cc-f8bc1246af59, $GPGGA,071026.00,4106.8197,N,12422.8310,W,2,10,0.8,25.0,M,-25.7,M,,*65
2023-07-30T07:10:27.7452338Z, 6cda8203-a249-e411-b0cc-f8bc1246af59, $GPGGA,071027.00,4106.8196,N,12422.8311,W,2,10,0.8,25.2,M,-25.7,M,,*66
2023-07-30T07:10:28.3456341Z, 6cda8203-a249-e411-b0cc-f8bc1246af59, $GPGGA,071028.00,4106.8194,N,12422.8313,W,2,10,0.8,25.2,M,-25.7,M,,*69
2023-07-30T07:10:29.6953442Z, 6cda8203-a249-e411-b0cc-f8bc1246af59, $GPGGA,071029.00,4106.8191,N,12422.8315,W,2,12,0.8,25.2,M,-25.7,M,,*69
2023-07-30T07:10:30.2957314Z, 6cda8203-a249-e411-b0cc-f8bc1246af59, $GPGGA,071030.00,4106.8190,N,12422.8317,W,2,12,0.8,25.1,M,-25.7,M,,*61
2023-07-30T07:10:31.7454495Z, 6cda8203-a249-e411-b0cc-f8bc1246af59, $GPGGA,071031.00,4106.8191,N,12422.8318,W,2,12,0.8,25.1,M,-25.7,M,,*6E
2023-07-30T07:10:32.3856764Z, 6cda8203-a249-e411-b0cc-f8bc1246af59, $GPGGA,071032.00,4106.8191,N,12422.8316,W,2,12,0.8,25.1,M,-25.7,M,,*63
2023-07-30T07:10:33.4161986Z, 6cda8203-a249-e411-b0cc-f8bc1246af59, $GPGGA,071033.00,4106.8189,N,12422.8315,W,2,12,0.8,25.2,M,-25.7,M,,*6B
2023-07-30T07:10:34.7563678Z, 6cda8203-a249-e411-b0cc-f8bc1246af59, $GPGGA,071034.00,4106.8186,N,12422.8316,W,2,12,0.8,25.2,M,-25.7,M,,*60
2023-07-30T07:10:35.8158010Z, 6cda8203-a249-e411-b0cc-f8bc1246af59, $GPGGA,071035.00,4106.8183,N,12422.8319,W,2,12,0.8,25.2,M,-25.7,M,,*6B
2023-07-30T07:10:36.3365389Z, 6cda8203-a249-e411-b0cc-f8bc1246af59, $GPGGA,071036.00,4106.8183,N,12422.8321,W,2,12,0.8,25.2,M,-25.7,M,,*63
2023-07-30T07:10:37.7563528Z, 6cda8203-a249-e411-b0cc-f8bc1246af59, $GPGGA,071037.00,4106.8184,N,12422.8322,W,2,12,0.8,25.3,M,-25.7,M,,*67
2023-07-30T07:10:39.0867170Z, 6cda8203-a249-e411-b0cc-f8bc1246af59, $GPGGA,071038.00,4106.8183,N,12422.8321,W,2,12,0.8,25.4,M,-25.7,M,,*6B
2023-07-30T07:10:39.4162801Z, 6cda8203-a249-e411-b0cc-f8bc1246af59, $GPGGA,071039.00,4106.8182,N,12422.8322,W,2,11,0.8,25.5,M,-25.7,M,,*6A
2023-07-30T07:10:41.0870206Z, 6cda8203-a249-e411-b0cc-f8bc1246af59, $GPGGA,071040.00,4106.8180,N,12422.8323,W,2,11,0.8,25.5,M,-25.7,M,,*67
2023-07-30T07:10:41.4166195Z, 6cda8203-a249-e411-b0cc-f8bc1246af59, $GPGGA,071041.00,4106.8178,N,12422.8325,W,2,12,0.8,25.5,M,-25.7,M,,*64
2023-07-30T07:10:43.0863638Z, 6cda8203-a249-e411-b0cc-f8bc1246af59, $GPGGA,071042.00,4106.8177,N,12422.8327,W,2,12,0.8,25.5,M,-25.7,M,,*6A
2023-07-30T07:10:43.4170179Z, 6cda8203-a249-e411-b0cc-f8bc1246af59, $GPGGA,071043.00,4106.8176,N,12422.8326,W,2,12,0.8,25.6,M,-25.7,M,,*68
2023-07-30T07:10:45.0867901Z, 6cda8203-a249-e411-b0cc-f8bc1246af59, $GPGGA,071044.00,4106.8176,N,12422.8325,W,2,12,0.8,25.6,M,-25.7,M,,*6C
2023-07-30T07:10:45.4173178Z, 6cda8203-a249-e411-b0cc-f8bc1246af59, $GPGGA,071045.00,4106.8174,N,12422.8324,W,2,12,0.8,25.5,M,-25.7,M,,*6D
2023-07-30T07:10:47.0872880Z, 6cda8203-a249-e411-b0cc-f8bc1246af59, $GPGGA,071046.00,4106.8172,N,12422.8327,W,2,12,0.8,25.5,M,-25.7,M,,*6B
2023-07-30T07:10:47.4168386Z, 6cda8203-a249-e411-b0cc-f8bc1246af59, $GPGGA,071047.00,4106.8170,N,12422.8329,W,2,12,0.8,25.6,M,-25.7,M,,*65
2023-07-30T07:10:49.0870704Z, 6cda8203-a249-e411-b0cc-f8bc1246af59, $GPGGA,071048.00,4106.8169,N,12422.8330,W,2,12,0.8,25.5,M,-25.7,M,,*69
2023-07-30T07:10:49.4176388Z, 6cda8203-a249-e411-b0cc-f8bc1246af59, $GPGGA,071049.00,4106.8170,N,12422.8330,W,2,12,0.8,25.5,M,-25.7,M,,*60
2023-07-30T07:10:51.0874542Z, 6cda8203-a249-e411-b0cc-f8bc1246af59, $GPGGA,071050.00,4106.8169,N,12422.8329,W,2,12,0.8,25.6,M,-25.7,M,,*6B
2023-07-30T07:10:51.4170122Z, 6cda8203-a249-e411-b0cc-f8bc1246af59, $GPGGA,071051.00,4106.8169,N,12422.8330,W,2,11,0.8,25.8,M,-25.7,M,,*6F
2023-07-30T07:10:53.2669966Z, 6cda8203-a249-e411-b0cc-f8bc1246af59, $GPGGA,071052.00,4106.8167,N,12422.8331,W,2,11,0.8,25.7,M,-25.7,M,,*6C
2023-07-30T07:10:53.6672218Z, 6cda8203-a249-e411-b0cc-f8bc1246af59, $GPGGA,071053.00,4106.8165,N,12422.8334,W,2,11,0.8,25.7,M,-25.7,M,,*6A
2023-07-30T07:10:55.0872196Z, 6cda8203-a249-e411-b0cc-f8bc1246af59, $GPGGA,071054.00,4106.8162,N,12422.8335,W,2,11,0.8,25.7,M,-25.7,M,,*6B
2023-07-30T07:10:55.4177730Z, 6cda8203-a249-e411-b0cc-f8bc1246af59, $GPGGA,071055.00,4106.8161,N,12422.8336,W,2,11,0.8,25.6,M,-25.7,M,,*6B
2023-07-30T07:10:57.0877724Z, 6cda8203-a249-e411-b0cc-f8bc1246af59, $GPGGA,071056.00,4106.8161,N,12422.8335,W,2,11,0.8,25.7,M,-25.7,M,,*6A
2023-07-30T07:10:57.4173302Z, 6cda8203-a249-e411-b0cc-f8bc1246af59, $GPGGA,071057.00,4106.8160,N,12422.8335,W,2,11,0.8,25.9,M,-25.7,M,,*64
2023-07-30T07:10:58.2576774Z, 6cda8203-a249-e411-b0cc-f8bc1246af59, $GPGGA,071058.00,4106.8158,N,12422.8337,W,2,11,0.8,26.0,M,-25.7,M,,*68
2023-07-30T07:11:00.0879596Z, 6cda8203-a249-e411-b0cc-f8bc1246af59, $GPGGA,071059.00,4106.8155,N,12422.8338,W,2,11,0.8,26.0,M,-25.7,M,,*6B
2023-07-30T07:11:00.4175252Z, 6cda8203-a249-e411-b0cc-f8bc1246af59, $GPGGA,071100.00,4106.8154,N,12422.8339,W,2,12,0.8,26.0,M,-25.7,M,,*65
2023-07-30T07:11:01.2677915Z, 6cda8203-a249-e411-b0cc-f8bc1246af59, $GPGGA,071101.00,4106.8154,N,12422.8338,W,2,12,0.8,26.0,M,-25.7,M,,*65
2023-07-30T07:11:02.2684788Z, 6cda8203-a249-e411-b0cc-f8bc1246af59, $GPGGA,071102.00,4106.8154,N,12422.8337,W,2,12,0.8,26.0,M,-25.7,M,,*69
2023-07-30T07:11:04.0877217Z, 6cda8203-a249-e411-b0cc-f8bc1246af59, $GPGGA,071103.00,4106.8151,N,12422.8337,W,2,12,0.8,25.9,M,-25.7,M,,*67
2023-07-30T07:11:04.4182776Z, 6cda8203-a249-e411-b0cc-f8bc1246af59, $GPGGA,071104.00,4106.8149,N,12422.8339,W,2,12,0.8,25.9,M,-25.7,M,,*67
2023-07-30T07:11:06.0881413Z, 6cda8203-a249-e411-b0cc-f8bc1246af59, $GPGGA,071105.00,4106.8149,N,12422.8339,W,2,12,0.8,25.9,M,-25.7,M,,*66
2023-07-30T07:11:06.4187180Z, 6cda8203-a249-e411-b0cc-f8bc1246af59, $GPGGA,071106.00,4106.8150,N,12422.8338,W,2,12,0.8,25.9,M,-25.7,M,,*6C
2023-07-30T07:11:08.0889569Z, 6cda8203-a249-e411-b0cc-f8bc1246af59, $GPGGA,071107.00,4106.8149,N,12422.8336,W,2,12,0.8,25.8,M,-25.7,M,,*6A
2023-07-30T07:11:08.4185628Z, 6cda8203-a249-e411-b0cc-f8bc1246af59, $GPGGA,071108.00,4106.8147,N,12422.8335,W,2,12,0.8,25.8,M,-25.7,M,,*68
2023-07-30T07:11:10.0886199Z, 6cda8203-a249-e411-b0cc-f8bc1246af59, $GPGGA,071109.00,4106.8145,N,12422.8337,W,2,12,0.8,25.8,M,-25.7,M,,*69
2023-07-30T07:11:10.4183886Z, 6cda8203-a249-e411-b0cc-f8bc1246af59, $GPGGA,071110.00,4106.8143,N,12422.8338,W,2,12,0.8,25.9,M,-25.7,M,,*69
2023-07-30T07:11:11.6789087Z, 6cda8203-a249-e411-b0cc-f8bc1246af59, $GPGGA,071111.00,4106.8142,N,12422.8340,W,2,12,0.8,25.8,M,-25.7,M,,*67
2023-07-30T07:11:13.0888305Z, 6cda8203-a249-e411-b0cc-f8bc1246af59, $GPGGA,071112.00,4106.8143,N,12422.8338,W,2,12,0.8,25.8,M,-25.7,M,,*6A
2023-07-30T07:11:13.4186580Z, 6cda8203-a249-e411-b0cc-f8bc1246af59, $GPGGA,071113.00,4106.8143,N,12422.8336,W,2,11,0.8,25.8,M,-25.7,M,,*66
2023-07-30T07:11:14.2692819Z, 6cda8203-a249-e411-b0cc-f8bc1246af59, $GPGGA,071114.00,4106.8142,N,12422.8335,W,2,11,0.8,25.7,M,-25.7,M,,*6C
2023-07-30T07:11:16.0893972Z, 6cda8203-a249-e411-b0cc-f8bc1246af59, $GPGGA,071115.00,4106.8140,N,12422.8337,W,2,11,0.8,25.7,M,-25.7,M,,*6D
2023-07-30T07:11:16.4189563Z, 6cda8203-a249-e411-b0cc-f8bc1246af59, $GPGGA,071116.00,4106.8138,N,12422.8338,W,2,11,0.8,25.8,M,-25.7,M,,*61
2023-07-30T07:11:17.3690199Z, 6cda8203-a249-e411-b0cc-f8bc1246af59, $GPGGA,071117.00,4106.8137,N,12422.8339,W,2,12,0.8,26.0,M,-25.7,M,,*66
2023-07-30T07:11:19.0895642Z, 6cda8203-a249-e411-b0cc-f8bc1246af59, $GPGGA,071118.00,4106.8136,N,12422.8338,W,2,12,0.8,26.1,M,-25.7,M,,*68
2023-07-30T07:11:19.4192318Z, 6cda8203-a249-e411-b0cc-f8bc1246af59, $GPGGA,071119.00,4106.8134,N,12422.8338,W,2,12,0.8,26.2,M,-25.7,M,,*68
2023-07-30T07:11:20.3690887Z, 6cda8203-a249-e411-b0cc-f8bc1246af59, $GPGGA,071120.00,4106.8134,N,12422.8339,W,2,12,0.8,26.1,M,-25.7,M,,*60
2023-07-30T07:11:22.0896504Z, 6cda8203-a249-e411-b0cc-f8bc1246af59, $GPGGA,071121.00,4106.8133,N,12422.8341,W,2,12,0.8,26.2,M,-25.7,M,,*6A
2023-07-30T07:11:22.4192122Z, 6cda8203-a249-e411-b0cc-f8bc1246af59, $GPGGA,071122.00,4106.8132,N,12422.8340,W,2,12,0.8,26.2,M,-25.7,M,,*69
2023-07-30T07:11:23.6299377Z, 6cda8203-a249-e411-b0cc-f8bc1246af59, $GPGGA,071123.00,4106.8131,N,12422.8338,W,2,12,0.8,26.2,M,-25.7,M,,*64
2023-07-30T07:11:25.0896459Z, 6cda8203-a249-e411-b0cc-f8bc1246af59, $GPGGA,071124.00,4106.8129,N,12422.8339,W,2,12,0.8,26.2,M,-25.7,M,,*6B
2023-07-30T07:11:25.4201892Z, 6cda8203-a249-e411-b0cc-f8bc1246af59, $GPGGA,071125.00,4106.8128,N,12422.8341,W,2,12,0.8,26.2,M,-25.7,M,,*64
2023-07-30T07:11:26.3700777Z, 6cda8203-a249-e411-b0cc-f8bc1246af59, $GPGGA,071126.00,4106.8128,N,12422.8342,W,2,12,0.8,26.2,M,-25.7,M,,*64
2023-07-30T07:11:28.0896285Z, 6cda8203-a249-e411-b0cc-f8bc1246af59, $GPGGA,071127.00,4106.8129,N,12422.8342,W,2,12,0.8,26.2,M,-25.7,M,,*64
2023-07-30T07:11:28.4201764Z, 6cda8203-a249-e411-b0cc-f8bc1246af59, $GPGGA,071128.00,4106.8128,N,12422.8342,W,2,12,0.8,26.2,M,-25.7,M,,*6A
2023-07-30T07:11:29.7304680Z, 6cda8203-a249-e411-b0cc-f8bc1246af59, $GPGGA,071129.00,4106.8127,N,12422.8340,W,2,12,0.8,26.1,M,-25.7,M,,*65
2023-07-30T07:11:31.0906003Z, 6cda8203-a249-e411-b0cc-f8bc1246af59, $GPGGA,071130.00,4106.8125,N,12422.8341,W,2,12,0.8,26.1,M,-25.7,M,,*6E
2023-07-30T07:11:31.4201649Z, 6cda8203-a249-e411-b0cc-f8bc1246af59, $GPGGA,071131.00,4106.8123,N,12422.8342,W,2,12,0.8,26.0,M,-25.7,M,,*6B
2023-07-30T07:11:32.4098738Z, 6cda8203-a249-e411-b0cc-f8bc1246af59, $GPGGA,071132.00,4106.8122,N,12422.8343,W,2,12,0.8,26.0,M,-25.7,M,,*68
2023-07-30T07:11:34.0905938Z, 6cda8203-a249-e411-b0cc-f8bc1246af59, $GPGGA,071133.00,4106.8122,N,12422.8344,W,2,12,0.8,26.0,M,-25.7,M,,*6E
2023-07-30T07:11:34.4201579Z, 6cda8203-a249-e411-b0cc-f8bc1246af59, $GPGGA,071134.00,4106.8121,N,12422.8345,W,2,12,0.8,26.1,M,-25.7,M,,*6A
2023-07-30T07:11:35.7802640Z, 6cda8203-a249-e411-b0cc-f8bc1246af59, $GPGGA,071135.00,4106.8121,N,12422.8345,W,2,12,0.8,26.1,M,-25.7,M,,*6B
2023-07-30T07:11:37.0905837Z, 6cda8203-a249-e411-b0cc-f8bc1246af59, $GPGGA,071136.00,4106.8120,N,12422.8346,W,2,12,0.8,26.1,M,-25.7,M,,*6A
2023-07-30T07:11:37.4201427Z, 6cda8203-a249-e411-b0cc-f8bc1246af59, $GPGGA,071137.00,4106.8119,N,12422.8348,W,2,12,0.8,26.1,M,-25.7,M,,*6F
2023-07-30T07:11:38.3710181Z, 6cda8203-a249-e411-b0cc-f8bc1246af59, $GPGGA,071138.00,4106.8119,N,12422.8349,W,2,12,0.8,26.1,M,-25.7,M,,*61
2023-07-30T07:11:40.0905775Z, 6cda8203-a249-e411-b0cc-f8bc1246af59, $GPGGA,071139.00,4106.8119,N,12422.8349,W,2,12,0.8,26.0,M,-25.7,M,,*61
2023-07-30T07:11:40.4211406Z, 6cda8203-a249-e411-b0cc-f8bc1246af59, $GPGGA,071140.00,4106.8119,N,12422.8349,W,2,12,0.8,26.0,M,-25.7,M,,*6F
2023-07-30T07:11:41.8211328Z, 6cda8203-a249-e411-b0cc-f8bc1246af59, $GPGGA,071141.00,4106.8118,N,12422.8350,W,2,12,0.8,26.0,M,-25.7,M,,*67
2023-07-30T07:11:43.0906620Z, 6cda8203-a249-e411-b0cc-f8bc1246af59, $GPGGA,071142.00,4106.8117,N,12422.8351,W,2,12,0.8,26.0,M,-25.7,M,,*6A
2023-07-30T07:11:43.4212259Z, 6cda8203-a249-e411-b0cc-f8bc1246af59, $GPGGA,071143.00,4106.8116,N,12422.8352,W,2,12,0.8,25.9,M,-25.7,M,,*63
2023-07-30T07:11:44.2814824Z, 6cda8203-a249-e411-b0cc-f8bc1246af59, $GPGGA,071144.00,4106.8115,N,12422.8353,W,2,12,0.8,25.8,M,-25.7,M,,*67
2023-07-30T07:11:45.2811440Z, 6cda8203-a249-e411-b0cc-f8bc1246af59, $GPGGA,071145.00,4106.8114,N,12422.8354,W,2,12,0.8,25.8,M,-25.7,M,,*60
2023-07-30T07:11:47.0913076Z, 6cda8203-a249-e411-b0cc-f8bc1246af59, $GPGGA,071146.00,4106.8113,N,12422.8354,W,2,12,0.8,25.8,M,-25.7,M,,*64
2023-07-30T07:11:48.2811565Z, 6cda8203-a249-e411-b0cc-f8bc1246af59, $GPGGA,071148.00,4106.8112,N,12422.8354,W,2,12,0.8,25.8,M,-25.7,M,,*6B
2023-07-30T07:11:50.0912916Z, 6cda8203-a249-e411-b0cc-f8bc1246af59, $GPGGA,071149.00,4106.8112,N,12422.8354,W,2,12,0.8,25.8,M,-25.7,M,,*6A
2023-07-30T07:11:50.4218583Z, 6cda8203-a249-e411-b0cc-f8bc1246af59, $GPGGA,071150.00,4106.8111,N,12422.8354,W,2,12,0.8,25.7,M,-25.7,M,,*6E
2023-07-30T07:11:51.2910637Z, 6cda8203-a249-e411-b0cc-f8bc1246af59, $GPGGA,071151.00,4106.8110,N,12422.8354,W,2,12,0.8,25.6,M,-25.7,M,,*6F
2023-07-30T07:11:53.0913350Z, 6cda8203-a249-e411-b0cc-f8bc1246af59, $GPGGA,071152.00,4106.8109,N,12422.8355,W,2,12,0.8,25.6,M,-25.7,M,,*65
2023-07-30T07:11:53.8212652Z, 6cda8203-a249-e411-b0cc-f8bc1246af59, $GPGGA,071153.00,4106.8108,N,12422.8356,W,2,12,0.8,25.7,M,-25.7,M,,*67
2023-07-30T07:11:54.2921955Z, 6cda8203-a249-e411-b0cc-f8bc1246af59, $GPGGA,071154.00,4106.8107,N,12422.8357,W,2,12,0.8,25.6,M,-25.7,M,,*6F
2023-07-30T07:11:55.4114847Z, 6cda8203-a249-e411-b0cc-f8bc1246af59, $GPGGA,071155.00,4106.8106,N,12422.8357,W,2,12,0.8,25.6,M,-25.7,M,,*6F
2023-07-30T07:11:56.2916806Z, 6cda8203-a249-e411-b0cc-f8bc1246af59, $GPGGA,071156.00,4106.8105,N,12422.8356,W,2,12,0.8,25.6,M,-25.7,M,,*6E
2023-07-30T07:11:58.0918860Z, 6cda8203-a249-e411-b0cc-f8bc1246af59, $GPGGA,071157.00,4106.8104,N,12422.8356,W,2,12,0.8,25.6,M,-25.7,M,,*6E
2023-07-30T07:11:58.4216895Z, 6cda8203-a249-e411-b0cc-f8bc1246af59, $GPGGA,071158.00,4106.8103,N,12422.8358,W,2,12,0.8,25.5,M,-25.7,M,,*6B
2023-07-30T07:11:59.9122053Z, 6cda8203-a249-e411-b0cc-f8bc1246af59, $GPGGA,071159.00,4106.8101,N,12422.8359,W,2,12,0.8,25.5,M,-25.7,M,,*69
2023-07-30T07:12:01.0920978Z, 6cda8203-a249-e411-b0cc-f8bc1246af59, $GPGGA,071200.00,4106.8099,N,12422.8360,W,2,12,0.8,25.5,M,-25.7,M,,*6C
2023-07-30T07:12:01.4226593Z, 6cda8203-a249-e411-b0cc-f8bc1246af59, $GPGGA,071201.00,4106.8098,N,12422.8360,W,2,12,0.8,25.5,M,-25.7,M,,*6C
2023-07-30T07:12:02.7419244Z, 6cda8203-a249-e411-b0cc-f8bc1246af59, $GPGGA,071202.00,4106.8099,N,12422.8358,W,2,12,0.8,25.5,M,-25.7,M,,*65
2023-07-30T07:12:03.3462526Z, 6cda8203-a249-e411-b0cc-f8bc1246af59, $GPGGA,071203.00,4106.8098,N,12422.8358,W,2,11,0.8,25.6,M,-25.7,M,,*65
2023-07-30T07:12:04.4127637Z, 6cda8203-a249-e411-b0cc-f8bc1246af59, $GPGGA,071204.00,4106.8096,N,12422.8359,W,2,11,0.8,25.6,M,-25.7,M,,*6D
2023-07-30T07:12:06.0626246Z, 6cda8203-a249-e411-b0cc-f8bc1246af59, $GPGGA,071205.00,4106.8093,N,12422.8361,W,2,12,0.8,25.6,M,-25.7,M,,*61
2023-07-30T07:12:07.0921546Z, 6cda8203-a249-e411-b0cc-f8bc1246af59, $GPGGA,071206.00,4106.8092,N,12422.8363,W,2,12,0.8,25.6,M,-25.7,M,,*61
2023-07-30T07:12:07.4227105Z, 6cda8203-a249-e411-b0cc-f8bc1246af59, $GPGGA,071207.00,4106.8091,N,12422.8363,W,2,12,0.8,25.6,M,-25.7,M,,*63
2023-07-30T07:12:08.2929912Z, 6cda8203-a249-e411-b0cc-f8bc1246af59, $GPGGA,071208.00,4106.8090,N,12422.8362,W,2,11,0.8,25.6,M,-25.7,M,,*6F
2023-07-30T07:12:09.2925964Z, 6cda8203-a249-e411-b0cc-f8bc1246af59, $GPGGA,071209.00,4106.8089,N,12422.8361,W,2,10,0.8,25.5,M,-25.7,M,,*67
2023-07-30T07:12:10.4127500Z, 6cda8203-a249-e411-b0cc-f8bc1246af59, $GPGGA,071210.00,4106.8087,N,12422.8362,W,2,10,0.8,25.5,M,-25.7,M,,*62
2023-07-30T07:12:11.2929191Z, 6cda8203-a249-e411-b0cc-f8bc1246af59, $GPGGA,071211.00,4106.8086,N,12422.8364,W,2,10,0.8,25.5,M,-25.7,M,,*64
2023-07-30T07:12:12.9129063Z, 6cda8203-a249-e411-b0cc-f8bc1246af59, $GPGGA,071212.00,4106.8085,N,12422.8365,W,2,11,0.8,25.5,M,-25.7,M,,*64
2023-07-30T07:12:13.2932579Z, 6cda8203-a249-e411-b0cc-f8bc1246af59, $GPGGA,071213.00,4106.8086,N,12422.8364,W,2,11,0.8,25.6,M,-25.7,M,,*64
2023-07-30T07:12:14.3735664Z, 6cda8203-a249-e411-b0cc-f8bc1246af59, $GPGGA,071214.00,4106.8086,N,12422.8363,W,2,11,0.8,25.6,M,-25.7,M,,*64
2023-07-30T07:12:15.2935680Z, 6cda8203-a249-e411-b0cc-f8bc1246af59, $GPGGA,071215.00,4106.8085,N,12422.8363,W,2,11,0.8,25.5,M,-25.7,M,,*65
2023-07-30T07:12:17.0938085Z, 6cda8203-a249-e411-b0cc-f8bc1246af59, $GPGGA,071216.00,4106.8084,N,12422.8365,W,2,12,0.8,25.5,M,-25.7,M,,*62
2023-07-30T07:12:17.4234847Z, 6cda8203-a249-e411-b0cc-f8bc1246af59, $GPGGA,071217.00,4106.8082,N,12422.8366,W,2,12,0.8,25.5,M,-25.7,M,,*66
2023-07-30T07:12:18.3029197Z, 6cda8203-a249-e411-b0cc-f8bc1246af59, $GPGGA,071218.00,4106.8081,N,12422.8366,W,2,11,0.8,25.5,M,-25.7,M,,*69
2023-07-30T07:12:19.9339421Z, 6cda8203-a249-e411-b0cc-f8bc1246af59, $GPGGA,071219.00,4106.8080,N,12422.8365,W,2,11,0.8,25.5,M,-25.7,M,,*6A
2023-07-30T07:12:20.4138574Z, 6cda8203-a249-e411-b0cc-f8bc1246af59, $GPGGA,071220.00,4106.8078,N,12422.8365,W,2,10,0.8,25.4,M,-25.7,M,,*67
2023-07-30T07:12:21.3039603Z, 6cda8203-a249-e411-b0cc-f8bc1246af59, $GPGGA,071221.00,4106.8077,N,12422.8366,W,2,11,0.8,25.6,M,-25.7,M,,*69
2023-07-30T07:12:22.3036451Z, 6cda8203-a249-e411-b0cc-f8bc1246af59, $GPGGA,071222.00,4106.8076,N,12422.8368,W,2,11,0.8,25.5,M,-25.7,M,,*66
2023-07-30T07:12:23.3038919Z, 6cda8203-a249-e411-b0cc-f8bc1246af59, $GPGGA,071223.00,4106.8075,N,12422.8371,W,2,11,0.8,25.3,M,-25.7,M,,*6A
2023-07-30T07:12:24.3038247Z, 6cda8203-a249-e411-b0cc-f8bc1246af59, $GPGGA,071224.00,4106.8075,N,12422.8372,W,2,11,0.8,25.3,M,-25.7,M,,*6E
2023-07-30T07:12:25.3036902Z, 6cda8203-a249-e411-b0cc-f8bc1246af59, $GPGGA,071225.00,4106.8074,N,12422.8372,W,2,11,0.8,25.3,M,-25.7,M,,*6E
2023-07-30T07:12:26.7737418Z, 6cda8203-a249-e411-b0cc-f8bc1246af59, $GPGGA,071226.00,4106.8073,N,12422.8371,W,2,10,1.0,25.3,M,-25.7,M,,*61
2023-07-30T07:12:27.3841231Z, 6cda8203-a249-e411-b0cc-f8bc1246af59, $GPGGA,071227.00,4106.8071,N,12422.8372,W,2,11,0.8,25.2,M,-25.7,M,,*68
2023-07-30T07:12:28.3045733Z, 6cda8203-a249-e411-b0cc-f8bc1246af59, $GPGGA,071228.00,4106.8070,N,12422.8373,W,2,11,0.8,25.1,M,-25.7,M,,*64
2023-07-30T07:12:29.3044010Z, 6cda8203-a249-e411-b0cc-f8bc1246af59, $GPGGA,071229.00,4106.8071,N,12422.8374,W,2,11,0.8,25.4,M,-25.7,M,,*66
2023-07-30T07:12:30.3040657Z, 6cda8203-a249-e411-b0cc-f8bc1246af59, $GPGGA,071230.00,4106.8071,N,12422.8374,W,2,11,0.8,25.5,M,-25.7,M,,*6F
2023-07-30T07:12:31.3047426Z, 6cda8203-a249-e411-b0cc-f8bc1246af59, $GPGGA,071231.00,4106.8070,N,12422.8374,W,2,11,0.8,25.6,M,-25.7,M,,*6C
2023-07-30T07:12:32.3043835Z, 6cda8203-a249-e411-b0cc-f8bc1246af59, $GPGGA,071232.00,4106.8069,N,12422.8374,W,2,11,0.8,25.8,M,-25.7,M,,*69
2023-07-30T07:12:33.8747682Z, 6cda8203-a249-e411-b0cc-f8bc1246af59, $GPGGA,071233.00,4106.8067,N,12422.8375,W,2,11,0.8,25.9,M,-25.7,M,,*66
2023-07-30T07:12:34.3047081Z, 6cda8203-a249-e411-b0cc-f8bc1246af59, $GPGGA,071234.00,4106.8068,N,12422.8377,W,2,11,0.8,25.9,M,-25.7,M,,*6C
2023-07-30T07:12:35.3043711Z, 6cda8203-a249-e411-b0cc-f8bc1246af59, $GPGGA,071235.00,4106.8068,N,12422.8377,W,2,11,0.8,25.9,M,-25.7,M,,*6D
2023-07-30T07:12:36.3044977Z, 6cda8203-a249-e411-b0cc-f8bc1246af59, $GPGGA,071236.00,4106.8069,N,12422.8377,W,2,11,0.8,25.9,M,-25.7,M,,*6F
2023-07-30T07:12:37.3848284Z, 6cda8203-a249-e411-b0cc-f8bc1246af59, $GPGGA,071237.00,4106.8068,N,12422.8376,W,2,11,0.8,26.0,M,-25.7,M,,*64
2023-07-30T07:12:38.3048277Z, 6cda8203-a249-e411-b0cc-f8bc1246af59, $GPGGA,071238.00,4106.8067,N,12422.8375,W,2,11,0.8,26.2,M,-25.7,M,,*65
2023-07-30T07:12:39.3044959Z, 6cda8203-a249-e411-b0cc-f8bc1246af59, $GPGGA,071239.00,4106.8066,N,12422.8375,W,2,11,0.8,26.4,M,-25.7,M,,*63
2023-07-30T07:12:40.3051502Z, 6cda8203-a249-e411-b0cc-f8bc1246af59, $GPGGA,071240.00,4106.8065,N,12422.8377,W,2,11,0.8,26.5,M,-25.7,M,,*6D
2023-07-30T07:12:41.3147498Z, 6cda8203-a249-e411-b0cc-f8bc1246af59, $GPGGA,071241.00,4106.8065,N,12422.8378,W,2,11,0.8,26.7,M,-25.7,M,,*61
2023-07-30T07:12:42.3154083Z, 6cda8203-a249-e411-b0cc-f8bc1246af59, $GPGGA,071242.00,4106.8064,N,12422.8377,W,2,11,0.8,26.8,M,-25.7,M,,*63
2023-07-30T07:12:43.3150767Z, 6cda8203-a249-e411-b0cc-f8bc1246af59, $GPGGA,071243.00,4106.8063,N,12422.8377,W,2,11,0.8,27.0,M,-25.7,M,,*6C
2023-07-30T07:12:45.0954324Z, 6cda8203-a249-e411-b0cc-f8bc1246af59, $GPGGA,071244.00,4106.8062,N,12422.8377,W,2,10,0.8,27.0,M,-25.7,M,,*6B
2023-07-30T07:12:45.4250643Z, 6cda8203-a249-e411-b0cc-f8bc1246af59, $GPGGA,071245.00,4106.8063,N,12422.8378,W,2,10,0.8,27.1,M,-25.7,M,,*65
2023-07-30T07:12:47.0949793Z, 6cda8203-a249-e411-b0cc-f8bc1246af59, $GPGGA,071246.00,4106.8063,N,12422.8379,W,2,10,0.8,27.2,M,-25.7,M,,*64
2023-07-30T07:12:47.4255406Z, 6cda8203-a249-e411-b0cc-f8bc1246af59, $GPGGA,071247.00,4106.8062,N,12422.8378,W,2,11,0.8,27.1,M,-25.7,M,,*67
2023-07-30T07:12:49.0952978Z, 6cda8203-a249-e411-b0cc-f8bc1246af59, $GPGGA,071248.00,4106.8059,N,12422.8378,W,2,11,0.8,27.2,M,-25.7,M,,*63
2023-07-30T07:12:49.4259008Z, 6cda8203-a249-e411-b0cc-f8bc1246af59, $GPGGA,071249.00,4106.8058,N,12422.8378,W,2,11,0.8,27.2,M,-25.7,M,,*63
2023-07-30T07:12:50.3757820Z, 6cda8203-a249-e411-b0cc-f8bc1246af59, $GPGGA,071250.00,4106.8058,N,12422.8381,W,2,11,0.8,27.2,M,-25.7,M,,*6D
2023-07-30T07:12:52.0954196Z, 6cda8203-a249-e411-b0cc-f8bc1246af59, $GPGGA,071251.00,4106.8060,N,12422.8382,W,2,11,0.8,27.2,M,-25.7,M,,*64
2023-07-30T07:12:52.4259737Z, 6cda8203-a249-e411-b0cc-f8bc1246af59, $GPGGA,071252.00,4106.8059,N,12422.8381,W,2,10,0.8,27.3,M,-25.7,M,,*6E
2023-07-30T07:12:54.0957384Z, 6cda8203-a249-e411-b0cc-f8bc1246af59, $GPGGA,071253.00,4106.8057,N,12422.8379,W,2,10,0.8,27.3,M,-25.7,M,,*66
2023-07-30T07:12:54.4262955Z, 6cda8203-a249-e411-b0cc-f8bc1246af59, $GPGGA,071254.00,4106.8053,N,12422.8380,W,2,10,0.8,27.4,M,-25.7,M,,*64
2023-07-30T07:12:56.0964267Z, 6cda8203-a249-e411-b0cc-f8bc1246af59, $GPGGA,071255.00,4106.8051,N,12422.8382,W,2,11,0.8,27.4,M,-25.7,M,,*64
2023-07-30T07:12:56.4260093Z, 6cda8203-a249-e411-b0cc-f8bc1246af59, $GPGGA,071256.00,4106.8052,N,12422.8384,W,2,11,0.8,27.4,M,-25.7,M,,*62
2023-07-30T07:12:58.0963182Z, 6cda8203-a249-e411-b0cc-f8bc1246af59, $GPGGA,071257.00,4106.8052,N,12422.8384,W,2,11,0.8,27.4,M,-25.7,M,,*63
2023-07-30T07:12:58.8559831Z, 6cda8203-a249-e411-b0cc-f8bc1246af59, $GPGGA,071258.00,4106.8051,N,12422.8383,W,2,11,0.8,27.4,M,-25.7,M,,*68
2023-07-30T07:13:00.0966410Z, 6cda8203-a249-e411-b0cc-f8bc1246af59, $GPGGA,071259.00,4106.8049,N,12422.8384,W,2,11,0.8,27.3,M,-25.7,M,,*60
2023-07-30T07:13:00.4261950Z, 6cda8203-a249-e411-b0cc-f8bc1246af59, $GPGGA,071300.00,4106.8046,N,12422.8385,W,2,11,0.8,27.4,M,-25.7,M,,*64
2023-07-30T07:13:01.3163543Z, 6cda8203-a249-e411-b0cc-f8bc1246af59, $GPGGA,071301.00,4106.8046,N,12422.8385,W,2,11,0.8,27.4,M,-25.7,M,,*65
2023-07-30T07:13:03.0902444Z, 6cda8203-a249-e411-b0cc-f8bc1246af59, $GPGGA,071302.00,4106.8046,N,12422.8384,W,2,11,0.8,27.4,M,-25.7,M,,*67
2023-07-30T07:13:03.4180129Z, 6cda8203-a249-e411-b0cc-f8bc1246af59, $GPGGA,071303.00,4106.8045,N,12422.8383,W,2,11,0.8,27.4,M,-25.7,M,,*62
2023-07-30T07:13:04.8062296Z, 6cda8203-a249-e411-b0cc-f8bc1246af59, $GPGGA,071304.00,4106.8042,N,12422.8383,W,2,11,0.8,27.4,M,-25.7,M,,*62
2023-07-30T07:13:06.0856966Z, 6cda8203-a249-e411-b0cc-f8bc1246af59, $GPGGA,071305.00,4106.8040,N,12422.8385,W,2,11,0.8,27.4,M,-25.7,M,,*67
2023-07-30T07:13:06.4162526Z, 6cda8203-a249-e411-b0cc-f8bc1246af59, $GPGGA,071306.00,4106.8039,N,12422.8386,W,2,11,0.8,27.4,M,-25.7,M,,*69
2023-07-30T07:13:08.0860255Z, 6cda8203-a249-e411-b0cc-f8bc1246af59, $GPGGA,071307.00,4106.8038,N,12422.8387,W,2,11,0.8,27.4,M,-25.7,M,,*68
2023-07-30T07:13:08.4155901Z, 6cda8203-a249-e411-b0cc-f8bc1246af59, $GPGGA,071308.00,4106.8037,N,12422.8386,W,2,11,0.8,27.4,M,-25.7,M,,*69
2023-07-30T07:13:10.1763382Z, 6cda8203-a249-e411-b0cc-f8bc1246af59, $GPGGA,071309.00,4106.8037,N,12422.8385,W,2,11,0.8,27.5,M,-25.7,M,,*6A
2023-07-30T07:13:10.6164145Z, 6cda8203-a249-e411-b0cc-f8bc1246af59, $GPGGA,071310.00,4106.8036,N,12422.8385,W,2,11,0.8,27.5,M,-25.7,M,,*63
2023-07-30T07:13:11.3163726Z, 6cda8203-a249-e411-b0cc-f8bc1246af59, $GPGGA,071311.00,4106.8035,N,12422.8385,W,2,11,0.8,27.5,M,-25.7,M,,*61
2023-07-30T07:13:13.0867387Z, 6cda8203-a249-e411-b0cc-f8bc1246af59, $GPGGA,071312.00,4106.8035,N,12422.8386,W,2,11,0.8,27.5,M,-25.7,M,,*61
2023-07-30T07:13:13.4162971Z, 6cda8203-a249-e411-b0cc-f8bc1246af59, $GPGGA,071313.00,4106.8034,N,12422.8386,W,2,11,0.8,27.5,M,-25.7,M,,*61
2023-07-30T07:13:14.3163816Z, 6cda8203-a249-e411-b0cc-f8bc1246af59, $GPGGA,071314.00,4106.8033,N,12422.8385,W,2,11,0.8,27.4,M,-25.7,M,,*63
2023-07-30T07:13:16.2261143Z, 6cda8203-a249-e411-b0cc-f8bc1246af59, $GPGGA,071315.00,4106.8032,N,12422.8385,W,2,11,0.8,27.4,M,-25.7,M,,*63
2023-07-30T07:13:16.6761253Z, 6cda8203-a249-e411-b0cc-f8bc1246af59, $GPGGA,071316.00,4106.8031,N,12422.8386,W,2,11,0.8,27.3,M,-25.7,M,,*67
2023-07-30T07:13:17.3671433Z, 6cda8203-a249-e411-b0cc-f8bc1246af59, $GPGGA,071317.00,4106.8030,N,12422.8388,W,2,11,0.8,27.3,M,-25.7,M,,*69
2023-07-30T07:13:19.0867039Z, 6cda8203-a249-e411-b0cc-f8bc1246af59, $GPGGA,071318.00,4106.8029,N,12422.8389,W,2,11,0.8,27.2,M,-25.7,M,,*6E
2023-07-30T07:13:19.4172685Z, 6cda8203-a249-e411-b0cc-f8bc1246af59, $GPGGA,071319.00,4106.8028,N,12422.8388,W,2,11,0.8,27.2,M,-25.7,M,,*6F
2023-07-30T07:13:20.3671396Z, 6cda8203-a249-e411-b0cc-f8bc1246af59, $GPGGA,071320.00,4106.8026,N,12422.8388,W,2,11,0.8,27.2,M,-25.7,M,,*6B
2023-07-30T07:13:22.2666522Z, 6cda8203-a249-e411-b0cc-f8bc1246af59, $GPGGA,071321.00,4106.8024,N,12422.8389,W,2,11,0.8,27.2,M,-25.7,M,,*69
2023-07-30T07:13:22.6773962Z, 6cda8203-a249-e411-b0cc-f8bc1246af59, $GPGGA,071322.00,4106.8022,N,12422.8390,W,2,11,0.8,27.2,M,-25.7,M,,*64
2023-07-30T07:13:23.3674247Z, 6cda8203-a249-e411-b0cc-f8bc1246af59, $GPGGA,071323.00,4106.8022,N,12422.8392,W,2,11,0.8,27.1,M,-25.7,M,,*64
2023-07-30T07:13:24.3173012Z, 6cda8203-a249-e411-b0cc-f8bc1246af59, $GPGGA,071324.00,4106.8023,N,12422.8392,W,2,11,0.8,27.1,M,-25.7,M,,*62
2023-07-30T07:13:26.0876342Z, 6cda8203-a249-e411-b0cc-f8bc1246af59, $GPGGA,071325.00,4106.8022,N,12422.8392,W,2,11,0.8,27.1,M,-25.7,M,,*62
2023-07-30T07:13:26.4173768Z, 6cda8203-a249-e411-b0cc-f8bc1246af59, $GPGGA,071326.00,4106.8020,N,12422.8393,W,2,11,0.8,27.1,M,-25.7,M,,*62
2023-07-30T07:13:27.3672608Z, 6cda8203-a249-e411-b0cc-f8bc1246af59, $GPGGA,071327.00,4106.8018,N,12422.8395,W,2,10,0.8,27.1,M,-25.7,M,,*6F
2023-07-30T07:13:29.0878126Z, 6cda8203-a249-e411-b0cc-f8bc1246af59, $GPGGA,071328.00,4106.8016,N,12422.8396,W,2,10,0.8,27.0,M,-25.7,M,,*6C
2023-07-30T07:13:29.4173815Z, 6cda8203-a249-e411-b0cc-f8bc1246af59, $GPGGA,071329.00,4106.8014,N,12422.8397,W,2,10,0.8,27.0,M,-25.7,M,,*6E
2023-07-30T07:13:30.3672603Z, 6cda8203-a249-e411-b0cc-f8bc1246af59, $GPGGA,071330.00,4106.8013,N,12422.8396,W,2,11,0.8,27.0,M,-25.7,M,,*61
2023-07-30T07:13:32.0877885Z, 6cda8203-a249-e411-b0cc-f8bc1246af59, $GPGGA,071331.00,4106.8011,N,12422.8397,W,2,11,0.8,27.0,M,-25.7,M,,*63
2023-07-30T07:13:32.4581583Z, 6cda8203-a249-e411-b0cc-f8bc1246af59, $GPGGA,071332.00,4106.8009,N,12422.8397,W,2,11,0.8,27.0,M,-25.7,M,,*69
2023-07-30T07:13:34.0482473Z, 6cda8203-a249-e411-b0cc-f8bc1246af59, $GPGGA,071333.00,4106.8008,N,12422.8399,W,2,10,0.8,27.1,M,-25.7,M,,*67
2023-07-30T07:13:35.0877758Z, 6cda8203-a249-e411-b0cc-f8bc1246af59, $GPGGA,071334.00,4106.8007,N,12422.8401,W,2,10,0.8,27.1,M,-25.7,M,,*69
2023-07-30T07:13:35.4183560Z, 6cda8203-a249-e411-b0cc-f8bc1246af59, $GPGGA,071335.00,4106.8006,N,12422.8402,W,2,11,0.8,27.1,M,-25.7,M,,*6B
2023-07-30T07:13:36.3682129Z, 6cda8203-a249-e411-b0cc-f8bc1246af59, $GPGGA,071336.00,4106.8006,N,12422.8403,W,2,11,0.8,27.0,M,-25.7,M,,*68
2023-07-30T07:13:38.0882762Z, 6cda8203-a249-e411-b0cc-f8bc1246af59, $GPGGA,071337.00,4106.8006,N,12422.8402,W,2,11,0.8,27.0,M,-25.7,M,,*68
2023-07-30T07:13:38.4178413Z, 6cda8203-a249-e411-b0cc-f8bc1246af59, $GPGGA,071338.00,4106.8005,N,12422.8402,W,2,11,0.8,27.1,M,-25.7,M,,*65
2023-07-30T07:13:39.9980593Z, 6cda8203-a249-e411-b0cc-f8bc1246af59, $GPGGA,071339.00,4106.8002,N,12422.8402,W,2,11,0.8,27.1,M,-25.7,M,,*63
2023-07-30T07:13:41.0883421Z, 6cda8203-a249-e411-b0cc-f8bc1246af59, $GPGGA,071340.00,4106.7999,N,12422.8403,W,2,11,0.8,27.1,M,-25.7,M,,*68
2023-07-30T07:13:41.4179076Z, 6cda8203-a249-e411-b0cc-f8bc1246af59, $GPGGA,071341.00,4106.7997,N,12422.8404,W,2,11,0.8,27.1,M,-25.7,M,,*60
2023-07-30T07:13:42.3688015Z, 6cda8203-a249-e411-b0cc-f8bc1246af59, $GPGGA,071342.00,4106.7995,N,12422.8406,W,2,11,0.8,27.2,M,-25.7,M,,*60
2023-07-30T07:13:43.3286293Z, 6cda8203-a249-e411-b0cc-f8bc1246af59, $GPGGA,071343.00,4106.7992,N,12422.8408,W,2,11,0.8,27.3,M,-25.7,M,,*69
2023-07-30T07:13:45.0890131Z, 6cda8203-a249-e411-b0cc-f8bc1246af59, $GPGGA,071344.00,4106.7992,N,12422.8408,W,2,11,0.8,27.2,M,-25.7,M,,*6F
2023-07-30T07:13:45.4185751Z, 6cda8203-a249-e411-b0cc-f8bc1246af59, $GPGGA,071345.00,4106.7992,N,12422.8407,W,2,11,0.8,27.2,M,-25.7,M,,*61
2023-07-30T07:13:46.7786732Z, 6cda8203-a249-e411-b0cc-f8bc1246af59, $GPGGA,071346.00,4106.7991,N,12422.8408,W,2,11,0.8,27.2,M,-25.7,M,,*6E
2023-07-30T07:13:47.3292670Z, 6cda8203-a249-e411-b0cc-f8bc1246af59, $GPGGA,071347.00,4106.7990,N,12422.8410,W,2,11,0.8,27.3,M,-25.7,M,,*66
2023-07-30T07:13:49.0886422Z, 6cda8203-a249-e411-b0cc-f8bc1246af59, $GPGGA,071348.00,4106.7988,N,12422.8411,W,2,11,0.8,27.4,M,-25.7,M,,*66
2023-07-30T07:13:49.4192652Z, 6cda8203-a249-e411-b0cc-f8bc1246af59, $GPGGA,071349.00,4106.7986,N,12422.8413,W,2,11,0.8,27.3,M,-25.7,M,,*6C
2023-07-30T07:13:50.3293243Z, 6cda8203-a249-e411-b0cc-f8bc1246af59, $GPGGA,071350.00,4106.7984,N,12422.8414,W,2,11,0.8,27.4,M,-25.7,M,,*66
2023-07-30T07:13:51.3293582Z, 6cda8203-a249-e411-b0cc-f8bc1246af59, $GPGGA,071351.00,4106.7982,N,12422.8414,W,2,11,0.8,27.5,M,-25.7,M,,*60
2023-07-30T07:13:52.8987167Z, 6cda8203-a249-e411-b0cc-f8bc1246af59, $GPGGA,071352.00,4106.7980,N,12422.8415,W,2,11,0.8,27.6,M,-25.7,M,,*63
2023-07-30T07:13:53.3288511Z, 6cda8203-a249-e411-b0cc-f8bc1246af59, $GPGGA,071353.00,4106.7979,N,12422.8417,W,2,11,0.8,27.7,M,-25.7,M,,*67
2023-07-30T07:13:55.0896827Z, 6cda8203-a249-e411-b0cc-f8bc1246af59, $GPGGA,071354.00,4106.7978,N,12422.8419,W,2,11,0.8,27.7,M,-25.7,M,,*6F
2023-07-30T07:13:55.4192590Z, 6cda8203-a249-e411-b0cc-f8bc1246af59, $GPGGA,071355.00,4106.7975,N,12422.8419,W,2,10,0.8,27.7,M,-25.7,M,,*62
2023-07-30T07:13:56.3292966Z, 6cda8203-a249-e411-b0cc-f8bc1246af59, $GPGGA,071356.00,4106.7973,N,12422.8420,W,2,10,0.8,27.7,M,-25.7,M,,*6D
2023-07-30T07:13:58.0896701Z, 6cda8203-a249-e411-b0cc-f8bc1246af59, $GPGGA,071357.00,4106.7972,N,12422.8420,W,2,11,0.8,27.8,M,-25.7,M,,*63
2023-07-30T07:13:58.4192410Z, 6cda8203-a249-e411-b0cc-f8bc1246af59, $GPGGA,071358.00,4106.7970,N,12422.8421,W,2,11,0.8,27.9,M,-25.7,M,,*6E
2023-07-30T07:13:59.7295805Z, 6cda8203-a249-e411-b0cc-f8bc1246af59, $GPGGA,071359.00,4106.7969,N,12422.8422,W,2,11,0.8,27.9,M,-25.7,M,,*64
2023-07-30T07:14:00.3299875Z, 6cda8203-a249-e411-b0cc-f8bc1246af59, $GPGGA,071400.00,4106.7968,N,12422.8423,W,2,11,0.8,28.0,M,-25.7,M,,*69
2023-07-30T07:14:01.3993399Z, 6cda8203-a249-e411-b0cc-f8bc1246af59, $GPGGA,071401.00,4106.7966,N,12422.8425,W,2,11,0.8,28.1,M,-25.7,M,,*61
2023-07-30T07:14:02.3402459Z, 6cda8203-a249-e411-b0cc-f8bc1246af59, $GPGGA,071402.00,4106.7965,N,12422.8426,W,2,11,0.8,28.2,M,-25.7,M,,*61
2023-07-30T07:14:04.0899827Z, 6cda8203-a249-e411-b0cc-f8bc1246af59, $GPGGA,071403.00,4106.7964,N,12422.8427,W,2,11,0.8,28.3,M,-25.7,M,,*61
2023-07-30T07:14:04.4196839Z, 6cda8203-a249-e411-b0cc-f8bc1246af59, $GPGGA,071404.00,4106.7963,N,12422.8427,W,2,11,0.8,28.4,M,-25.7,M,,*66
2023-07-30T07:14:05.3396511Z, 6cda8203-a249-e411-b0cc-f8bc1246af59, $GPGGA,071405.00,4106.7960,N,12422.8426,W,2,11,0.8,28.4,M,-25.7,M,,*65
2023-07-30T07:14:06.7001203Z, 6cda8203-a249-e411-b0cc-f8bc1246af59, $GPGGA,071406.00,4106.7959,N,12422.8428,W,2,11,0.8,28.4,M,-25.7,M,,*62
2023-07-30T07:14:07.4105899Z, 6cda8203-a249-e411-b0cc-f8bc1246af59, $GPGGA,071407.00,4106.7958,N,12422.8430,W,2,11,0.8,28.5,M,-25.7,M,,*6A
2023-07-30T07:14:08.3398290Z, 6cda8203-a249-e411-b0cc-f8bc1246af59, $GPGGA,071408.00,4106.7957,N,12422.8431,W,2,10,0.8,28.5,M,-25.7,M,,*6A
2023-07-30T07:14:09.3405003Z, 6cda8203-a249-e411-b0cc-f8bc1246af59, $GPGGA,071409.00,4106.7956,N,12422.8430,W,2,10,0.8,28.5,M,-25.7,M,,*6B
2023-07-30T07:14:11.0899704Z, 6cda8203-a249-e411-b0cc-f8bc1246af59, $GPGGA,071410.00,4106.7953,N,12422.8430,W,2,10,0.8,28.7,M,-25.7,M,,*64
2023-07-30T07:14:11.4205366Z, 6cda8203-a249-e411-b0cc-f8bc1246af59, $GPGGA,071411.00,4106.7950,N,12422.8432,W,2,10,0.8,28.8,M,-25.7,M,,*6B
2023-07-30T07:14:12.3406946Z, 6cda8203-a249-e411-b0cc-f8bc1246af59, $GPGGA,071412.00,4106.7949,N,12422.8435,W,2,11,0.8,28.8,M,-25.7,M,,*66
2023-07-30T07:14:13.3403589Z, 6cda8203-a249-e411-b0cc-f8bc1246af59, $GPGGA,071413.00,4106.7949,N,12422.8436,W,2,11,0.8,28.9,M,-25.7,M,,*65
2023-07-30T07:14:14.4107341Z, 6cda8203-a249-e411-b0cc-f8bc1246af59, $GPGGA,071414.00,4106.7948,N,12422.8436,W,2,11,0.8,29.0,M,-25.7,M,,*6B
2023-07-30T07:14:15.3406972Z, 6cda8203-a249-e411-b0cc-f8bc1246af59, $GPGGA,071415.00,4106.7947,N,12422.8434,W,2,11,0.8,29.0,M,-25.7,M,,*67
2023-07-30T07:14:16.3403522Z, 6cda8203-a249-e411-b0cc-f8bc1246af59, $GPGGA,071416.00,4106.7944,N,12422.8434,W,2,10,0.8,29.0,M,-25.7,M,,*66
2023-07-30T07:14:17.3410052Z, 6cda8203-a249-e411-b0cc-f8bc1246af59, $GPGGA,071417.00,4106.7942,N,12422.8436,W,2,10,0.8,29.0,M,-25.7,M,,*63
2023-07-30T07:14:18.3406638Z, 6cda8203-a249-e411-b0cc-f8bc1246af59, $GPGGA,071418.00,4106.7941,N,12422.8437,W,2,10,0.8,29.0,M,-25.7,M,,*6E
2023-07-30T07:14:19.8610477Z, 6cda8203-a249-e411-b0cc-f8bc1246af59, $GPGGA,071419.00,4106.7941,N,12422.8438,W,2,11,0.8,28.9,M,-25.7,M,,*69
2023-07-30T07:14:21.0907500Z, 6cda8203-a249-e411-b0cc-f8bc1246af59, $GPGGA,071420.00,4106.7940,N,12422.8439,W,2,11,0.8,28.9,M,-25.7,M,,*63
2023-07-30T07:14:21.4213095Z, 6cda8203-a249-e411-b0cc-f8bc1246af59, $GPGGA,071421.00,4106.7938,N,12422.8440,W,2,11,0.8,28.9,M,-25.7,M,,*63
2023-07-30T07:14:22.3413214Z, 6cda8203-a249-e411-b0cc-f8bc1246af59, $GPGGA,071422.00,4106.7936,N,12422.8441,W,2,11,0.8,29.0,M,-25.7,M,,*67
2023-07-30T07:14:23.3409775Z, 6cda8203-a249-e411-b0cc-f8bc1246af59, $GPGGA,071423.00,4106.7936,N,12422.8443,W,2,11,0.8,29.0,M,-25.7,M,,*64
2023-07-30T07:14:24.4113313Z, 6cda8203-a249-e411-b0cc-f8bc1246af59, $GPGGA,071424.00,4106.7935,N,12422.8443,W,2,11,0.8,29.0,M,-25.7,M,,*60
2023-07-30T07:14:25.3413123Z, 6cda8203-a249-e411-b0cc-f8bc1246af59, $GPGGA,071425.00,4106.7933,N,12422.8444,W,2,11,0.8,29.0,M,-25.7,M,,*60
2023-07-30T07:14:26.8318387Z, 6cda8203-a249-e411-b0cc-f8bc1246af59, $GPGGA,071426.00,4106.7931,N,12422.8446,W,2,11,0.8,29.1,M,-25.7,M,,*62
2023-07-30T07:14:27.3434079Z, 6cda8203-a249-e411-b0cc-f8bc1246af59, $GPGGA,071427.00,4106.7929,N,12422.8448,W,2,11,0.8,29.1,M,-25.7,M,,*64
2023-07-30T07:14:28.4219405Z, 6cda8203-a249-e411-b0cc-f8bc1246af59, $GPGGA,071428.00,4106.7927,N,12422.8449,W,2,11,0.8,29.1,M,-25.7,M,,*64
2023-07-30T07:14:29.3518795Z, 6cda8203-a249-e411-b0cc-f8bc1246af59, $GPGGA,071429.00,4106.7927,N,12422.8449,W,2,11,0.8,29.1,M,-25.7,M,,*65
2023-07-30T07:14:31.0913737Z, 6cda8203-a249-e411-b0cc-f8bc1246af59, $GPGGA,071430.00,4106.7926,N,12422.8448,W,2,10,0.8,29.1,M,-25.7,M,,*6C
2023-07-30T07:14:31.4219223Z, 6cda8203-a249-e411-b0cc-f8bc1246af59, $GPGGA,071431.00,4106.7926,N,12422.8449,W,2,10,0.8,29.1,M,-25.7,M,,*6C
2023-07-30T07:14:32.3519056Z, 6cda8203-a249-e411-b0cc-f8bc1246af59, $GPGGA,071432.00,4106.7924,N,12422.8449,W,2,10,0.8,29.0,M,-25.7,M,,*6C
2023-07-30T07:14:33.8324801Z, 6cda8203-a249-e411-b0cc-f8bc1246af59, $GPGGA,071433.00,4106.7923,N,12422.8450,W,2,10,0.8,29.0,M,-25.7,M,,*62
2023-07-30T07:14:34.4218932Z, 6cda8203-a249-e411-b0cc-f8bc1246af59, $GPGGA,071434.00,4106.7922,N,12422.8452,W,2,11,0.8,29.1,M,-25.7,M,,*66
2023-07-30T07:14:35.3518862Z, 6cda8203-a249-e411-b0cc-f8bc1246af59, $GPGGA,071435.00,4106.7921,N,12422.8454,W,2,11,0.8,29.1,M,-25.7,M,,*62
2023-07-30T07:14:37.0923405Z, 6cda8203-a249-e411-b0cc-f8bc1246af59, $GPGGA,071436.00,4106.7920,N,12422.8455,W,2,11,0.8,29.1,M,-25.7,M,,*61
2023-07-30T07:14:37.4219069Z, 6cda8203-a249-e411-b0cc-f8bc1246af59, $GPGGA,071437.00,4106.7919,N,12422.8454,W,2,11,0.8,29.1,M,-25.7,M,,*6B
2023-07-30T07:14:38.3528637Z, 6cda8203-a249-e411-b0cc-f8bc1246af59, $GPGGA,071438.00,4106.7919,N,12422.8453,W,2,11,0.8,29.1,M,-25.7,M,,*63
2023-07-30T07:14:39.3525246Z, 6cda8203-a249-e411-b0cc-f8bc1246af59, $GPGGA,071439.00,4106.7916,N,12422.8453,W,2,11,0.8,29.2,M,-25.7,M,,*6E
2023-07-30T07:14:40.4228843Z, 6cda8203-a249-e411-b0cc-f8bc1246af59, $GPGGA,071440.00,4106.7913,N,12422.8455,W,2,11,0.8,29.2,M,-25.7,M,,*63
2023-07-30T07:14:41.3528688Z, 6cda8203-a249-e411-b0cc-f8bc1246af59, $GPGGA,071441.00,4106.7910,N,12422.8457,W,2,11,0.8,29.2,M,-25.7,M,,*63
2023-07-30T07:14:42.3525168Z, 6cda8203-a249-e411-b0cc-f8bc1246af59, $GPGGA,071442.00,4106.7911,N,12422.8459,W,2,11,0.8,29.3,M,-25.7,M,,*6E
2023-07-30T07:14:43.3531792Z, 6cda8203-a249-e411-b0cc-f8bc1246af59, $GPGGA,071443.00,4106.7912,N,12422.8460,W,2,11,0.8,29.6,M,-25.7,M,,*63
2023-07-30T07:14:44.4424255Z, 6cda8203-a249-e411-b0cc-f8bc1246af59, $GPGGA,071444.00,4106.7913,N,12422.8459,W,2,11,0.8,29.7,M,-25.7,M,,*6E
2023-07-30T07:14:45.3525206Z, 6cda8203-a249-e411-b0cc-f8bc1246af59, $GPGGA,071445.00,4106.7911,N,12422.8458,W,2,11,0.8,29.7,M,-25.7,M,,*6C
2023-07-30T07:14:46.9027878Z, 6cda8203-a249-e411-b0cc-f8bc1246af59, $GPGGA,071446.00,4106.7908,N,12422.8458,W,2,11,0.8,29.8,M,-25.7,M,,*68
2023-07-30T07:14:47.6634562Z, 6cda8203-a249-e411-b0cc-f8bc1246af59, $GPGGA,071447.00,4106.7905,N,12422.8460,W,2,11,0.8,29.8,M,-25.7,M,,*6F
2023-07-30T07:14:48.3534928Z, 6cda8203-a249-e411-b0cc-f8bc1246af59, $GPGGA,071448.00,4106.7903,N,12422.8461,W,2,11,0.8,29.9,M,-25.7,M,,*66
2023-07-30T07:14:50.0929542Z, 6cda8203-a249-e411-b0cc-f8bc1246af59, $GPGGA,071449.00,4106.7903,N,12422.8462,W,2,11,0.8,30.0,M,-25.7,M,,*65
2023-07-30T07:14:50.4234863Z, 6cda8203-a249-e411-b0cc-f8bc1246af59, $GPGGA,071450.00,4106.7904,N,12422.8462,W,2,11,0.8,30.1,M,-25.7,M,,*6B
2023-07-30T07:14:52.0932726Z, 6cda8203-a249-e411-b0cc-f8bc1246af59, $GPGGA,071451.00,4106.7903,N,12422.8464,W,2,11,0.8,30.2,M,-25.7,M,,*68
2023-07-30T07:14:52.4238337Z, 6cda8203-a249-e411-b0cc-f8bc1246af59, $GPGGA,071452.00,4106.7902,N,12422.8465,W,2,11,0.8,30.3,M,-25.7,M,,*6A
2023-07-30T07:14:54.0936006Z, 6cda8203-a249-e411-b0cc-f8bc1246af59, $GPGGA,071453.00,4106.7900,N,12422.8465,W,2,11,0.8,30.2,M,-25.7,M,,*68
2023-07-30T07:14:54.4231698Z, 6cda8203-a249-e411-b0cc-f8bc1246af59, $GPGGA,071454.00,4106.7899,N,12422.8465,W,2,11,0.8,30.2,M,-25.7,M,,*6E
2023-07-30T07:14:56.0939253Z, 6cda8203-a249-e411-b0cc-f8bc1246af59, $GPGGA,071455.00,4106.7898,N,12422.8466,W,2,11,0.8,30.2,M,-25.7,M,,*6D
2023-07-30T07:14:56.4234584Z, 6cda8203-a249-e411-b0cc-f8bc1246af59, $GPGGA,071456.00,4106.7897,N,12422.8468,W,2,11,0.8,30.2,M,-25.7,M,,*6F
2023-07-30T07:14:58.0946091Z, 6cda8203-a249-e411-b0cc-f8bc1246af59, $GPGGA,071457.00,4106.7896,N,12422.8470,W,2,11,0.8,30.2,M,-25.7,M,,*66
2023-07-30T07:14:58.4238115Z, 6cda8203-a249-e411-b0cc-f8bc1246af59, $GPGGA,071458.00,4106.7896,N,12422.8471,W,2,11,0.8,30.2,M,-25.7,M,,*68
2023-07-30T07:15:00.0935742Z, 6cda8203-a249-e411-b0cc-f8bc1246af59, $GPGGA,071459.00,4106.7895,N,12422.8470,W,2,11,0.8,30.2,M,-25.7,M,,*6B
2023-07-30T07:15:00.4241205Z, 6cda8203-a249-e411-b0cc-f8bc1246af59, $GPGGA,071500.00,4106.7894,N,12422.8471,W,2,11,0.8,30.2,M,-25.7,M,,*66
2023-07-30T07:15:02.0939066Z, 6cda8203-a249-e411-b0cc-f8bc1246af59, $GPGGA,071501.00,4106.7893,N,12422.8473,W,2,11,0.8,30.2,M,-25.7,M,,*62
2023-07-30T07:15:02.4543269Z, 6cda8203-a249-e411-b0cc-f8bc1246af59, $GPGGA,071502.00,4106.7891,N,12422.8474,W,2,11,0.8,30.2,M,-25.7,M,,*64
2023-07-30T07:15:04.0942253Z, 6cda8203-a249-e411-b0cc-f8bc1246af59, $GPGGA,071503.00,4106.7889,N,12422.8475,W,2,11,0.8,30.3,M,-25.7,M,,*6C
2023-07-30T07:15:04.4237869Z, 6cda8203-a249-e411-b0cc-f8bc1246af59, $GPGGA,071504.00,4106.7888,N,12422.8475,W,2,11,0.8,30.3,M,-25.7,M,,*6A
2023-07-30T07:15:05.3746702Z, 6cda8203-a249-e411-b0cc-f8bc1246af59, $GPGGA,071505.00,4106.7887,N,12422.475,8W,2,11,0.8,30.3,M,-25.7,M,,*64
2023-07-30T07:15:07.0942039Z, 6cda8203-a249-e411-b0cc-f8bc1246af59, $GPGGA,071506.00,4106.7887,N,12422.8477,W,2,11,0.8,30.3,M,-25.7,M,,*65
2023-07-30T07:15:07.4247462Z, 6cda8203-a249-e411-b0cc-f8bc1246af59, $GPGGA,071507.00,4106.7885,N,12422.8479,W,2,11,0.8,30.2,M,-25.7,M,,*69
2023-07-30T07:15:08.3746481Z, 6cda8203-a249-e411-b0cc-f8bc1246af59, $GPGGA,071508.00,4106.7883,N,12422.8479,W,2,11,0.8,30.2,M,-25.7,M,,*60
2023-07-30T07:15:10.0942099Z, 6cda8203-a249-e411-b0cc-f8bc1246af59, $GPGGA,071509.00,4106.7881,N,12422.8478,W,2,11,0.8,30.2,M,-25.7,M,,*62
2023-07-30T07:15:10.4247351Z, 6cda8203-a249-e411-b0cc-f8bc1246af59, $GPGGA,071510.00,4106.7879,N,12422.8476,W,2,11,0.8,30.3,M,-25.7,M,,*62
2023-07-30T07:15:12.0965791Z, 6cda8203-a249-e411-b0cc-f8bc1246af59, $GPGGA,071511.00,4106.7876,N,12422.8476,W,2,11,0.8,30.3,M,-25.7,M,,*6C
2023-07-30T07:15:12.4250523Z, 6cda8203-a249-e411-b0cc-f8bc1246af59, $GPGGA,071512.00,4106.7874,N,12422.8477,W,2,11,0.8,30.2,M,-25.7,M,,*6D
2023-07-30T07:15:14.0948530Z, 6cda8203-a249-e411-b0cc-f8bc1246af59, $GPGGA,071513.00,4106.7872,N,12422.8479,W,2,11,0.8,30.2,M,-25.7,M,,*64
2023-07-30T07:15:14.4254123Z, 6cda8203-a249-e411-b0cc-f8bc1246af59, $GPGGA,071514.00,4106.7872,N,12422.8478,W,2,11,0.8,30.2,M,-25.7,M,,*62
2023-07-30T07:15:16.3152093Z, 6cda8203-a249-e411-b0cc-f8bc1246af59, $GPGGA,071515.00,4106.7870,N,12422.8476,W,2,11,0.8,30.1,M,-25.7,M,,*6C
2023-07-30T07:15:16.6746303Z, 6cda8203-a249-e411-b0cc-f8bc1246af59, $GPGGA,071516.00,4106.7869,N,12422.8476,W,2,11,0.8,30.1,M,-25.7,M,,*67
2023-07-30T07:15:18.0954789Z, 6cda8203-a249-e411-b0cc-f8bc1246af59, $GPGGA,071517.00,4106.7867,N,12422.8477,W,2,11,0.8,30.2,M,-25.7,M,,*6A
2023-07-30T07:15:18.4250312Z, 6cda8203-a249-e411-b0cc-f8bc1246af59, $GPGGA,071518.00,4106.7864,N,12422.8478,W,2,11,0.8,30.1,M,-25.7,M,,*6A
2023-07-30T07:15:19.3749233Z, 6cda8203-a249-e411-b0cc-f8bc1246af59, $GPGGA,071519.00,4106.7862,N,12422.8479,W,2,11,0.8,30.1,M,-25.7,M,,*6C
2023-07-30T07:15:21.0954821Z, 6cda8203-a249-e411-b0cc-f8bc1246af59, $GPGGA,071520.00,4106.7861,N,12422.8478,W,2,11,0.8,30.2,M,-25.7,M,,*67
2023-07-30T07:15:21.4250288Z, 6cda8203-a249-e411-b0cc-f8bc1246af59, $GPGGA,071521.00,4106.7859,N,12422.8477,W,2,11,0.8,30.2,M,-25.7,M,,*62
2023-07-30T07:15:22.7751596Z, 6cda8203-a249-e411-b0cc-f8bc1246af59, $GPGGA,071522.00,4106.7858,N,12422.8478,W,2,11,0.8,30.3,M,-25.7,M,,*6E
2023-07-30T07:15:24.1253425Z, 6cda8203-a249-e411-b0cc-f8bc1246af59, $GPGGA,071523.00,4106.7856,N,12422.8479,W,2,11,0.8,30.3,M,-25.7,M,,*60
2023-07-30T07:15:24.4559039Z, 6cda8203-a249-e411-b0cc-f8bc1246af59, $GPGGA,071524.00,4106.7853,N,12422.8481,W,2,11,0.8,30.3,M,-25.7,M,,*65
2023-07-30T07:15:26.1256751Z, 6cda8203-a249-e411-b0cc-f8bc1246af59, $GPGGA,071525.00,4106.7851,N,12422.8481,W,2,11,0.8,30.3,M,-25.7,M,,*66
2023-07-30T07:15:26.4562342Z, 6cda8203-a249-e411-b0cc-f8bc1246af59, $GPGGA,071526.00,4106.7850,N,12422.8480,W,2,11,0.8,30.3,M,-25.7,M,,*65
2023-07-30T07:15:28.0962572Z, 6cda8203-a249-e411-b0cc-f8bc1246af59, $GPGGA,071527.00,4106.785,N,012422.8479,W,2,11,0.8,30.3,M,-25.7,M,,*62
2023-07-30T07:15:29.0958009Z, 6cda8203-a249-e411-b0cc-f8bc1246af59, $GPGGA,071528.00,4106.7849,N,12422.8479,W,2,11,0.8,30.4,M,-25.7,M,,*62
2023-07-30T07:15:29.4263127Z, 6cda8203-a249-e411-b0cc-f8bc1246af59, $GPGGA,071529.00,4106.7848,N,12422.8482,W,2,11,0.8,30.3,M,-25.7,M,,*61
2023-07-30T07:15:30.7257029Z, 6cda8203-a249-e411-b0cc-f8bc1246af59, $GPGGA,071530.00,4106.7846,N,12422.8483,W,2,11,0.8,30.3,M,-25.7,M,,*66
2023-07-30T07:15:32.0957633Z, 6cda8203-a249-e411-b0cc-f8bc1246af59, $GPGGA,071531.00,4106.7843,N,12422.8483,W,2,11,0.8,30.3,M,-25.7,M,,*62
2023-07-30T07:15:32.4562033Z, 6cda8203-a249-e411-b0cc-f8bc1246af59, $GPGGA,071532.00,4106.7842,N,12422.8482,W,2,11,0.8,30.2,M,-25.7,M,,*60
2023-07-30T07:15:34.0960610Z, 6cda8203-a249-e411-b0cc-f8bc1246af59, $GPGGA,071533.00,4106.7842,N,12422.8482,W,2,11,0.8,30.3,M,-25.7,M,,*60
2023-07-30T07:15:34.4266219Z, 6cda8203-a249-e411-b0cc-f8bc1246af59, $GPGGA,071534.00,4106.7840,N,12422.8483,W,2,11,0.8,30.3,M,-25.7,M,,*64
2023-07-30T07:15:35.3765815Z, 6cda8203-a249-e411-b0cc-f8bc1246af59, $GPGGA,071535.00,4106.7839,N,12422.8485,W,2,11,0.8,30.4,M,-25.7,M,,*6A
2023-07-30T07:15:37.0960836Z, 6cda8203-a249-e411-b0cc-f8bc1246af59, $GPGGA,071536.00,4106.7837,N,12422.8487,W,2,11,0.8,30.5,M,-25.7,M,,*64
2023-07-30T07:15:37.4266089Z, 6cda8203-a249-e411-b0cc-f8bc1246af59, $GPGGA,071537.00,4106.7836,N,12422.8487,W,2,11,0.8,30.5,M,-25.7,M,,*64
2023-07-30T07:15:38.3765299Z, 6cda8203-a249-e411-b0cc-f8bc1246af59, $GPGGA,071538.00,4106.7836,N,12422.8487,W,2,11,0.8,30.5,M,-25.7,M,,*6B
2023-07-30T07:15:40.0970674Z, 6cda8203-a249-e411-b0cc-f8bc1246af59, $GPGGA,071539.00,4106.7835,N,12422.8488,W,2,11,0.8,30.5,M,-25.7,M,,*66
2023-07-30T07:15:40.4266047Z, 6cda8203-a249-e411-b0cc-f8bc1246af59, $GPGGA,071540.00,4106.7834,N,12422.8488,W,2,11,0.8,30.5,M,-25.7,M,,*69
2023-07-30T07:15:41.3765075Z, 6cda8203-a249-e411-b0cc-f8bc1246af59, $GPGGA,071541.00,4106.7832,N,12422.8489,W,2,11,0.8,30.5,M,-25.7,M,,*6F
2023-07-30T07:15:43.0970228Z, 6cda8203-a249-e411-b0cc-f8bc1246af59, $GPGGA,071542.00,4106.7830,N,12422.8490,W,2,11,0.8,30.5,M,-25.7,M,,*66
2023-07-30T07:15:43.4265898Z, 6cda8203-a249-e411-b0cc-f8bc1246af59, $GPGGA,071543.00,4106.7829,N,12422.8491,W,2,11,0.8,30.5,M,-25.7,M,,*6E
2023-07-30T07:15:44.3774812Z, 6cda8203-a249-e411-b0cc-f8bc1246af59, $GPGGA,071544.00,4106.7828,N,12422.8491,W,2,11,0.8,30.5,M,-25.7,M,,*68
2023-07-30T07:15:46.0970461Z, 6cda8203-a249-e411-b0cc-f8bc1246af59, $GPGGA,071545.00,4106.7826,N,12422.8491,W,2,11,0.8,30.5,M,-25.7,M,,*67
2023-07-30T07:15:46.4275610Z, 6cda8203-a249-e411-b0cc-f8bc1246af59, $GPGGA,071546.00,4106.7824,N,12422.8492,W,2,11,0.8,30.5,M,-25.7,M,,*65
2023-07-30T07:15:47.3874071Z, 6cda8203-a249-e411-b0cc-f8bc1246af59, $GPGGA,071547.00,4106.7824,N,12422.8493,W,2,11,0.8,30.5,M,-25.7,M,,*65
2023-07-30T07:15:49.0970248Z, 6cda8203-a249-e411-b0cc-f8bc1246af59, $GPGGA,071548.00,4106.7824,N,12422.8492,W,2,11,0.8,30.5,M,-25.7,M,,*6B
2023-07-30T07:15:49.4275555Z, 6cda8203-a249-e411-b0cc-f8bc1246af59, $GPGGA,071549.00,4106.7823,N,12422.8491,W,2,11,0.8,30.5,M,-25.7,M,,*6E
2023-07-30T07:15:50.3874235Z, 6cda8203-a249-e411-b0cc-f8bc1246af59, $GPGGA,071550.00,4106.7822,N,12422.8490,W,2,11,0.8,30.5,M,-25.7,M,,*66
2023-07-30T07:15:51.3870945Z, 6cda8203-a249-e411-b0cc-f8bc1246af59, $GPGGA,071551.00,4106.7820,N,12422.8492,W,2,11,0.8,30.5,M,-25.7,M,,*67
2023-07-30T07:15:53.0976474Z, 6cda8203-a249-e411-b0cc-f8bc1246af59, $GPGGA,071552.00,4106.7819,N,12422.8493,W,2,11,0.8,30.5,M,-25.7,M,,*6F
2023-07-30T07:15:53.4272100Z, 6cda8203-a249-e411-b0cc-f8bc1246af59, $GPGGA,071553.00,4106.7818,N,12422.8494,W,2,11,0.8,30.5,M,-25.7,M,,*68
2023-07-30T07:15:54.3880745Z, 6cda8203-a249-e411-b0cc-f8bc1246af59, $GPGGA,071554.00,4106.7817,N,12422.8493,W,2,11,0.8,30.5,M,-25.7,M,,*67
2023-07-30T07:15:56.0976323Z, 6cda8203-a249-e411-b0cc-f8bc1246af59, $GPGGA,071555.00,4106.7816,N,12422.8491,W,2,11,0.8,30.4,M,-25.7,M,,*64
2023-07-30T07:15:56.4281924Z, 6cda8203-a249-e411-b0cc-f8bc1246af59, $GPGGA,071556.00,4106.7815,N,12422.8490,W,2,11,0.8,30.5,M,-25.7,M,,*64
2023-07-30T07:15:57.3880518Z, 6cda8203-a249-e411-b0cc-f8bc1246af59, $GPGGA,071557.00,4106.7814,N,12422.8491,W,2,11,0.8,30.4,M,-25.7,M,,*64
2023-07-30T07:15:58.3877245Z, 6cda8203-a249-e411-b0cc-f8bc1246af59, $GPGGA,071558.00,4106.7813,N,12422.8494,W,2,11,0.8,30.4,M,-25.7,M,,*69
2023-07-30T07:15:59.3883794Z, 6cda8203-a249-e411-b0cc-f8bc1246af59, $GPGGA,071559.00,4106.7811,N,12422.8495,W,2,11,0.8,30.4,M,-25.7,M,,*6B
2023-07-30T07:16:00.3880580Z, 6cda8203-a249-e411-b0cc-f8bc1246af59, $GPGGA,071600.00,4106.7810,N,12422.8494,W,2,11,0.8,30.4,M,-25.7,M,,*64
2023-07-30T07:16:01.3887573Z, 6cda8203-a249-e411-b0cc-f8bc1246af59, $GPGGA,071601.00,4106.7808,N,12422.8493,W,2,11,0.8,30.3,M,-25.7,M,,*6C
2023-07-30T07:16:03.0982747Z, 6cda8203-a249-e411-b0cc-f8bc1246af59, $GPGGA,071602.00,4106.7808,N,12422.8494,W,2,11,0.8,30.3,M,-25.7,M,,*68
2023-07-30T07:16:03.4288273Z, 6cda8203-a249-e411-b0cc-f8bc1246af59, $GPGGA,071603.00,4106.7808,N,12422.8496,W,2,11,0.8,30.3,M,-25.7,M,,*6B
2023-07-30T07:16:04.3887006Z, 6cda8203-a249-e411-b0cc-f8bc1246af59, $GPGGA,071604.00,4106.7807,N,12422.8497,W,2,11,0.8,30.3,M,-25.7,M,,*62
2023-07-30T07:16:05.9081002Z, 6cda8203-a249-e411-b0cc-f8bc1246af59, $GPGGA,071605.00,4106.7806,N,12422.8496,W,2,11,0.8,30.3,M,-25.7,M,,*63
2023-07-30T07:16:06.4089334Z, 6cda8203-a249-e411-b0cc-f8bc1246af59, $GPGGA,071606.00,4106.7803,N,12422.8496,W,2,11,0.8,30.2,M,-25.7,M,,*64
2023-07-30T07:16:07.3886809Z, 6cda8203-a249-e411-b0cc-f8bc1246af59, $GPGGA,071607.00,4106.7801,N,12422.8497,W,2,11,0.8,30.2,M,-25.7,M,,*66
2023-07-30T07:16:09.0982485Z, 6cda8203-a249-e411-b0cc-f8bc1246af59, $GPGGA,071608.00,4106.7800,N,12422.8498,W,2,11,0.8,30.2,M,-25.7,M,,*67
2023-07-30T07:16:09.4288032Z, 6cda8203-a249-e411-b0cc-f8bc1246af59, $GPGGA,071609.00,4106.7800,N,12422.8498,W,2,11,0.8,30.1,M,-25.7,M,,*65
2023-07-30T07:16:10.3985907Z, 6cda8203-a249-e411-b0cc-f8bc1246af59, $GPGGA,071610.00,4106.7800,N,12422.8498,W,2,11,0.8,30.1,M,-25.7,M,,*6D
2023-07-30T07:16:11.3893315Z, 6cda8203-a249-e411-b0cc-f8bc1246af59, $GPGGA,071611.00,4106.7799,N,12422.8497,W,2,11,0.8,30.1,M,-25.7,M,,*6C
2023-07-30T07:16:12.6986256Z, 6cda8203-a249-e411-b0cc-f8bc1246af59, $GPGGA,071612.00,4106.7797,N,12422.8497,W,2,11,0.8,30.1,M,-25.7,M,,*61
2023-07-30T07:16:13.4194863Z, 6cda8203-a249-e411-b0cc-f8bc1246af59, $GPGGA,071613.00,4106.7794,N,12422.8499,W,2,11,0.8,30.1,M,-25.7,M,,*6D
2023-07-30T07:16:14.3992413Z, 6cda8203-a249-e411-b0cc-f8bc1246af59, $GPGGA,071614.00,4106.7792,N,12422.8501,W,2,11,0.8,30.2,M,-25.7,M,,*6F
2023-07-30T07:16:16.0988798Z, 6cda8203-a249-e411-b0cc-f8bc1246af59, $GPGGA,071615.00,4106.7791,N,12422.8503,W,2,11,0.8,30.2,M,-25.7,M,,*6F
2023-07-30T07:16:16.4294405Z, 6cda8203-a249-e411-b0cc-f8bc1246af59, $GPGGA,071616.00,4106.7790,N,12422.8503,W,2,11,0.8,30.3,M,-25.7,M,,*6C
2023-07-30T07:16:17.4025856Z, 6cda8203-a249-e411-b0cc-f8bc1246af59, $GPGGA,071617.00,4106.7790,N,12422.8501,W,2,11,0.8,30.3,M,-25.7,M,,*6F
2023-07-30T07:16:18.9296277Z, 6cda8203-a249-e411-b0cc-f8bc1246af59, $GPGGA,071618.00,4106.7789,N,12422.8500,W,2,11,0.8,30.2,M,-25.7,M,,*68
2023-07-30T07:16:19.4225335Z, 6cda8203-a249-e411-b0cc-f8bc1246af59, $GPGGA,071619.00,4106.7787,N,12422.8501,W,2,10,0.8,30.1,M,-25.7,M,,*64
2023-07-30T07:16:20.3992532Z, 6cda8203-a249-e411-b0cc-f8bc1246af59, $GPGGA,071620.00,4106.7785,N,12422.8503,W,2,10,0.8,30.2,M,-25.7,M,,*6D
2023-07-30T07:16:21.3999145Z, 6cda8203-a249-e411-b0cc-f8bc1246af59, $GPGGA,071621.00,4106.7783,N,12422.8505,W,2,10,0.8,30.1,M,-25.7,M,,*6F
2023-07-30T07:16:23.0935585Z, 6cda8203-a249-e411-b0cc-f8bc1246af59, $GPGGA,071622.00,4106.7782,N,12422.8507,W,2,11,0.8,30.2,M,-25.7,M,,*6D
2023-07-30T07:16:23.4300764Z, 6cda8203-a249-e411-b0cc-f8bc1246af59, $GPGGA,071623.00,4106.7782,N,12422.8507,W,2,11,0.8,30.2,M,-25.7,M,,*6C
2023-07-30T07:16:24.3999003Z, 6cda8203-a249-e411-b0cc-f8bc1246af59, $GPGGA,071624.00,4106.7782,N,12422.8505,W,2,11,0.8,30.2,M,-25.7,M,,*69
2023-07-30T07:16:25.7101943Z, 6cda8203-a249-e411-b0cc-f8bc1246af59, $GPGGA,071625.00,4106.7781,N,12422.8505,W,2,11,0.8,30.2,M,-25.7,M,,*6B
2023-07-30T07:16:26.4201268Z, 6cda8203-a249-e411-b0cc-f8bc1246af59, $GPGGA,071626.00,4106.7779,N,12422.8506,W,2,11,0.8,30.2,M,-25.7,M,,*6C
2023-07-30T07:16:27.3998786Z, 6cda8203-a249-e411-b0cc-f8bc1246af59, $GPGGA,071627.00,4106.7777,N,12422.8508,W,2,11,0.8,30.1,M,-25.7,M,,*6E
2023-07-30T07:16:28.4005468Z, 6cda8203-a249-e411-b0cc-f8bc1246af59, $GPGGA,071628.00,4106.7775,N,12422.8510,W,2,11,0.8,30.1,M,-25.7,M,,*6A
2023-07-30T07:16:30.1008805Z, 6cda8203-a249-e411-b0cc-f8bc1246af59, $GPGGA,071629.00,4106.7774,N,12422.8510,W,2,11,0.8,30.1,M,-25.7,M,,*6A
2023-07-30T07:16:30.4307005Z, 6cda8203-a249-e411-b0cc-f8bc1246af59, $GPGGA,071630.00,4106.7772,N,12422.8510,W,2,11,0.8,30.2,M,-25.7,M,,*67
2023-07-30T07:16:31.4005309Z, 6cda8203-a249-e411-b0cc-f8bc1246af59, $GPGGA,071631.00,4106.7771,N,12422.8510,W,2,11,0.8,30.2,M,-25.7,M,,*65
2023-07-30T07:16:32.4001814Z, 6cda8203-a249-e411-b0cc-f8bc1246af59, $GPGGA,071632.00,4106.7771,N,12422.8511,W,2,11,0.8,30.2,M,-25.7,M,,*67
2023-07-30T07:16:33.4207614Z, 6cda8203-a249-e411-b0cc-f8bc1246af59, $GPGGA,071633.00,4106.7770,N,12422.8512,W,2,11,0.8,30.2,M,-25.7,M,,*64
2023-07-30T07:16:34.4005198Z, 6cda8203-a249-e411-b0cc-f8bc1246af59, $GPGGA,071634.00,4106.7769,N,12422.8512,W,2,11,0.8,30.2,M,-25.7,M,,*6B
2023-07-30T07:16:36.0920056Z, 6cda8203-a249-e411-b0cc-f8bc1246af59, $GPGGA,071635.00,4106.7767,N,12422.8512,W,2,11,0.8,30.2,M,-25.7,M,,*64
2023-07-30T07:16:36.4306888Z, 6cda8203-a249-e411-b0cc-f8bc1246af59, $GPGGA,071636.00,4106.7765,N,12422.8513,W,2,11,0.8,30.2,M,-25.7,M,,*64
2023-07-30T07:16:37.4104433Z, 6cda8203-a249-e411-b0cc-f8bc1246af59, $GPGGA,071637.00,4106.7764,N,12422.8514,W,2,11,0.8,30.2,M,-25.7,M,,*63
2023-07-30T07:16:38.7810091Z, 6cda8203-a249-e411-b0cc-f8bc1246af59, $GPGGA,071638.00,4106.7763,N,12422.8515,W,2,11,0.8,30.2,M,-25.7,M,,*6A
2023-07-30T07:16:39.4108262Z, 6cda8203-a249-e411-b0cc-f8bc1246af59, $GPGGA,071639.00,4106.7762,N,12422.8515,W,2,11,0.8,30.2,M,-25.7,M,,*6A
2023-07-30T07:16:40.4114147Z, 6cda8203-a249-e411-b0cc-f8bc1246af59, $GPGGA,071640.00,4106.7761,N,12422.8515,W,2,11,0.8,30.2,M,-25.7,M,,*67
2023-07-30T07:16:41.4110856Z, 6cda8203-a249-e411-b0cc-f8bc1246af59, $GPGGA,071641.00,4106.7760,N,12422.8514,W,2,10,0.8,30.2,M,-25.7,M,,*67
