ACQ Timestamp (Server Time in UTC), MessageID, Data Value For: GNSS-6452-$GPGGA
2023-07-21T18:13:38.0915481Z, 6cda8203-a249-e411-b0cc-f8bc1246af59, $GPGGA,181337.00,4437.5835,N,12402.8829,W,2,12,0.8,35.3,M,-21.8,M,,*6B
2023-07-21T18:13:38.4122035Z, 6cda8203-a249-e411-b0cc-f8bc1246af59, $GPGGA,181338.00,4437.5835,N,12402.8829,W,2,12,0.8,35.3,M,-21.8,M,,*64
2023-07-21T18:13:39.3720258Z, 6cda8203-a249-e411-b0cc-f8bc1246af59, $GPGGA,181339.00,4437.5834,N,12402.8829,W,2,12,0.8,35.3,M,-21.8,M,,*64
2023-07-21T18:13:41.0915274Z, 6cda8203-a249-e411-b0cc-f8bc1246af59, $GPGGA,181340.00,4437.5833,N,12402.8830,W,2,12,0.8,35.3,M,-21.8,M,,*65
2023-07-21T18:13:41.4121859Z, 6cda8203-a249-e411-b0cc-f8bc1246af59, $GPGGA,181341.00,4437.5833,N,12402.8830,W,2,12,0.8,35.4,M,-21.8,M,,*63
2023-07-21T18:13:42.9724150Z, 6cda8203-a249-e411-b0cc-f8bc1246af59, $GPGGA,181342.00,4437.5832,N,12402.8829,W,2,12,0.8,35.7,M,-21.8,M,,*6A
2023-07-21T18:13:44.0925472Z, 6cda8203-a249-e411-b0cc-f8bc1246af59, $GPGGA,181343.00,4437.5831,N,12402.8829,W,2,12,0.8,35.8,M,-21.8,M,,*67
2023-07-21T18:13:44.4221055Z, 6cda8203-a249-e411-b0cc-f8bc1246af59, $GPGGA,181344.00,4437.5830,N,12402.8830,W,2,12,0.8,36.0,M,-21.8,M,,*62
2023-07-21T18:13:46.0918441Z, 6cda8203-a249-e411-b0cc-f8bc1246af59, $GPGGA,181345.00,4437.5830,N,12402.8830,W,2,12,0.8,36.1,M,-21.8,M,,*62
2023-07-21T18:13:46.4125081Z, 6cda8203-a249-e411-b0cc-f8bc1246af59, $GPGGA,181346.00,4437.5829,N,12402.8830,W,2,12,0.8,36.2,M,-21.8,M,,*6A
2023-07-21T18:13:48.0921724Z, 6cda8203-a249-e411-b0cc-f8bc1246af59, $GPGGA,181347.00,4437.5828,N,12402.8831,W,2,12,0.8,36.3,M,-21.8,M,,*6A
2023-07-21T18:13:48.4128274Z, 6cda8203-a249-e411-b0cc-f8bc1246af59, $GPGGA,181348.00,4437.5827,N,12402.8831,W,2,12,0.8,36.4,M,-21.8,M,,*6D
2023-07-21T18:13:49.4025441Z, 6cda8203-a249-e411-b0cc-f8bc1246af59, $GPGGA,181349.00,4437.5827,N,12402.8831,W,2,12,0.8,36.5,M,-21.8,M,,*6D
2023-07-21T18:13:51.0921770Z, 6cda8203-a249-e411-b0cc-f8bc1246af59, $GPGGA,181350.00,4437.5826,N,12402.8832,W,2,12,0.8,36.5,M,-21.8,M,,*67
2023-07-21T18:13:51.4128202Z, 6cda8203-a249-e411-b0cc-f8bc1246af59, $GPGGA,181351.00,4437.5825,N,12402.8833,W,2,12,0.8,36.6,M,-21.8,M,,*67
2023-07-21T18:13:52.4025118Z, 6cda8203-a249-e411-b0cc-f8bc1246af59, $GPGGA,181352.00,4437.5825,N,12402.8833,W,2,12,0.8,36.7,M,-21.8,M,,*65
2023-07-21T18:13:54.0931699Z, 6cda8203-a249-e411-b0cc-f8bc1246af59, $GPGGA,181353.00,4437.5824,N,12402.8834,W,2,12,0.8,36.8,M,-21.8,M,,*6D
2023-07-21T18:13:54.4128223Z, 6cda8203-a249-e411-b0cc-f8bc1246af59, $GPGGA,181354.00,4437.5823,N,12402.8834,W,2,12,0.8,37.0,M,-21.8,M,,*64
2023-07-21T18:13:55.6424324Z, 6cda8203-a249-e411-b0cc-f8bc1246af59, $GPGGA,181355.00,4437.5823,N,12402.8834,W,2,12,0.8,37.1,M,-21.8,M,,*64
2023-07-21T18:13:56.2926148Z, 6cda8203-a249-e411-b0cc-f8bc1246af59, $GPGGA,181356.00,4437.5822,N,12402.8835,W,2,12,0.8,37.3,M,-21.8,M,,*65
2023-07-21T18:13:57.4127567Z, 6cda8203-a249-e411-b0cc-f8bc1246af59, $GPGGA,181357.00,4437.5822,N,12402.8835,W,2,12,0.8,37.5,M,-21.8,M,,*62
2023-07-21T18:13:59.0936098Z, 6cda8203-a249-e411-b0cc-f8bc1246af59, $GPGGA,181358.00,4437.5822,N,12402.8835,W,2,12,0.8,37.6,M,-21.8,M,,*6E
2023-07-21T18:13:59.4132387Z, 6cda8203-a249-e411-b0cc-f8bc1246af59, $GPGGA,181359.00,4437.5821,N,12402.8835,W,2,12,0.8,37.8,M,-21.8,M,,*62
2023-07-21T18:14:01.1729550Z, 6cda8203-a249-e411-b0cc-f8bc1246af59, $GPGGA,181400.00,4437.5821,N,12402.8835,W,2,12,0.8,38.0,M,-21.8,M,,*6E
2023-07-21T18:14:01.7036491Z, 6cda8203-a249-e411-b0cc-f8bc1246af59, $GPGGA,181401.00,4437.5821,N,12402.8835,W,2,12,0.8,38.1,M,-21.8,M,,*6E
2023-07-21T18:14:02.4135608Z, 6cda8203-a249-e411-b0cc-f8bc1246af59, $GPGGA,181402.00,4437.5820,N,12402.8835,W,2,12,0.8,38.3,M,-21.8,M,,*6E
2023-07-21T18:14:04.0932704Z, 6cda8203-a249-e411-b0cc-f8bc1246af59, $GPGGA,181403.00,4437.5819,N,12402.8836,W,2,12,0.8,38.4,M,-21.8,M,,*61
2023-07-21T18:14:04.4139108Z, 6cda8203-a249-e411-b0cc-f8bc1246af59, $GPGGA,181404.00,4437.5818,N,12402.8836,W,2,11,0.8,38.5,M,-21.8,M,,*65
2023-07-21T18:14:05.4133406Z, 6cda8203-a249-e411-b0cc-f8bc1246af59, $GPGGA,181405.00,4437.5818,N,12402.8836,W,2,11,0.8,38.6,M,-21.8,M,,*67
2023-07-21T18:14:07.2732409Z, 6cda8203-a249-e411-b0cc-f8bc1246af59, $GPGGA,181406.00,4437.5817,N,12402.8837,W,2,11,0.8,38.7,M,-21.8,M,,*6B
2023-07-21T18:14:07.4534952Z, 6cda8203-a249-e411-b0cc-f8bc1246af59, $GPGGA,181407.00,4437.5817,N,12402.8838,W,2,12,0.8,38.6,M,-21.8,M,,*67
2023-07-21T18:14:08.2938652Z, 6cda8203-a249-e411-b0cc-f8bc1246af59, $GPGGA,181408.00,4437.5816,N,12402.8840,W,2,12,0.8,38.6,M,-21.8,M,,*66
2023-07-21T18:14:09.2935308Z, 6cda8203-a249-e411-b0cc-f8bc1246af59, $GPGGA,181409.00,4437.5816,N,12402.8842,W,2,12,0.8,38.6,M,-21.8,M,,*65
2023-07-21T18:14:10.4136595Z, 6cda8203-a249-e411-b0cc-f8bc1246af59, $GPGGA,181410.00,4437.5816,N,12402.8844,W,2,12,0.8,38.5,M,-21.8,M,,*68
2023-07-21T18:14:11.2938490Z, 6cda8203-a249-e411-b0cc-f8bc1246af59, $GPGGA,181411.00,4437.5817,N,12402.8846,W,2,12,0.8,38.5,M,-21.8,M,,*6A
2023-07-21T18:14:13.0940238Z, 6cda8203-a249-e411-b0cc-f8bc1246af59, $GPGGA,181412.00,4437.5817,N,12402.8847,W,2,11,0.8,38.5,M,-21.8,M,,*6B
2023-07-21T18:14:13.8846122Z, 6cda8203-a249-e411-b0cc-f8bc1246af59, $GPGGA,181413.00,4437.5817,N,12402.8848,W,2,11,0.8,38.5,M,-21.8,M,,*65
2023-07-21T18:14:14.2938279Z, 6cda8203-a249-e411-b0cc-f8bc1246af59, $GPGGA,181414.00,4437.5817,N,12402.8849,W,2,11,0.8,38.5,M,-21.8,M,,*63
2023-07-21T18:14:15.2946374Z, 6cda8203-a249-e411-b0cc-f8bc1246af59, $GPGGA,181415.00,4437.5817,N,12402.8850,W,2,11,0.8,38.5,M,-21.8,M,,*6A
2023-07-21T18:14:17.0939199Z, 6cda8203-a249-e411-b0cc-f8bc1246af59, $GPGGA,181416.00,4437.5817,N,12402.8849,W,2,11,0.8,38.6,M,-21.8,M,,*62
2023-07-21T18:14:17.4145954Z, 6cda8203-a249-e411-b0cc-f8bc1246af59, $GPGGA,181417.00,4437.5816,N,12402.8849,W,2,12,0.8,38.7,M,-21.8,M,,*60
2023-07-21T18:14:18.2945354Z, 6cda8203-a249-e411-b0cc-f8bc1246af59, $GPGGA,181418.00,4437.5816,N,12402.8848,W,2,11,0.8,38.8,M,-21.8,M,,*62
2023-07-21T18:14:19.9344134Z, 6cda8203-a249-e411-b0cc-f8bc1246af59, $GPGGA,181419.00,4437.5816,N,12402.8850,W,2,11,0.8,38.7,M,-21.8,M,,*65
2023-07-21T18:14:20.3048020Z, 6cda8203-a249-e411-b0cc-f8bc1246af59, $GPGGA,181420.00,4437.5817,N,12402.8852,W,2,11,0.8,38.6,M,-21.8,M,,*6D
2023-07-21T18:14:22.0950401Z, 6cda8203-a249-e411-b0cc-f8bc1246af59, $GPGGA,181421.00,4437.5816,N,12402.8854,W,2,11,0.8,38.5,M,-21.8,M,,*68
2023-07-21T18:14:22.4146676Z, 6cda8203-a249-e411-b0cc-f8bc1246af59, $GPGGA,181422.00,4437.5816,N,12402.8855,W,2,11,0.8,38.4,M,-21.8,M,,*6B
2023-07-21T18:14:23.3047812Z, 6cda8203-a249-e411-b0cc-f8bc1246af59, $GPGGA,181423.00,4437.5816,N,12402.8857,W,2,11,0.8,38.3,M,-21.8,M,,*6F
2023-07-21T18:14:24.3044532Z, 6cda8203-a249-e411-b0cc-f8bc1246af59, $GPGGA,181424.00,4437.5816,N,12402.8857,W,2,11,0.8,38.3,M,-21.8,M,,*68
2023-07-21T18:14:25.4245718Z, 6cda8203-a249-e411-b0cc-f8bc1246af59, $GPGGA,181425.00,4437.5816,N,12402.8858,W,2,11,0.8,38.3,M,-21.8,M,,*66
2023-07-21T18:14:26.8376444Z, 6cda8203-a249-e411-b0cc-f8bc1246af59, $GPGGA,181426.00,4437.5816,N,12402.8859,W,2,11,0.8,38.3,M,-21.8,M,,*64
2023-07-21T18:14:28.0950007Z, 6cda8203-a249-e411-b0cc-f8bc1246af59, $GPGGA,181427.00,4437.5815,N,12402.8860,W,2,11,0.8,38.3,M,-21.8,M,,*6C
2023-07-21T18:14:28.4156656Z, 6cda8203-a249-e411-b0cc-f8bc1246af59, $GPGGA,181428.00,4437.5815,N,12402.8860,W,2,11,0.8,38.3,M,-21.8,M,,*63
2023-07-21T18:14:29.3058214Z, 6cda8203-a249-e411-b0cc-f8bc1246af59, $GPGGA,181429.00,4437.5815,N,12402.8861,W,2,11,0.8,38.3,M,-21.8,M,,*63
2023-07-21T18:14:30.3054623Z, 6cda8203-a249-e411-b0cc-f8bc1246af59, $GPGGA,181430.00,4437.5815,N,12402.8862,W,2,11,0.8,38.3,M,-21.8,M,,*68
2023-07-21T18:14:31.4256055Z, 6cda8203-a249-e411-b0cc-f8bc1246af59, $GPGGA,181431.00,4437.5815,N,12402.8862,W,2,11,0.8,38.3,M,-21.8,M,,*69
2023-07-21T18:14:32.9151143Z, 6cda8203-a249-e411-b0cc-f8bc1246af59, $GPGGA,181432.00,4437.5814,N,12402.8862,W,2,11,0.8,38.3,M,-21.8,M,,*6B
2023-07-21T18:14:33.3054609Z, 6cda8203-a249-e411-b0cc-f8bc1246af59, $GPGGA,181433.00,4437.5815,N,12402.8863,W,2,11,0.8,38.3,M,-21.8,M,,*6A
2023-07-21T18:14:34.3061133Z, 6cda8203-a249-e411-b0cc-f8bc1246af59, $GPGGA,181434.00,4437.5814,N,12402.8863,W,2,11,0.8,38.3,M,-21.8,M,,*6C
2023-07-21T18:14:36.0952999Z, 6cda8203-a249-e411-b0cc-f8bc1246af59, $GPGGA,181435.00,4437.5814,N,12402.8863,W,2,11,0.8,38.2,M,-21.8,M,,*6C
2023-07-21T18:14:36.4159623Z, 6cda8203-a249-e411-b0cc-f8bc1246af59, $GPGGA,181436.00,4437.5813,N,12402.8863,W,2,11,0.8,38.2,M,-21.8,M,,*68
2023-07-21T18:14:37.4155872Z, 6cda8203-a249-e411-b0cc-f8bc1246af59, $GPGGA,181437.00,4437.5813,N,12402.8863,W,2,11,0.8,38.2,M,-21.8,M,,*69
2023-07-21T18:14:39.2357265Z, 6cda8203-a249-e411-b0cc-f8bc1246af59, $GPGGA,181438.00,4437.5813,N,12402.8863,W,2,12,0.8,38.3,M,-21.8,M,,*64
2023-07-21T18:14:39.6658372Z, 6cda8203-a249-e411-b0cc-f8bc1246af59, $GPGGA,181439.00,4437.5814,N,12402.8864,W,2,12,0.8,38.3,M,-21.8,M,,*65
2023-07-21T18:14:41.0956166Z, 6cda8203-a249-e411-b0cc-f8bc1246af59, $GPGGA,181440.00,4437.5813,N,12402.8864,W,2,12,0.8,38.3,M,-21.8,M,,*6C
2023-07-21T18:14:41.4162793Z, 6cda8203-a249-e411-b0cc-f8bc1246af59, $GPGGA,181441.00,4437.5814,N,12402.8863,W,2,12,0.8,38.4,M,-21.8,M,,*6A
2023-07-21T18:14:43.0959588Z, 6cda8203-a249-e411-b0cc-f8bc1246af59, $GPGGA,181442.00,4437.5814,N,12402.8862,W,2,12,0.8,38.4,M,-21.8,M,,*68
2023-07-21T18:14:43.4166138Z, 6cda8203-a249-e411-b0cc-f8bc1246af59, $GPGGA,181443.00,4437.5814,N,12402.8861,W,2,12,0.8,38.4,M,-21.8,M,,*6A
2023-07-21T18:14:45.0963301Z, 6cda8203-a249-e411-b0cc-f8bc1246af59, $GPGGA,181444.00,4437.5813,N,12402.8861,W,2,12,0.8,38.5,M,-21.8,M,,*6B
2023-07-21T18:14:45.4195684Z, 6cda8203-a249-e411-b0cc-f8bc1246af59, $GPGGA,181445.00,4437.5814,N,12402.8861,W,2,12,0.8,38.5,M,-21.8,M,,*6D
2023-07-21T18:14:47.0866976Z, 6cda8203-a249-e411-b0cc-f8bc1246af59, $GPGGA,181446.00,4437.5814,N,12402.8861,W,2,12,0.8,38.6,M,-21.8,M,,*6D
2023-07-21T18:14:47.4162478Z, 6cda8203-a249-e411-b0cc-f8bc1246af59, $GPGGA,181447.00,4437.5814,N,12402.8861,W,2,12,0.8,38.6,M,-21.8,M,,*6C
2023-07-21T18:14:49.0870261Z, 6cda8203-a249-e411-b0cc-f8bc1246af59, $GPGGA,181448.00,4437.5814,N,12402.8862,W,2,12,0.8,38.6,M,-21.8,M,,*60
2023-07-21T18:14:49.4165833Z, 6cda8203-a249-e411-b0cc-f8bc1246af59, $GPGGA,181449.00,4437.5814,N,12402.8862,W,2,12,0.8,38.7,M,-21.8,M,,*60
2023-07-21T18:14:51.0972864Z, 6cda8203-a249-e411-b0cc-f8bc1246af59, $GPGGA,181450.00,4437.5814,N,12402.8863,W,2,12,0.8,38.7,M,-21.8,M,,*69
2023-07-21T18:14:51.4169633Z, 6cda8203-a249-e411-b0cc-f8bc1246af59, $GPGGA,181451.00,4437.5814,N,12402.8863,W,2,12,0.8,38.7,M,-21.8,M,,*68
2023-07-21T18:14:53.0965907Z, 6cda8203-a249-e411-b0cc-f8bc1246af59, $GPGGA,181452.00,4437.5814,N,12402.8863,W,2,12,0.8,38.8,M,-21.8,M,,*64
2023-07-21T18:14:53.4172499Z, 6cda8203-a249-e411-b0cc-f8bc1246af59, $GPGGA,181453.00,4437.5814,N,12402.8863,W,2,12,0.8,38.8,M,-21.8,M,,*65
2023-07-21T18:14:55.0886921Z, 6cda8203-a249-e411-b0cc-f8bc1246af59, $GPGGA,181454.00,4437.5813,N,12402.8864,W,2,12,0.8,38.8,M,-21.8,M,,*62
2023-07-21T18:14:55.4175974Z, 6cda8203-a249-e411-b0cc-f8bc1246af59, $GPGGA,181455.00,4437.5813,N,12402.8863,W,2,12,0.8,38.8,M,-21.8,M,,*64
2023-07-21T18:14:57.0873322Z, 6cda8203-a249-e411-b0cc-f8bc1246af59, $GPGGA,181456.00,4437.5814,N,12402.8863,W,2,12,0.8,38.9,M,-21.8,M,,*61
2023-07-21T18:14:57.4168860Z, 6cda8203-a249-e411-b0cc-f8bc1246af59, $GPGGA,181457.00,4437.5813,N,12402.8863,W,2,12,0.8,38.9,M,-21.8,M,,*67
2023-07-21T18:14:58.3169750Z, 6cda8203-a249-e411-b0cc-f8bc1246af59, $GPGGA,181458.00,4437.5813,N,12402.8862,W,2,12,0.8,39.0,M,-21.8,M,,*61
2023-07-21T18:15:00.0972420Z, 6cda8203-a249-e411-b0cc-f8bc1246af59, $GPGGA,181459.00,4437.5813,N,12402.8862,W,2,12,0.8,39.0,M,-21.8,M,,*60
2023-07-21T18:15:00.4178928Z, 6cda8203-a249-e411-b0cc-f8bc1246af59, $GPGGA,181500.00,4437.5813,N,12402.8862,W,2,12,0.8,39.0,M,-21.8,M,,*6D
2023-07-21T18:15:02.1772450Z, 6cda8203-a249-e411-b0cc-f8bc1246af59, $GPGGA,181501.00,4437.5812,N,12402.8863,W,2,12,0.8,39.0,M,-21.8,M,,*6C
2023-07-21T18:15:02.7278517Z, 6cda8203-a249-e411-b0cc-f8bc1246af59, $GPGGA,181502.00,4437.5812,N,12402.8863,W,2,12,0.8,39.1,M,-21.8,M,,*6E
2023-07-21T18:15:04.0879719Z, 6cda8203-a249-e411-b0cc-f8bc1246af59, $GPGGA,181503.00,4437.5812,N,12402.8864,W,2,12,0.8,39.1,M,-21.8,M,,*68
2023-07-21T18:15:04.4175343Z, 6cda8203-a249-e411-b0cc-f8bc1246af59, $GPGGA,181504.00,4437.5813,N,12402.8864,W,2,12,0.8,39.1,M,-21.8,M,,*6E
2023-07-21T18:15:06.0973657Z, 6cda8203-a249-e411-b0cc-f8bc1246af59, $GPGGA,181505.00,4437.5812,N,12402.8864,W,2,12,0.8,39.1,M,-21.8,M,,*6E
2023-07-21T18:15:06.4180321Z, 6cda8203-a249-e411-b0cc-f8bc1246af59, $GPGGA,181506.00,4437.5813,N,12402.8865,W,2,11,0.8,39.0,M,-21.8,M,,*6F
2023-07-21T18:15:07.8776595Z, 6cda8203-a249-e411-b0cc-f8bc1246af59, $GPGGA,181507.00,4437.5814,N,12402.8866,W,2,11,0.8,38.9,M,-21.8,M,,*62
2023-07-21T18:15:09.0884568Z, 6cda8203-a249-e411-b0cc-f8bc1246af59, $GPGGA,181508.00,4437.5814,N,12402.8867,W,2,11,0.8,38.8,M,-21.8,M,,*6D
2023-07-21T18:15:09.4180184Z, 6cda8203-a249-e411-b0cc-f8bc1246af59, $GPGGA,181509.00,4437.5815,N,12402.8868,W,2,11,0.8,38.6,M,-21.8,M,,*6C
2023-07-21T18:15:11.0987248Z, 6cda8203-a249-e411-b0cc-f8bc1246af59, $GPGGA,181510.00,4437.5815,N,12402.8869,W,2,11,0.8,38.5,M,-21.8,M,,*66
2023-07-21T18:15:11.4183429Z, 6cda8203-a249-e411-b0cc-f8bc1246af59, $GPGGA,181511.00,4437.5815,N,12402.8870,W,2,11,0.8,38.3,M,-21.8,M,,*69
2023-07-21T18:15:13.0980234Z, 6cda8203-a249-e411-b0cc-f8bc1246af59, $GPGGA,181512.00,4437.5815,N,12402.8871,W,2,11,0.8,38.2,M,-21.8,M,,*6A
2023-07-21T18:15:13.8786812Z, 6cda8203-a249-e411-b0cc-f8bc1246af59, $GPGGA,181513.00,4437.5815,N,12402.8871,W,2,11,0.8,38.1,M,-21.8,M,,*68
2023-07-21T18:15:15.0884401Z, 6cda8203-a249-e411-b0cc-f8bc1246af59, $GPGGA,181514.00,4437.5815,N,12402.8871,W,2,12,0.8,38.0,M,-21.8,M,,*6D
2023-07-21T18:15:15.4190084Z, 6cda8203-a249-e411-b0cc-f8bc1246af59, $GPGGA,181515.00,4437.5816,N,12402.8871,W,2,11,0.8,37.9,M,-21.8,M,,*6A
2023-07-21T18:15:17.0887755Z, 6cda8203-a249-e411-b0cc-f8bc1246af59, $GPGGA,181516.00,4437.5816,N,12402.8872,W,2,11,0.8,37.8,M,-21.8,M,,*6B
2023-07-21T18:15:17.4183106Z, 6cda8203-a249-e411-b0cc-f8bc1246af59, $GPGGA,181517.00,4437.5816,N,12402.8873,W,2,11,0.8,37.6,M,-21.8,M,,*65
2023-07-21T18:15:18.3283880Z, 6cda8203-a249-e411-b0cc-f8bc1246af59, $GPGGA,181518.00,4437.5817,N,12402.8873,W,2,11,0.8,37.5,M,-21.8,M,,*68
2023-07-21T18:15:20.0887556Z, 6cda8203-a249-e411-b0cc-f8bc1246af59, $GPGGA,181519.00,4437.5817,N,12402.8874,W,2,11,0.8,37.3,M,-21.8,M,,*68
2023-07-21T18:15:20.4193215Z, 6cda8203-a249-e411-b0cc-f8bc1246af59, $GPGGA,181520.00,4437.5817,N,12402.8874,W,2,11,0.8,37.2,M,-21.8,M,,*63
2023-07-21T18:15:21.3293918Z, 6cda8203-a249-e411-b0cc-f8bc1246af59, $GPGGA,181521.00,4437.5817,N,12402.8874,W,2,11,0.8,37.0,M,-21.8,M,,*60
2023-07-21T18:15:23.0887359Z, 6cda8203-a249-e411-b0cc-f8bc1246af59, $GPGGA,181522.00,4437.5818,N,12402.8875,W,2,11,0.8,36.9,M,-21.8,M,,*65
2023-07-21T18:15:23.4193122Z, 6cda8203-a249-e411-b0cc-f8bc1246af59, $GPGGA,181523.00,4437.5818,N,12402.8875,W,2,11,0.8,36.8,M,-21.8,M,,*65
2023-07-21T18:15:25.2693097Z, 6cda8203-a249-e411-b0cc-f8bc1246af59, $GPGGA,181524.00,4437.5818,N,12402.8876,W,2,12,0.8,36.6,M,-21.8,M,,*6C
2023-07-21T18:15:25.6396665Z, 6cda8203-a249-e411-b0cc-f8bc1246af59, $GPGGA,181525.00,4437.5819,N,12402.8876,W,2,11,0.8,36.4,M,-21.8,M,,*6D
2023-07-21T18:15:26.3297041Z, 6cda8203-a249-e411-b0cc-f8bc1246af59, $GPGGA,181526.00,4437.5820,N,12402.8877,W,2,11,0.8,36.3,M,-21.8,M,,*62
2023-07-21T18:15:28.0890450Z, 6cda8203-a249-e411-b0cc-f8bc1246af59, $GPGGA,181527.00,4437.5820,N,12402.8878,W,2,11,0.8,36.1,M,-21.8,M,,*6E
2023-07-21T18:15:28.4196433Z, 6cda8203-a249-e411-b0cc-f8bc1246af59, $GPGGA,181528.00,4437.5821,N,12402.8878,W,2,11,0.8,36.0,M,-21.8,M,,*61
2023-07-21T18:15:29.3297091Z, 6cda8203-a249-e411-b0cc-f8bc1246af59, $GPGGA,181529.00,4437.5821,N,12402.8879,W,2,11,0.8,35.8,M,-21.8,M,,*6A
2023-07-21T18:15:31.1813732Z, 6cda8203-a249-e411-b0cc-f8bc1246af59, $GPGGA,181530.00,4437.5822,N,12402.8880,W,2,11,0.8,35.7,M,-21.8,M,,*68
2023-07-21T18:15:31.6894185Z, 6cda8203-a249-e411-b0cc-f8bc1246af59, $GPGGA,181531.00,4437.5822,N,12402.8880,W,2,11,0.8,35.5,M,-21.8,M,,*6B
2023-07-21T18:15:33.0893547Z, 6cda8203-a249-e411-b0cc-f8bc1246af59, $GPGGA,181532.00,4437.5823,N,12402.8881,W,2,11,0.8,35.4,M,-21.8,M,,*69
2023-07-21T18:15:33.4199670Z, 6cda8203-a249-e411-b0cc-f8bc1246af59, $GPGGA,181533.00,4437.5823,N,12402.8882,W,2,11,0.8,35.2,M,-21.8,M,,*6D
2023-07-21T18:15:34.3302368Z, 6cda8203-a249-e411-b0cc-f8bc1246af59, $GPGGA,181534.00,4437.5824,N,12402.8882,W,2,11,0.8,35.1,M,-21.8,M,,*6E
2023-07-21T18:15:36.0895887Z, 6cda8203-a249-e411-b0cc-f8bc1246af59, $GPGGA,181535.00,4437.5825,N,12402.8884,W,2,11,0.8,34.8,M,-21.8,M,,*60
2023-07-21T18:15:36.4202417Z, 6cda8203-a249-e411-b0cc-f8bc1246af59, $GPGGA,181536.00,4437.5825,N,12402.8886,W,2,11,0.8,34.7,M,-21.8,M,,*6E
2023-07-21T18:15:37.6900010Z, 6cda8203-a249-e411-b0cc-f8bc1246af59, $GPGGA,181537.00,4437.5826,N,12402.8887,W,2,11,0.8,34.6,M,-21.8,M,,*6C
2023-07-21T18:15:39.0899560Z, 6cda8203-a249-e411-b0cc-f8bc1246af59, $GPGGA,181538.00,4437.5826,N,12402.8889,W,2,11,0.8,34.6,M,-21.8,M,,*6D
2023-07-21T18:15:39.4205269Z, 6cda8203-a249-e411-b0cc-f8bc1246af59, $GPGGA,181539.00,4437.5827,N,12402.8893,W,2,12,0.8,34.5,M,-21.8,M,,*66
2023-07-21T18:15:41.0902806Z, 6cda8203-a249-e411-b0cc-f8bc1246af59, $GPGGA,181540.00,4437.5827,N,12402.8893,W,2,11,0.8,34.2,M,-21.8,M,,*6C
2023-07-21T18:15:41.4208605Z, 6cda8203-a249-e411-b0cc-f8bc1246af59, $GPGGA,181541.00,4437.5828,N,12402.8893,W,2,11,0.8,34.0,M,-21.8,M,,*60
2023-07-21T18:15:42.3408411Z, 6cda8203-a249-e411-b0cc-f8bc1246af59, $GPGGA,181542.00,4437.5827,N,12402.8892,W,2,11,0.8,34.0,M,-21.8,M,,*6D
2023-07-21T18:15:43.6501490Z, 6cda8203-a249-e411-b0cc-f8bc1246af59, $GPGGA,181543.00,4437.5827,N,12402.8892,W,2,11,0.8,34.0,M,-21.8,M,,*6C
2023-07-21T18:15:45.0909442Z, 6cda8203-a249-e411-b0cc-f8bc1246af59, $GPGGA,181544.00,4437.5827,N,12402.8892,W,2,12,0.8,34.0,M,-21.8,M,,*68
2023-07-21T18:15:45.4204894Z, 6cda8203-a249-e411-b0cc-f8bc1246af59, $GPGGA,181545.00,4437.5827,N,12402.8892,W,2,12,0.8,33.9,M,-21.8,M,,*67
2023-07-21T18:15:47.0912773Z, 6cda8203-a249-e411-b0cc-f8bc1246af59, $GPGGA,181546.00,4437.5827,N,12402.8892,W,2,12,0.8,33.6,M,-21.8,M,,*6B
2023-07-21T18:15:47.4208358Z, 6cda8203-a249-e411-b0cc-f8bc1246af59, $GPGGA,181547.00,4437.5827,N,12402.8892,W,2,12,0.8,33.4,M,-21.8,M,,*68
2023-07-21T18:15:49.0109449Z, 6cda8203-a249-e411-b0cc-f8bc1246af59, $GPGGA,181548.00,4437.5827,N,12402.8891,W,2,12,0.8,33.2,M,-21.8,M,,*62
2023-07-21T18:15:50.0912653Z, 6cda8203-a249-e411-b0cc-f8bc1246af59, $GPGGA,181549.00,4437.5827,N,12402.8891,W,2,12,0.8,33.0,M,-21.8,M,,*61
2023-07-21T18:15:50.4208106Z, 6cda8203-a249-e411-b0cc-f8bc1246af59, $GPGGA,181550.00,4437.5826,N,12402.8889,W,2,12,0.8,32.9,M,-21.8,M,,*69
2023-07-21T18:15:51.4115423Z, 6cda8203-a249-e411-b0cc-f8bc1246af59, $GPGGA,181551.00,4437.5826,N,12402.8889,W,2,12,0.8,32.7,M,-21.8,M,,*66
2023-07-21T18:15:53.0912593Z, 6cda8203-a249-e411-b0cc-f8bc1246af59, $GPGGA,181552.00,4437.5826,N,12402.8888,W,2,12,0.8,32.6,M,-21.8,M,,*65
2023-07-21T18:15:53.4207993Z, 6cda8203-a249-e411-b0cc-f8bc1246af59, $GPGGA,181553.00,4437.5826,N,12402.8887,W,2,12,0.8,32.5,M,-21.8,M,,*68
2023-07-21T18:15:54.3407989Z, 6cda8203-a249-e411-b0cc-f8bc1246af59, $GPGGA,181554.00,4437.5825,N,12402.8885,W,2,12,0.8,32.4,M,-21.8,M,,*6F
2023-07-21T18:15:55.8811321Z, 6cda8203-a249-e411-b0cc-f8bc1246af59, $GPGGA,181555.00,4437.5825,N,12402.8884,W,2,12,0.8,32.3,M,-21.8,M,,*68
2023-07-21T18:15:56.4118625Z, 6cda8203-a249-e411-b0cc-f8bc1246af59, $GPGGA,181556.00,4437.5824,N,12402.8882,W,2,12,0.8,32.2,M,-21.8,M,,*6D
2023-07-21T18:15:58.0915743Z, 6cda8203-a249-e411-b0cc-f8bc1246af59, $GPGGA,181557.00,4437.5824,N,12402.8882,W,2,12,0.8,32.1,M,-21.8,M,,*6F
2023-07-21T18:15:58.4211050Z, 6cda8203-a249-e411-b0cc-f8bc1246af59, $GPGGA,181558.00,4437.5824,N,12402.8880,W,2,12,0.8,32.0,M,-21.8,M,,*63
2023-07-21T18:15:59.4118493Z, 6cda8203-a249-e411-b0cc-f8bc1246af59, $GPGGA,181559.00,4437.5823,N,12402.8879,W,2,12,0.8,31.9,M,-21.8,M,,*69
2023-07-21T18:16:01.2618190Z, 6cda8203-a249-e411-b0cc-f8bc1246af59, $GPGGA,181600.00,4437.5822,N,12402.8878,W,2,12,0.8,31.9,M,-21.8,M,,*66
2023-07-21T18:16:01.6521118Z, 6cda8203-a249-e411-b0cc-f8bc1246af59, $GPGGA,181601.00,4437.5822,N,12402.8876,W,2,12,0.8,31.8,M,-21.8,M,,*68
2023-07-21T18:16:02.3421319Z, 6cda8203-a249-e411-b0cc-f8bc1246af59, $GPGGA,181602.00,4437.5822,N,12402.8875,W,2,12,0.8,31.8,M,-21.8,M,,*68
2023-07-21T18:16:03.4114695Z, 6cda8203-a249-e411-b0cc-f8bc1246af59, $GPGGA,181603.00,4437.5822,N,12402.8874,W,2,12,0.8,31.7,M,-21.8,M,,*67
2023-07-21T18:16:04.3425615Z, 6cda8203-a249-e411-b0cc-f8bc1246af59, $GPGGA,181604.00,4437.5822,N,12402.8873,W,2,12,0.8,31.7,M,-21.8,M,,*67
2023-07-21T18:16:06.0918515Z, 6cda8203-a249-e411-b0cc-f8bc1246af59, $GPGGA,181605.00,4437.5822,N,12402.8872,W,2,12,0.8,31.6,M,-21.8,M,,*66
2023-07-21T18:16:06.4224423Z, 6cda8203-a249-e411-b0cc-f8bc1246af59, $GPGGA,181606.00,4437.5822,N,12402.8871,W,2,12,0.8,31.6,M,-21.8,M,,*66
2023-07-21T18:16:08.0921933Z, 6cda8203-a249-e411-b0cc-f8bc1246af59, $GPGGA,181607.00,4437.5822,N,12402.8870,W,2,12,0.8,31.5,M,-21.8,M,,*65
2023-07-21T18:16:08.4219818Z, 6cda8203-a249-e411-b0cc-f8bc1246af59, $GPGGA,181608.00,4437.5823,N,12402.8869,W,2,12,0.8,31.4,M,-21.8,M,,*62
2023-07-21T18:16:09.4226318Z, 6cda8203-a249-e411-b0cc-f8bc1246af59, $GPGGA,181609.00,4437.5823,N,12402.8868,W,2,12,0.8,31.3,M,-21.8,M,,*65
2023-07-21T18:16:11.0924172Z, 6cda8203-a249-e411-b0cc-f8bc1246af59, $GPGGA,181610.00,4437.5823,N,12402.8867,W,2,12,0.8,31.3,M,-21.8,M,,*62
2023-07-21T18:16:11.4219650Z, 6cda8203-a249-e411-b0cc-f8bc1246af59, $GPGGA,181611.00,4437.5823,N,12402.8866,W,2,12,0.8,31.2,M,-21.8,M,,*63
2023-07-21T18:16:12.3529484Z, 6cda8203-a249-e411-b0cc-f8bc1246af59, $GPGGA,181612.00,4437.5823,N,12402.8866,W,2,12,0.8,31.2,M,-21.8,M,,*60
2023-07-21T18:16:14.0924961Z, 6cda8203-a249-e411-b0cc-f8bc1246af59, $GPGGA,181613.00,4437.5824,N,12402.8865,W,2,12,0.8,31.1,M,-21.8,M,,*66
2023-07-21T18:16:14.4230684Z, 6cda8203-a249-e411-b0cc-f8bc1246af59, $GPGGA,181614.00,4437.5824,N,12402.8864,W,2,12,0.8,31.1,M,-21.8,M,,*60
2023-07-21T18:16:15.3530406Z, 6cda8203-a249-e411-b0cc-f8bc1246af59, $GPGGA,181615.00,4437.5825,N,12402.8864,W,2,12,0.8,31.0,M,-21.8,M,,*61
2023-07-21T18:16:17.0931063Z, 6cda8203-a249-e411-b0cc-f8bc1246af59, $GPGGA,181616.00,4437.5825,N,12402.8864,W,2,12,0.8,31.0,M,-21.8,M,,*62
2023-07-21T18:16:17.4226570Z, 6cda8203-a249-e411-b0cc-f8bc1246af59, $GPGGA,181617.00,4437.5825,N,12402.8864,W,2,12,0.8,31.0,M,-21.8,M,,*63
2023-07-21T18:16:19.2729094Z, 6cda8203-a249-e411-b0cc-f8bc1246af59, $GPGGA,181618.00,4437.5825,N,12402.8864,W,2,12,0.8,31.0,M,-21.8,M,,*6C
2023-07-21T18:16:19.6632043Z, 6cda8203-a249-e411-b0cc-f8bc1246af59, $GPGGA,181619.00,4437.5825,N,12402.8864,W,2,12,0.8,31.0,M,-21.8,M,,*6D
2023-07-21T18:16:20.3529914Z, 6cda8203-a249-e411-b0cc-f8bc1246af59, $GPGGA,181620.00,4437.5824,N,12402.8863,W,2,12,0.8,31.0,M,-21.8,M,,*61
2023-07-21T18:16:21.4233598Z, 6cda8203-a249-e411-b0cc-f8bc1246af59, $GPGGA,181621.00,4437.5824,N,12402.8863,W,2,12,0.8,31.0,M,-21.8,M,,*60
2023-07-21T18:16:23.0931079Z, 6cda8203-a249-e411-b0cc-f8bc1246af59, $GPGGA,181622.00,4437.5824,N,12402.8862,W,2,12,0.8,31.0,M,-21.8,M,,*62
2023-07-21T18:16:23.4236855Z, 6cda8203-a249-e411-b0cc-f8bc1246af59, $GPGGA,181623.00,4437.5824,N,12402.8862,W,2,12,0.8,31.1,M,-21.8,M,,*62
2023-07-21T18:16:24.4233572Z, 6cda8203-a249-e411-b0cc-f8bc1246af59, $GPGGA,181624.00,4437.5824,N,12402.8861,W,2,12,0.8,31.1,M,-21.8,M,,*66
2023-07-21T18:16:26.0930916Z, 6cda8203-a249-e411-b0cc-f8bc1246af59, $GPGGA,181625.00,4437.5824,N,12402.8860,W,2,12,0.8,31.1,M,-21.8,M,,*66
2023-07-21T18:16:26.4236793Z, 6cda8203-a249-e411-b0cc-f8bc1246af59, $GPGGA,181626.00,4437.5824,N,12402.8860,W,2,12,0.8,31.0,M,-21.8,M,,*64
2023-07-21T18:16:27.3536586Z, 6cda8203-a249-e411-b0cc-f8bc1246af59, $GPGGA,181627.00,4437.5824,N,12402.8860,W,2,12,0.8,31.0,M,-21.8,M,,*65
2023-07-21T18:16:28.3632313Z, 6cda8203-a249-e411-b0cc-f8bc1246af59, $GPGGA,181628.00,4437.5825,N,12402.8860,W,2,12,0.8,31.0,M,-21.8,M,,*6B
2023-07-21T18:16:29.4236660Z, 6cda8203-a249-e411-b0cc-f8bc1246af59, $GPGGA,181629.00,4437.5825,N,12402.8859,W,2,12,0.8,30.9,M,-21.8,M,,*68
2023-07-21T18:16:31.0934041Z, 6cda8203-a249-e411-b0cc-f8bc1246af59, $GPGGA,181630.00,4437.5825,N,12402.8858,W,2,12,0.8,30.8,M,-21.8,M,,*60
2023-07-21T18:16:31.8342209Z, 6cda8203-a249-e411-b0cc-f8bc1246af59, $GPGGA,181631.00,4437.5826,N,12402.8858,W,2,12,0.8,30.8,M,-21.8,M,,*62
2023-07-21T18:16:32.3639022Z, 6cda8203-a249-e411-b0cc-f8bc1246af59, $GPGGA,181632.00,4437.5826,N,12402.8857,W,2,12,0.8,30.7,M,-21.8,M,,*61
2023-07-21T18:16:33.3635631Z, 6cda8203-a249-e411-b0cc-f8bc1246af59, $GPGGA,181633.00,4437.5826,N,12402.8857,W,2,12,0.8,30.7,M,-21.8,M,,*60
2023-07-21T18:16:34.4339137Z, 6cda8203-a249-e411-b0cc-f8bc1246af59, $GPGGA,181634.00,4437.5825,N,12402.8857,W,2,12,0.8,30.7,M,-21.8,M,,*64
2023-07-21T18:16:36.1046868Z, 6cda8203-a249-e411-b0cc-f8bc1246af59, $GPGGA,181635.00,4437.5826,N,12402.8857,W,2,12,0.8,30.7,M,-21.8,M,,*66
2023-07-21T18:16:36.4243283Z, 6cda8203-a249-e411-b0cc-f8bc1246af59, $GPGGA,181636.00,4437.5825,N,12402.8857,W,2,12,0.8,30.6,M,-21.8,M,,*67
2023-07-21T18:16:37.3644072Z, 6cda8203-a249-e411-b0cc-f8bc1246af59, $GPGGA,181637.00,4437.5825,N,12402.8856,W,2,12,0.8,30.6,M,-21.8,M,,*67
2023-07-21T18:16:38.7246455Z, 6cda8203-a249-e411-b0cc-f8bc1246af59, $GPGGA,181638.00,4437.5825,N,12402.8856,W,2,12,0.8,30.6,M,-21.8,M,,*68
2023-07-21T18:16:39.6347318Z, 6cda8203-a249-e411-b0cc-f8bc1246af59, $GPGGA,181639.00,4437.5825,N,12402.8855,W,2,12,0.8,30.5,M,-21.8,M,,*69
2023-07-21T18:16:41.0943846Z, 6cda8203-a249-e411-b0cc-f8bc1246af59, $GPGGA,181640.00,4437.5826,N,12402.8854,W,2,12,0.8,30.5,M,-21.8,M,,*65
2023-07-21T18:16:41.4249782Z, 6cda8203-a249-e411-b0cc-f8bc1246af59, $GPGGA,181641.00,4437.5825,N,12402.8852,W,2,12,0.8,30.5,M,-21.8,M,,*61
2023-07-21T18:16:43.0947401Z, 6cda8203-a249-e411-b0cc-f8bc1246af59, $GPGGA,181642.00,4437.5826,N,12402.8852,W,2,12,0.8,30.5,M,-21.8,M,,*61
2023-07-21T18:16:43.4243170Z, 6cda8203-a249-e411-b0cc-f8bc1246af59, $GPGGA,181643.00,4437.5826,N,12402.8850,W,2,12,0.8,30.5,M,-21.8,M,,*62
2023-07-21T18:16:45.0950475Z, 6cda8203-a249-e411-b0cc-f8bc1246af59, $GPGGA,181644.00,4437.5825,N,12402.8848,W,2,12,0.8,30.4,M,-21.8,M,,*6E
2023-07-21T18:16:45.4246014Z, 6cda8203-a249-e411-b0cc-f8bc1246af59, $GPGGA,181645.00,4437.5825,N,12402.8846,W,2,12,0.8,30.4,M,-21.8,M,,*61
2023-07-21T18:16:47.0953798Z, 6cda8203-a249-e411-b0cc-f8bc1246af59, $GPGGA,181646.00,4437.5824,N,12402.8845,W,2,12,0.8,30.4,M,-21.8,M,,*60
2023-07-21T18:16:47.4249485Z, 6cda8203-a249-e411-b0cc-f8bc1246af59, $GPGGA,181647.00,4437.5824,N,12402.8844,W,2,12,0.8,30.4,M,-21.8,M,,*60
2023-07-21T18:16:48.3847654Z, 6cda8203-a249-e411-b0cc-f8bc1246af59, $GPGGA,181648.00,4437.5824,N,12402.8842,W,2,12,0.8,30.4,M,-21.8,M,,*69
2023-07-21T18:16:50.1949260Z, 6cda8203-a249-e411-b0cc-f8bc1246af59, $GPGGA,181649.00,4437.5824,N,12402.8841,W,2,12,0.8,30.4,M,-21.8,M,,*6B
2023-07-21T18:16:50.6748103Z, 6cda8203-a249-e411-b0cc-f8bc1246af59, $GPGGA,181650.00,4437.5824,N,12402.8839,W,2,12,0.8,30.4,M,-21.8,M,,*6C
2023-07-21T18:16:52.0956945Z, 6cda8203-a249-e411-b0cc-f8bc1246af59, $GPGGA,181651.00,4437.5824,N,12402.8838,W,2,12,0.8,30.4,M,-21.8,M,,*6C
2023-07-21T18:16:52.4252648Z, 6cda8203-a249-e411-b0cc-f8bc1246af59, $GPGGA,181652.00,4437.5824,N,12402.8837,W,2,12,0.8,30.4,M,-21.8,M,,*60
2023-07-21T18:16:53.3850866Z, 6cda8203-a249-e411-b0cc-f8bc1246af59, $GPGGA,181653.00,4437.5823,N,12402.8836,W,2,12,0.8,30.4,M,-21.8,M,,*67
2023-07-21T18:16:55.0952054Z, 6cda8203-a249-e411-b0cc-f8bc1246af59, $GPGGA,181654.00,4437.5823,N,12402.8835,W,2,12,0.8,30.4,M,-21.8,M,,*63
2023-07-21T18:16:55.4257903Z, 6cda8203-a249-e411-b0cc-f8bc1246af59, $GPGGA,181655.00,4437.5823,N,12402.8835,W,2,12,0.8,30.4,M,-21.8,M,,*62
2023-07-21T18:16:56.6255582Z, 6cda8203-a249-e411-b0cc-f8bc1246af59, $GPGGA,181656.00,4437.5823,N,12402.8834,W,2,12,0.8,30.4,M,-21.8,M,,*60
2023-07-21T18:16:58.0962161Z, 6cda8203-a249-e411-b0cc-f8bc1246af59, $GPGGA,181657.00,4437.5822,N,12402.8833,W,2,12,0.8,30.4,M,-21.8,M,,*67
2023-07-21T18:16:58.4257940Z, 6cda8203-a249-e411-b0cc-f8bc1246af59, $GPGGA,181658.00,4437.5822,N,12402.8832,W,2,12,0.8,30.4,M,-21.8,M,,*69
2023-07-21T18:17:00.0955954Z, 6cda8203-a249-e411-b0cc-f8bc1246af59, $GPGGA,181659.00,4437.5822,N,12402.8831,W,2,12,0.8,30.3,M,-21.8,M,,*6C
2023-07-21T18:17:00.4261703Z, 6cda8203-a249-e411-b0cc-f8bc1246af59, $GPGGA,181700.00,4437.5822,N,12402.8831,W,2,12,0.8,30.3,M,-21.8,M,,*61
2023-07-21T18:17:02.1058499Z, 6cda8203-a249-e411-b0cc-f8bc1246af59, $GPGGA,181701.00,4437.5821,N,12402.8830,W,2,12,0.8,30.3,M,-21.8,M,,*62
2023-07-21T18:17:02.4265086Z, 6cda8203-a249-e411-b0cc-f8bc1246af59, $GPGGA,181702.00,4437.5821,N,12402.8830,W,2,12,0.8,30.3,M,-21.8,M,,*61
2023-07-21T18:17:04.0963065Z, 6cda8203-a249-e411-b0cc-f8bc1246af59, $GPGGA,181703.00,4437.5820,N,12402.8830,W,2,12,0.8,30.2,M,-21.8,M,,*60
2023-07-21T18:17:04.4258188Z, 6cda8203-a249-e411-b0cc-f8bc1246af59, $GPGGA,181704.00,4437.5820,N,12402.8829,W,2,12,0.8,30.2,M,-21.8,M,,*6F
2023-07-21T18:17:05.3759496Z, 6cda8203-a249-e411-b0cc-f8bc1246af59, $GPGGA,181705.00,4437.5819,N,12402.8829,W,2,12,0.8,30.2,M,-21.8,M,,*64
2023-07-21T18:17:07.0959229Z, 6cda8203-a249-e411-b0cc-f8bc1246af59, $GPGGA,181706.00,4437.5818,N,12402.8829,W,2,12,0.8,30.2,M,-21.8,M,,*66
2023-07-21T18:17:07.4663396Z, 6cda8203-a249-e411-b0cc-f8bc1246af59, $GPGGA,181707.00,4437.5818,N,12402.8828,W,2,12,0.8,30.2,M,-21.8,M,,*66
2023-07-21T18:17:09.0962618Z, 6cda8203-a249-e411-b0cc-f8bc1246af59, $GPGGA,181708.00,4437.5817,N,12402.8828,W,2,12,0.8,30.1,M,-21.8,M,,*65
2023-07-21T18:17:09.4268549Z, 6cda8203-a249-e411-b0cc-f8bc1246af59, $GPGGA,181709.00,4437.5817,N,12402.8828,W,2,12,0.8,30.1,M,-21.8,M,,*64
2023-07-21T18:17:11.0965975Z, 6cda8203-a249-e411-b0cc-f8bc1246af59, $GPGGA,181710.00,4437.5817,N,12402.8829,W,2,12,0.8,30.0,M,-21.8,M,,*6C
2023-07-21T18:17:11.4271849Z, 6cda8203-a249-e411-b0cc-f8bc1246af59, $GPGGA,181711.00,4437.5816,N,12402.8829,W,2,11,0.8,30.0,M,-21.8,M,,*6F
2023-07-21T18:17:13.2771533Z, 6cda8203-a249-e411-b0cc-f8bc1246af59, $GPGGA,181712.00,4437.5816,N,12402.8829,W,2,11,0.8,30.0,M,-21.8,M,,*6C
2023-07-21T18:17:13.6863389Z, 6cda8203-a249-e411-b0cc-f8bc1246af59, $GPGGA,181713.00,4437.5815,N,12402.8828,W,2,11,0.8,30.1,M,-21.8,M,,*6E
2023-07-21T18:17:14.3873168Z, 6cda8203-a249-e411-b0cc-f8bc1246af59, $GPGGA,181714.00,4437.5814,N,12402.8828,W,2,11,0.8,30.2,M,-21.8,M,,*6B
2023-07-21T18:17:16.0969343Z, 6cda8203-a249-e411-b0cc-f8bc1246af59, $GPGGA,181715.00,4437.5813,N,12402.8827,W,2,11,0.8,30.2,M,-21.8,M,,*62
2023-07-21T18:17:16.4275035Z, 6cda8203-a249-e411-b0cc-f8bc1246af59, $GPGGA,181716.00,4437.5814,N,12402.8828,W,2,11,0.8,30.3,M,-21.8,M,,*68
2023-07-21T18:17:18.1370778Z, 6cda8203-a249-e411-b0cc-f8bc1246af59, $GPGGA,181717.00,4437.5815,N,12402.8829,W,2,11,0.8,30.3,M,-21.8,M,,*69
2023-07-21T18:17:18.4676255Z, 6cda8203-a249-e411-b0cc-f8bc1246af59, $GPGGA,181718.00,4437.5815,N,12402.8829,W,2,11,0.8,30.3,M,-21.8,M,,*66
2023-07-21T18:17:20.1337459Z, 6cda8203-a249-e411-b0cc-f8bc1246af59, $GPGGA,181719.00,4437.5817,N,12402.8830,W,2,11,0.8,30.2,M,-21.8,M,,*6C
2023-07-21T18:17:20.4607977Z, 6cda8203-a249-e411-b0cc-f8bc1246af59, $GPGGA,181720.00,4437.5818,N,12402.8831,W,2,11,0.8,30.2,M,-21.8,M,,*68
2023-07-21T18:17:22.1225756Z, 6cda8203-a249-e411-b0cc-f8bc1246af59, $GPGGA,181721.00,4437.5818,N,12402.8832,W,2,12,0.8,30.1,M,-21.8,M,,*6A
2023-07-21T18:17:22.4521299Z, 6cda8203-a249-e411-b0cc-f8bc1246af59, $GPGGA,181722.00,4437.5818,N,12402.8832,W,2,11,0.8,30.1,M,-21.8,M,,*6A
2023-07-21T18:17:24.1229186Z, 6cda8203-a249-e411-b0cc-f8bc1246af59, $GPGGA,181723.00,4437.5820,N,12402.8834,W,2,12,0.8,30.1,M,-21.8,M,,*65
2023-07-21T18:17:24.4524763Z, 6cda8203-a249-e411-b0cc-f8bc1246af59, $GPGGA,181724.00,4437.5821,N,12402.8834,W,2,11,0.8,30.1,M,-21.8,M,,*60
2023-07-21T18:17:25.6820942Z, 6cda8203-a249-e411-b0cc-f8bc1246af59, $GPGGA,181725.00,4437.5822,N,12402.8835,W,2,11,0.8,30.1,M,-21.8,M,,*63
2023-07-21T18:17:27.0830657Z, 6cda8203-a249-e411-b0cc-f8bc1246af59, $GPGGA,181726.00,4437.5822,N,12402.8834,W,2,12,0.8,30.2,M,-21.8,M,,*61
2023-07-21T18:17:27.4126261Z, 6cda8203-a249-e411-b0cc-f8bc1246af59, $GPGGA,181727.00,4437.5823,N,12402.8834,W,2,12,0.8,30.3,M,-21.8,M,,*60
2023-07-21T18:17:29.0825413Z, 6cda8203-a249-e411-b0cc-f8bc1246af59, $GPGGA,181728.00,4437.5823,N,12402.8835,W,2,11,0.8,30.3,M,-21.8,M,,*6D
2023-07-21T18:17:29.4131205Z, 6cda8203-a249-e411-b0cc-f8bc1246af59, $GPGGA,181729.00,4437.5824,N,12402.8835,W,2,11,0.8,30.3,M,-21.8,M,,*6B
2023-07-21T18:17:30.3729582Z, 6cda8203-a249-e411-b0cc-f8bc1246af59, $GPGGA,181730.00,4437.5824,N,12402.8835,W,2,11,0.8,30.3,M,-21.8,M,,*63
2023-07-21T18:17:32.0825114Z, 6cda8203-a249-e411-b0cc-f8bc1246af59, $GPGGA,181731.00,4437.5825,N,12402.8835,W,2,12,0.8,30.3,M,-21.8,M,,*60
2023-07-21T18:17:32.4131206Z, 6cda8203-a249-e411-b0cc-f8bc1246af59, $GPGGA,181732.00,4437.5825,N,12402.8836,W,2,11,0.8,30.3,M,-21.8,M,,*63
2023-07-21T18:17:33.3729419Z, 6cda8203-a249-e411-b0cc-f8bc1246af59, $GPGGA,181733.00,4437.5825,N,12402.8837,W,2,11,0.8,30.3,M,-21.8,M,,*63
2023-07-21T18:17:35.0835390Z, 6cda8203-a249-e411-b0cc-f8bc1246af59, $GPGGA,181734.00,4437.5826,N,12402.8838,W,2,12,0.8,30.4,M,-21.8,M,,*6C
2023-07-21T18:17:35.4132282Z, 6cda8203-a249-e411-b0cc-f8bc1246af59, $GPGGA,181735.00,4437.5825,N,12402.8838,W,2,11,0.8,30.4,M,-21.8,M,,*6D
2023-07-21T18:17:37.0831603Z, 6cda8203-a249-e411-b0cc-f8bc1246af59, $GPGGA,181736.00,4437.5825,N,12402.8839,W,2,11,0.8,30.4,M,-21.8,M,,*6F
2023-07-21T18:17:37.4535753Z, 6cda8203-a249-e411-b0cc-f8bc1246af59, $GPGGA,181737.00,4437.5825,N,12402.8838,W,2,11,0.8,30.5,M,-21.8,M,,*6E
2023-07-21T18:17:38.3735988Z, 6cda8203-a249-e411-b0cc-f8bc1246af59, $GPGGA,181738.00,4437.5825,N,12402.8839,W,2,12,0.8,30.5,M,-21.8,M,,*63
2023-07-21T18:17:40.0830509Z, 6cda8203-a249-e411-b0cc-f8bc1246af59, $GPGGA,181739.00,4437.5826,N,12402.8840,W,2,12,0.8,30.6,M,-21.8,M,,*6C
2023-07-21T18:17:40.4135810Z, 6cda8203-a249-e411-b0cc-f8bc1246af59, $GPGGA,181740.00,4437.5826,N,12402.8840,W,2,12,0.8,30.7,M,-21.8,M,,*63
2023-07-21T18:17:41.3734197Z, 6cda8203-a249-e411-b0cc-f8bc1246af59, $GPGGA,181741.00,4437.5826,N,12402.8841,W,2,12,0.8,30.8,M,-21.8,M,,*6C
2023-07-21T18:17:42.8832348Z, 6cda8203-a249-e411-b0cc-f8bc1246af59, $GPGGA,181742.00,4437.5827,N,12402.8842,W,2,12,0.8,30.8,M,-21.8,M,,*6D
2023-07-21T18:17:44.0841584Z, 6cda8203-a249-e411-b0cc-f8bc1246af59, $GPGGA,181743.00,4437.5828,N,12402.8842,W,2,12,0.8,30.9,M,-21.8,M,,*62
2023-07-21T18:17:44.4137068Z, 6cda8203-a249-e411-b0cc-f8bc1246af59, $GPGGA,181744.00,4437.5828,N,12402.8842,W,2,12,0.8,31.0,M,-21.8,M,,*6D
2023-07-21T18:17:45.3834743Z, 6cda8203-a249-e411-b0cc-f8bc1246af59, $GPGGA,181745.00,4437.5829,N,12402.8842,W,2,12,0.8,31.1,M,-21.8,M,,*6C
2023-07-21T18:17:47.0842848Z, 6cda8203-a249-e411-b0cc-f8bc1246af59, $GPGGA,181746.00,4437.5829,N,12402.8843,W,2,12,0.8,31.2,M,-21.8,M,,*6D
2023-07-21T18:17:47.4138165Z, 6cda8203-a249-e411-b0cc-f8bc1246af59, $GPGGA,181747.00,4437.5831,N,12402.8843,W,2,12,0.8,31.3,M,-21.8,M,,*64
2023-07-21T18:17:49.0843619Z, 6cda8203-a249-e411-b0cc-f8bc1246af59, $GPGGA,181748.00,4437.5832,N,12402.8844,W,2,12,0.8,31.4,M,-21.8,M,,*68
2023-07-21T18:17:49.4139188Z, 6cda8203-a249-e411-b0cc-f8bc1246af59, $GPGGA,181749.00,4437.5834,N,12402.8845,W,2,12,0.8,31.5,M,-21.8,M,,*6F
2023-07-21T18:17:50.3853381Z, 6cda8203-a249-e411-b0cc-f8bc1246af59, $GPGGA,181750.00,4437.5834,N,12402.8845,W,2,12,0.8,31.6,M,-21.8,M,,*64
2023-07-21T18:17:52.0844379Z, 6cda8203-a249-e411-b0cc-f8bc1246af59, $GPGGA,181751.00,4437.5834,N,12402.8845,W,2,12,0.8,31.6,M,-21.8,M,,*65
2023-07-21T18:17:52.4139888Z, 6cda8203-a249-e411-b0cc-f8bc1246af59, $GPGGA,181752.00,4437.5835,N,12402.8845,W,2,12,0.8,31.6,M,-21.8,M,,*67
2023-07-21T18:17:53.4046883Z, 6cda8203-a249-e411-b0cc-f8bc1246af59, $GPGGA,181753.00,4437.5835,N,12402.8845,W,2,12,0.8,31.6,M,-21.8,M,,*66
2023-07-21T18:17:55.1849780Z, 6cda8203-a249-e411-b0cc-f8bc1246af59, $GPGGA,181754.00,4437.5836,N,12402.8845,W,2,12,0.8,31.6,M,-21.8,M,,*62
2023-07-21T18:17:55.6445008Z, 6cda8203-a249-e411-b0cc-f8bc1246af59, $GPGGA,181755.00,4437.5836,N,12402.8845,W,2,12,0.8,31.6,M,-21.8,M,,*63
2023-07-21T18:17:56.3848882Z, 6cda8203-a249-e411-b0cc-f8bc1246af59, $GPGGA,181756.00,4437.5836,N,12402.8845,W,2,12,0.8,31.6,M,-21.8,M,,*60
2023-07-21T18:17:58.0844990Z, 6cda8203-a249-e411-b0cc-f8bc1246af59, $GPGGA,181757.00,4437.5836,N,12402.8845,W,2,12,0.8,31.6,M,-21.8,M,,*61
2023-07-21T18:17:58.4150768Z, 6cda8203-a249-e411-b0cc-f8bc1246af59, $GPGGA,181758.00,4437.5837,N,12402.8845,W,2,12,0.8,31.6,M,-21.8,M,,*6F
2023-07-21T18:17:59.3848805Z, 6cda8203-a249-e411-b0cc-f8bc1246af59, $GPGGA,181759.00,4437.5837,N,12402.8845,W,2,12,0.8,31.6,M,-21.8,M,,*6E
2023-07-21T18:18:01.1745400Z, 6cda8203-a249-e411-b0cc-f8bc1246af59, $GPGGA,181800.00,4437.5837,N,12402.8845,W,2,12,0.8,31.6,M,-21.8,M,,*6D
2023-07-21T18:18:01.6952858Z, 6cda8203-a249-e411-b0cc-f8bc1246af59, $GPGGA,181801.00,4437.5838,N,12402.8845,W,2,12,0.8,31.6,M,-21.8,M,,*63
2023-07-21T18:18:03.0853923Z, 6cda8203-a249-e411-b0cc-f8bc1246af59, $GPGGA,181802.00,4437.5838,N,12402.8845,W,2,12,0.8,31.6,M,-21.8,M,,*60
2023-07-21T18:18:03.4149442Z, 6cda8203-a249-e411-b0cc-f8bc1246af59, $GPGGA,181803.00,4437.5838,N,12402.8846,W,2,12,0.8,31.6,M,-21.8,M,,*62
2023-07-21T18:18:04.3857643Z, 6cda8203-a249-e411-b0cc-f8bc1246af59, $GPGGA,181804.00,4437.5839,N,12402.8845,W,2,12,0.8,31.6,M,-21.8,M,,*67
2023-07-21T18:18:06.0853851Z, 6cda8203-a249-e411-b0cc-f8bc1246af59, $GPGGA,181805.00,4437.5839,N,12402.8846,W,2,12,0.8,31.6,M,-21.8,M,,*65
2023-07-21T18:18:06.4157581Z, 6cda8203-a249-e411-b0cc-f8bc1246af59, $GPGGA,181806.00,4437.5840,N,12402.8846,W,2,12,0.8,31.6,M,-21.8,M,,*68
2023-07-21T18:18:07.6951642Z, 6cda8203-a249-e411-b0cc-f8bc1246af59, $GPGGA,181807.00,4437.5840,N,12402.8846,W,2,12,0.8,31.7,M,-21.8,M,,*68
2023-07-21T18:18:08.4051070Z, 6cda8203-a249-e411-b0cc-f8bc1246af59, $GPGGA,181808.00,4437.5840,N,12402.8845,W,2,12,0.8,31.7,M,-21.8,M,,*64
2023-07-21T18:18:09.3858924Z, 6cda8203-a249-e411-b0cc-f8bc1246af59, $GPGGA,181809.00,4437.5840,N,12402.8845,W,2,12,0.8,31.7,M,-21.8,M,,*65
2023-07-21T18:18:11.0857475Z, 6cda8203-a249-e411-b0cc-f8bc1246af59, $GPGGA,181810.00,4437.5841,N,12402.8845,W,2,12,0.8,31.7,M,-21.8,M,,*6C
2023-07-21T18:18:11.4160882Z, 6cda8203-a249-e411-b0cc-f8bc1246af59, $GPGGA,181811.00,4437.5841,N,12402.8846,W,2,12,0.8,31.7,M,-21.8,M,,*6E
2023-07-21T18:18:12.3858972Z, 6cda8203-a249-e411-b0cc-f8bc1246af59, $GPGGA,181812.00,4437.5841,N,12402.8846,W,2,12,0.8,31.7,M,-21.8,M,,*6D
2023-07-21T18:18:13.8256096Z, 6cda8203-a249-e411-b0cc-f8bc1246af59, $GPGGA,181813.00,4437.5842,N,12402.8846,W,2,12,0.8,31.7,M,-21.8,M,,*6F
2023-07-21T18:18:14.3961462Z, 6cda8203-a249-e411-b0cc-f8bc1246af59, $GPGGA,181814.00,4437.5842,N,12402.8846,W,2,12,0.8,31.7,M,-21.8,M,,*68
2023-07-21T18:18:16.0856478Z, 6cda8203-a249-e411-b0cc-f8bc1246af59, $GPGGA,181815.00,4437.5842,N,12402.8846,W,2,12,0.8,31.7,M,-21.8,M,,*69
2023-07-21T18:18:16.4162322Z, 6cda8203-a249-e411-b0cc-f8bc1246af59, $GPGGA,181816.00,4437.5842,N,12402.8846,W,2,12,0.8,31.9,M,-21.8,M,,*64
2023-07-21T18:18:18.0861617Z, 6cda8203-a249-e411-b0cc-f8bc1246af59, $GPGGA,181817.00,4437.5843,N,12402.8847,W,2,12,0.8,32.0,M,-21.8,M,,*6F
2023-07-21T18:18:18.4167518Z, 6cda8203-a249-e411-b0cc-f8bc1246af59, $GPGGA,181818.00,4437.5843,N,12402.8847,W,2,12,0.8,32.1,M,-21.8,M,,*61
2023-07-21T18:18:19.8266197Z, 6cda8203-a249-e411-b0cc-f8bc1246af59, $GPGGA,181819.00,4437.5843,N,12402.8847,W,2,12,0.8,32.2,M,-21.8,M,,*63
2023-07-21T18:18:21.0861415Z, 6cda8203-a249-e411-b0cc-f8bc1246af59, $GPGGA,181820.00,4437.5843,N,12402.8846,W,2,12,0.8,32.3,M,-21.8,M,,*69
2023-07-21T18:18:21.4167828Z, 6cda8203-a249-e411-b0cc-f8bc1246af59, $GPGGA,181821.00,4437.5844,N,12402.8847,W,2,12,0.8,32.4,M,-21.8,M,,*69
2023-07-21T18:18:22.3965281Z, 6cda8203-a249-e411-b0cc-f8bc1246af59, $GPGGA,181822.00,4437.5843,N,12402.8847,W,2,12,0.8,32.5,M,-21.8,M,,*6C
2023-07-21T18:18:24.0861779Z, 6cda8203-a249-e411-b0cc-f8bc1246af59, $GPGGA,181823.00,4437.5844,N,12402.8846,W,2,12,0.8,32.6,M,-21.8,M,,*68
2023-07-21T18:18:24.4167793Z, 6cda8203-a249-e411-b0cc-f8bc1246af59, $GPGGA,181824.00,4437.5843,N,12402.8846,W,2,12,0.8,32.6,M,-21.8,M,,*68
2023-07-21T18:18:25.3968154Z, 6cda8203-a249-e411-b0cc-f8bc1246af59, $GPGGA,181825.00,4437.5843,N,12402.8846,W,2,12,0.8,32.7,M,-21.8,M,,*68
2023-07-21T18:18:26.4170969Z, 6cda8203-a249-e411-b0cc-f8bc1246af59, $GPGGA,181826.00,4437.5843,N,12402.8846,W,2,12,0.8,32.8,M,-21.8,M,,*64
2023-07-21T18:18:28.0875683Z, 6cda8203-a249-e411-b0cc-f8bc1246af59, $GPGGA,181827.00,4437.5843,N,12402.8845,W,2,12,0.8,32.8,M,-21.8,M,,*66
2023-07-21T18:18:28.7672897Z, 6cda8203-a249-e411-b0cc-f8bc1246af59, $GPGGA,181828.00,4437.5843,N,12402.8845,W,2,12,0.8,32.9,M,-21.8,M,,*68
2023-07-21T18:18:29.3965236Z, 6cda8203-a249-e411-b0cc-f8bc1246af59, $GPGGA,181829.00,4437.5844,N,12402.8846,W,2,12,0.8,32.9,M,-21.8,M,,*6D
2023-07-21T18:18:30.3972152Z, 6cda8203-a249-e411-b0cc-f8bc1246af59, $GPGGA,181830.00,4437.5843,N,12402.8845,W,2,12,0.8,33.0,M,-21.8,M,,*69
2023-07-21T18:18:31.9978093Z, 6cda8203-a249-e411-b0cc-f8bc1246af59, $GPGGA,181831.00,4437.5843,N,12402.8845,W,2,12,0.8,33.0,M,-21.8,M,,*68
2023-07-21T18:18:32.6577070Z, 6cda8203-a249-e411-b0cc-f8bc1246af59, $GPGGA,181832.00,4437.5843,N,12402.8845,W,2,12,0.8,33.1,M,-21.8,M,,*6A
2023-07-21T18:18:33.3975086Z, 6cda8203-a249-e411-b0cc-f8bc1246af59, $GPGGA,181833.00,4437.5843,N,12402.8844,W,2,12,0.8,33.1,M,-21.8,M,,*6A
2023-07-21T18:18:34.3971540Z, 6cda8203-a249-e411-b0cc-f8bc1246af59, $GPGGA,181834.00,4437.5843,N,12402.8844,W,2,12,0.8,33.2,M,-21.8,M,,*6E
2023-07-21T18:18:36.0872410Z, 6cda8203-a249-e411-b0cc-f8bc1246af59, $GPGGA,181835.00,4437.5843,N,12402.8844,W,2,12,0.8,33.2,M,-21.8,M,,*6F
2023-07-21T18:18:36.7473679Z, 6cda8203-a249-e411-b0cc-f8bc1246af59, $GPGGA,181836.00,4437.5843,N,12402.8843,W,2,12,0.8,33.2,M,-21.8,M,,*6B
2023-07-21T18:18:37.3975585Z, 6cda8203-a249-e411-b0cc-f8bc1246af59, $GPGGA,181837.00,4437.5843,N,12402.8843,W,2,12,0.8,33.3,M,-21.8,M,,*6B
2023-07-21T18:18:38.4071598Z, 6cda8203-a249-e411-b0cc-f8bc1246af59, $GPGGA,181838.00,4437.5843,N,12402.8842,W,2,12,0.8,33.3,M,-21.8,M,,*65
2023-07-21T18:18:39.4174047Z, 6cda8203-a249-e411-b0cc-f8bc1246af59, $GPGGA,181839.00,4437.5843,N,12402.8842,W,2,12,0.8,33.3,M,-21.8,M,,*64
2023-07-21T18:18:41.0877440Z, 6cda8203-a249-e411-b0cc-f8bc1246af59, $GPGGA,181840.00,4437.5842,N,12402.8842,W,2,12,0.8,33.4,M,-21.8,M,,*6C
2023-07-21T18:18:41.7775244Z, 6cda8203-a249-e411-b0cc-f8bc1246af59, $GPGGA,181841.00,4437.5842,N,12402.8842,W,2,12,0.8,33.4,M,-21.8,M,,*6D
2023-07-21T18:18:42.4083092Z, 6cda8203-a249-e411-b0cc-f8bc1246af59, $GPGGA,181842.00,4437.5842,N,12402.8841,W,2,12,0.8,33.5,M,-21.8,M,,*6C
2023-07-21T18:18:43.4079764Z, 6cda8203-a249-e411-b0cc-f8bc1246af59, $GPGGA,181843.00,4437.5842,N,12402.8841,W,2,12,0.8,33.5,M,-21.8,M,,*6D
2023-07-21T18:18:44.6784670Z, 6cda8203-a249-e411-b0cc-f8bc1246af59, $GPGGA,181844.00,4437.5842,N,12402.8840,W,2,12,0.8,33.5,M,-21.8,M,,*6B
2023-07-21T18:18:46.0883752Z, 6cda8203-a249-e411-b0cc-f8bc1246af59, $GPGGA,181845.00,4437.5842,N,12402.8841,W,2,12,0.8,33.6,M,-21.8,M,,*68
2023-07-21T18:18:46.8083898Z, 6cda8203-a249-e411-b0cc-f8bc1246af59, $GPGGA,181846.00,4437.5842,N,12402.8840,W,2,12,0.8,33.6,M,-21.8,M,,*6A
2023-07-21T18:18:48.0884094Z, 6cda8203-a249-e411-b0cc-f8bc1246af59, $GPGGA,181847.00,4437.5842,N,12402.8841,W,2,12,0.8,33.7,M,-21.8,M,,*6B
2023-07-21T18:18:48.8084606Z, 6cda8203-a249-e411-b0cc-f8bc1246af59, $GPGGA,181848.00,4437.5844,N,12402.8845,W,2,12,0.8,33.7,M,-21.8,M,,*66
2023-07-21T18:18:50.0888933Z, 6cda8203-a249-e411-b0cc-f8bc1246af59, $GPGGA,181849.00,4437.5844,N,12402.8843,W,2,12,0.8,33.7,M,-21.8,M,,*61
2023-07-21T18:18:50.7580539Z, 6cda8203-a249-e411-b0cc-f8bc1246af59, $GPGGA,181850.00,4437.5843,N,12402.8842,W,2,12,0.8,33.8,M,-21.8,M,,*60
2023-07-21T18:18:52.0883007Z, 6cda8203-a249-e411-b0cc-f8bc1246af59, $GPGGA,181851.00,4437.5844,N,12402.8842,W,2,12,0.8,33.8,M,-21.8,M,,*66
2023-07-21T18:18:52.7583910Z, 6cda8203-a249-e411-b0cc-f8bc1246af59, $GPGGA,181852.00,4437.5843,N,12402.8841,W,2,12,0.8,33.8,M,-21.8,M,,*61
2023-07-21T18:18:54.0886418Z, 6cda8203-a249-e411-b0cc-f8bc1246af59, $GPGGA,181853.00,4437.5844,N,12402.8842,W,2,12,0.8,33.9,M,-21.8,M,,*65
2023-07-21T18:18:54.7584882Z, 6cda8203-a249-e411-b0cc-f8bc1246af59, $GPGGA,181854.00,4437.5845,N,12402.8843,W,2,12,0.8,33.9,M,-21.8,M,,*62
2023-07-21T18:18:56.0887206Z, 6cda8203-a249-e411-b0cc-f8bc1246af59, $GPGGA,181855.00,4437.5844,N,12402.8843,W,2,12,0.8,33.9,M,-21.8,M,,*62
2023-07-21T18:18:56.8085980Z, 6cda8203-a249-e411-b0cc-f8bc1246af59, $GPGGA,181856.00,4437.5845,N,12402.8842,W,2,12,0.8,33.9,M,-21.8,M,,*61
2023-07-21T18:18:58.0890696Z, 6cda8203-a249-e411-b0cc-f8bc1246af59, $GPGGA,181857.00,4437.5845,N,12402.8842,W,2,12,0.8,34.0,M,-21.8,M,,*6E
2023-07-21T18:18:58.8089326Z, 6cda8203-a249-e411-b0cc-f8bc1246af59, $GPGGA,181858.00,4437.5845,N,12402.8842,W,2,12,0.8,34.0,M,-21.8,M,,*61
2023-07-21T18:19:00.0893957Z, 6cda8203-a249-e411-b0cc-f8bc1246af59, $GPGGA,181859.00,4437.5846,N,12402.8842,W,2,12,0.8,34.1,M,-21.8,M,,*62
2023-07-21T18:19:00.7597294Z, 6cda8203-a249-e411-b0cc-f8bc1246af59, $GPGGA,181900.00,4437.5846,N,12402.8843,W,2,12,0.8,34.1,M,-21.8,M,,*6E
2023-07-21T18:19:01.4496947Z, 6cda8203-a249-e411-b0cc-f8bc1246af59, $GPGGA,181901.00,4437.5846,N,12402.8843,W,2,12,0.8,34.2,M,-21.8,M,,*6C
2023-07-21T18:19:03.0897397Z, 6cda8203-a249-e411-b0cc-f8bc1246af59, $GPGGA,181902.00,4437.5847,N,12402.8844,W,2,12,0.8,34.3,M,-21.8,M,,*68
2023-07-21T18:19:03.8195498Z, 6cda8203-a249-e411-b0cc-f8bc1246af59, $GPGGA,181903.00,4437.5847,N,12402.8845,W,2,12,0.8,34.3,M,-21.8,M,,*68
2023-07-21T18:19:05.0890394Z, 6cda8203-a249-e411-b0cc-f8bc1246af59, $GPGGA,181904.00,4437.5848,N,12402.8846,W,2,12,0.8,34.3,M,-21.8,M,,*63
2023-07-21T18:19:05.7690683Z, 6cda8203-a249-e411-b0cc-f8bc1246af59, $GPGGA,181905.00,4437.5849,N,12402.8847,W,2,12,0.8,34.4,M,-21.8,M,,*65
2023-07-21T18:19:07.0895129Z, 6cda8203-a249-e411-b0cc-f8bc1246af59, $GPGGA,181906.00,4437.5850,N,12402.8848,W,2,12,0.8,34.4,M,-21.8,M,,*61
2023-07-21T18:19:07.4599256Z, 6cda8203-a249-e411-b0cc-f8bc1246af59, $GPGGA,181907.00,4437.5850,N,12402.8849,W,2,12,0.8,34.4,M,-21.8,M,,*61
2023-07-21T18:19:09.0898590Z, 6cda8203-a249-e411-b0cc-f8bc1246af59, $GPGGA,181908.00,4437.5851,N,12402.8850,W,2,12,0.8,34.4,M,-21.8,M,,*67
2023-07-21T18:19:09.7698909Z, 6cda8203-a249-e411-b0cc-f8bc1246af59, $GPGGA,181909.00,4437.5851,N,12402.8850,W,2,12,0.8,34.5,M,-21.8,M,,*67
2023-07-21T18:19:11.0901935Z, 6cda8203-a249-e411-b0cc-f8bc1246af59, $GPGGA,181910.00,4437.5851,N,12402.8850,W,2,12,0.8,34.5,M,-21.8,M,,*6F
2023-07-21T18:19:11.7702470Z, 6cda8203-a249-e411-b0cc-f8bc1246af59, $GPGGA,181911.00,4437.5851,N,12402.8851,W,2,12,0.8,34.5,M,-21.8,M,,*6F
2023-07-21T18:19:13.0896256Z, 6cda8203-a249-e411-b0cc-f8bc1246af59, $GPGGA,181912.00,4437.5851,N,12402.8851,W,2,12,0.8,34.5,M,-21.8,M,,*6C
2023-07-21T18:19:13.9996892Z, 6cda8203-a249-e411-b0cc-f8bc1246af59, $GPGGA,181913.00,4437.5851,N,12402.8851,W,2,12,0.8,34.5,M,-21.8,M,,*6D
2023-07-21T18:19:15.0899804Z, 6cda8203-a249-e411-b0cc-f8bc1246af59, $GPGGA,181914.00,4437.5851,N,12402.8851,W,2,12,0.8,34.6,M,-21.8,M,,*69
2023-07-21T18:19:15.7700204Z, 6cda8203-a249-e411-b0cc-f8bc1246af59, $GPGGA,181915.00,4437.5851,N,12402.8851,W,2,12,0.8,34.6,M,-21.8,M,,*68
2023-07-21T18:19:17.0903060Z, 6cda8203-a249-e411-b0cc-f8bc1246af59, $GPGGA,181916.00,4437.5851,N,12402.8851,W,2,12,0.8,34.6,M,-21.8,M,,*6B
2023-07-21T18:19:17.7703596Z, 6cda8203-a249-e411-b0cc-f8bc1246af59, $GPGGA,181917.00,4437.5851,N,12402.8851,W,2,12,0.8,34.6,M,-21.8,M,,*6A
2023-07-21T18:19:19.1901635Z, 6cda8203-a249-e411-b0cc-f8bc1246af59, $GPGGA,181918.00,4437.5851,N,12402.8851,W,2,12,0.8,34.6,M,-21.8,M,,*65
2023-07-21T18:19:19.6810642Z, 6cda8203-a249-e411-b0cc-f8bc1246af59, $GPGGA,181919.00,4437.5851,N,12402.8851,W,2,12,0.8,34.6,M,-21.8,M,,*64
2023-07-21T18:19:21.0903881Z, 6cda8203-a249-e411-b0cc-f8bc1246af59, $GPGGA,181920.00,4437.5851,N,12402.8850,W,2,12,0.8,34.6,M,-21.8,M,,*6F
2023-07-21T18:19:21.4209617Z, 6cda8203-a249-e411-b0cc-f8bc1246af59, $GPGGA,181921.00,4437.5851,N,12402.8850,W,2,12,0.8,34.6,M,-21.8,M,,*6E
2023-07-21T18:19:23.0907149Z, 6cda8203-a249-e411-b0cc-f8bc1246af59, $GPGGA,181922.00,4437.5850,N,12402.8850,W,2,12,0.8,34.6,M,-21.8,M,,*6C
2023-07-21T18:19:23.4212943Z, 6cda8203-a249-e411-b0cc-f8bc1246af59, $GPGGA,181923.00,4437.5850,N,12402.8850,W,2,12,0.8,34.6,M,-21.8,M,,*6D
2023-07-21T18:19:24.4209605Z, 6cda8203-a249-e411-b0cc-f8bc1246af59, $GPGGA,181924.00,4437.5850,N,12402.8849,W,2,12,0.8,34.6,M,-21.8,M,,*62
2023-07-21T18:19:26.0906963Z, 6cda8203-a249-e411-b0cc-f8bc1246af59, $GPGGA,181925.00,4437.5850,N,12402.8849,W,2,12,0.8,34.6,M,-21.8,M,,*63
2023-07-21T18:19:26.4212792Z, 6cda8203-a249-e411-b0cc-f8bc1246af59, $GPGGA,181926.00,4437.5849,N,12402.8849,W,2,12,0.8,34.6,M,-21.8,M,,*68
2023-07-21T18:19:28.0914559Z, 6cda8203-a249-e411-b0cc-f8bc1246af59, $GPGGA,181927.00,4437.5849,N,12402.8848,W,2,12,0.8,34.6,M,-21.8,M,,*68
2023-07-21T18:19:28.4211667Z, 6cda8203-a249-e411-b0cc-f8bc1246af59, $GPGGA,181928.00,4437.5849,N,12402.8848,W,2,12,0.8,34.6,M,-21.8,M,,*67
2023-07-21T18:19:30.0914735Z, 6cda8203-a249-e411-b0cc-f8bc1246af59, $GPGGA,181929.00,4437.5848,N,12402.8847,W,2,12,0.8,34.6,M,-21.8,M,,*68
2023-07-21T18:19:30.8712362Z, 6cda8203-a249-e411-b0cc-f8bc1246af59, $GPGGA,181930.00,4437.5848,N,12402.8847,W,2,12,0.8,34.6,M,-21.8,M,,*60
2023-07-21T18:19:32.0919770Z, 6cda8203-a249-e411-b0cc-f8bc1246af59, $GPGGA,181931.00,4437.5848,N,12402.8847,W,2,12,0.8,34.5,M,-21.8,M,,*62
2023-07-21T18:19:32.4314595Z, 6cda8203-a249-e411-b0cc-f8bc1246af59, $GPGGA,181932.00,4437.5848,N,12402.8847,W,2,12,0.8,34.5,M,-21.8,M,,*61
2023-07-21T18:19:33.4311776Z, 6cda8203-a249-e411-b0cc-f8bc1246af59, $GPGGA,181933.00,4437.5848,N,12402.8846,W,2,12,0.8,34.5,M,-21.8,M,,*61
2023-07-21T18:19:35.0920253Z, 6cda8203-a249-e411-b0cc-f8bc1246af59, $GPGGA,181934.00,4437.5848,N,12402.8846,W,2,12,0.8,34.5,M,-21.8,M,,*66
2023-07-21T18:19:35.4315413Z, 6cda8203-a249-e411-b0cc-f8bc1246af59, $GPGGA,181935.00,4437.5848,N,12402.8846,W,2,12,0.8,34.5,M,-21.8,M,,*67
2023-07-21T18:19:37.0913231Z, 6cda8203-a249-e411-b0cc-f8bc1246af59, $GPGGA,181936.00,4437.5848,N,12402.8846,W,2,12,0.8,34.4,M,-21.8,M,,*65
2023-07-21T18:19:37.4617352Z, 6cda8203-a249-e411-b0cc-f8bc1246af59, $GPGGA,181937.00,4437.5848,N,12402.8846,W,2,12,0.8,34.4,M,-21.8,M,,*64
2023-07-21T18:19:38.4315221Z, 6cda8203-a249-e411-b0cc-f8bc1246af59, $GPGGA,181938.00,4437.5848,N,12402.8846,W,2,12,0.8,34.4,M,-21.8,M,,*6B
2023-07-21T18:19:40.0923793Z, 6cda8203-a249-e411-b0cc-f8bc1246af59, $GPGGA,181939.00,4437.5847,N,12402.8846,W,2,12,0.8,34.3,M,-21.8,M,,*62
2023-07-21T18:19:40.4318569Z, 6cda8203-a249-e411-b0cc-f8bc1246af59, $GPGGA,181940.00,4437.5848,N,12402.8846,W,2,12,0.8,34.3,M,-21.8,M,,*63
2023-07-21T18:19:42.0518204Z, 6cda8203-a249-e411-b0cc-f8bc1246af59, $GPGGA,181941.00,4437.5847,N,12402.8847,W,2,12,0.8,34.2,M,-21.8,M,,*6D
2023-07-21T18:19:43.0923346Z, 6cda8203-a249-e411-b0cc-f8bc1246af59, $GPGGA,181942.00,4437.5848,N,12402.8847,W,2,12,0.8,34.2,M,-21.8,M,,*61
2023-07-21T18:19:43.4318333Z, 6cda8203-a249-e411-b0cc-f8bc1246af59, $GPGGA,181943.00,4437.5848,N,12402.8848,W,2,12,0.8,34.1,M,-21.8,M,,*6C
2023-07-21T18:19:44.4325154Z, 6cda8203-a249-e411-b0cc-f8bc1246af59, $GPGGA,181944.00,4437.5848,N,12402.8850,W,2,12,0.8,34.0,M,-21.8,M,,*63
2023-07-21T18:19:46.0919466Z, 6cda8203-a249-e411-b0cc-f8bc1246af59, $GPGGA,181945.00,4437.5848,N,12402.8851,W,2,12,0.8,34.0,M,-21.8,M,,*63
2023-07-21T18:19:46.4325036Z, 6cda8203-a249-e411-b0cc-f8bc1246af59, $GPGGA,181946.00,4437.5848,N,12402.8853,W,2,12,0.8,33.9,M,-21.8,M,,*6C
2023-07-21T18:19:48.1829836Z, 6cda8203-a249-e411-b0cc-f8bc1246af59, $GPGGA,181947.00,4437.5848,N,12402.8853,W,2,12,0.8,33.9,M,-21.8,M,,*6D
2023-07-21T18:19:48.6926025Z, 6cda8203-a249-e411-b0cc-f8bc1246af59, $GPGGA,181948.00,4437.5849,N,12402.8854,W,2,12,0.8,33.9,M,-21.8,M,,*64
2023-07-21T18:19:49.4323946Z, 6cda8203-a249-e411-b0cc-f8bc1246af59, $GPGGA,181949.00,4437.5849,N,12402.8856,W,2,12,0.8,33.8,M,-21.8,M,,*66
2023-07-21T18:19:51.0924194Z, 6cda8203-a249-e411-b0cc-f8bc1246af59, $GPGGA,181950.00,4437.5850,N,12402.8858,W,2,12,0.8,33.8,M,-21.8,M,,*68
2023-07-21T18:19:51.4324055Z, 6cda8203-a249-e411-b0cc-f8bc1246af59, $GPGGA,181951.00,4437.5850,N,12402.8859,W,2,12,0.8,33.7,M,-21.8,M,,*67
2023-07-21T18:19:52.4333703Z, 6cda8203-a249-e411-b0cc-f8bc1246af59, $GPGGA,181952.00,4437.5851,N,12402.8861,W,2,12,0.8,33.7,M,-21.8,M,,*6E
2023-07-21T18:19:54.2733846Z, 6cda8203-a249-e411-b0cc-f8bc1246af59, $GPGGA,181953.00,4437.5851,N,12402.8863,W,2,12,0.8,33.6,M,-21.8,M,,*6C
2023-07-21T18:19:54.6925213Z, 6cda8203-a249-e411-b0cc-f8bc1246af59, $GPGGA,181954.00,4437.5852,N,12402.8865,W,2,12,0.8,33.6,M,-21.8,M,,*6E
2023-07-21T18:19:56.0936239Z, 6cda8203-a249-e411-b0cc-f8bc1246af59, $GPGGA,181955.00,4437.5852,N,12402.8866,W,2,12,0.8,33.5,M,-21.8,M,,*6F
2023-07-21T18:19:56.4430583Z, 6cda8203-a249-e411-b0cc-f8bc1246af59, $GPGGA,181956.00,4437.5853,N,12402.8867,W,2,12,0.8,33.5,M,-21.8,M,,*6C
2023-07-21T18:19:58.0933488Z, 6cda8203-a249-e411-b0cc-f8bc1246af59, $GPGGA,181957.00,4437.5853,N,12402.8868,W,2,12,0.8,33.4,M,-21.8,M,,*63
2023-07-21T18:19:58.4427844Z, 6cda8203-a249-e411-b0cc-f8bc1246af59, $GPGGA,181958.00,4437.5853,N,12402.8869,W,2,12,0.8,33.4,M,-21.8,M,,*6D
2023-07-21T18:19:59.8338044Z, 6cda8203-a249-e411-b0cc-f8bc1246af59, $GPGGA,181959.00,4437.5854,N,12402.8869,W,2,12,0.8,33.4,M,-21.8,M,,*6B
2023-07-21T18:20:01.0933265Z, 6cda8203-a249-e411-b0cc-f8bc1246af59, $GPGGA,182000.00,4437.5854,N,12402.8870,W,2,12,0.8,33.3,M,-21.8,M,,*62
2023-07-21T18:20:01.4438319Z, 6cda8203-a249-e411-b0cc-f8bc1246af59, $GPGGA,182001.00,4437.5854,N,12402.8870,W,2,12,0.8,33.3,M,-21.8,M,,*63
2023-07-21T18:20:02.4435615Z, 6cda8203-a249-e411-b0cc-f8bc1246af59, $GPGGA,182002.00,4437.5854,N,12402.8869,W,2,11,0.8,33.3,M,-21.8,M,,*6B
2023-07-21T18:20:04.0933913Z, 6cda8203-a249-e411-b0cc-f8bc1246af59, $GPGGA,182003.00,4437.5854,N,12402.8870,W,2,11,0.8,33.3,M,-21.8,M,,*62
2023-07-21T18:20:04.4439621Z, 6cda8203-a249-e411-b0cc-f8bc1246af59, $GPGGA,182004.00,4437.5854,N,12402.8869,W,2,11,0.8,33.3,M,-21.8,M,,*6D
2023-07-21T18:20:05.9340976Z, 6cda8203-a249-e411-b0cc-f8bc1246af59, $GPGGA,182005.00,4437.5854,N,12402.8870,W,2,11,0.8,33.3,M,-21.8,M,,*64
2023-07-21T18:20:07.0940704Z, 6cda8203-a249-e411-b0cc-f8bc1246af59, $GPGGA,182006.00,4437.5854,N,12402.8869,W,2,11,0.8,33.3,M,-21.8,M,,*6F
2023-07-21T18:20:07.7442498Z, 6cda8203-a249-e411-b0cc-f8bc1246af59, $GPGGA,182007.00,4437.5854,N,12402.8870,W,2,11,0.8,33.3,M,-21.8,M,,*66
2023-07-21T18:20:08.4442150Z, 6cda8203-a249-e411-b0cc-f8bc1246af59, $GPGGA,182008.00,4437.5854,N,12402.8870,W,2,11,0.8,33.3,M,-21.8,M,,*69
2023-07-21T18:20:09.4440104Z, 6cda8203-a249-e411-b0cc-f8bc1246af59, $GPGGA,182009.00,4437.5854,N,12402.8870,W,2,11,0.8,33.2,M,-21.8,M,,*69
2023-07-21T18:20:10.4436477Z, 6cda8203-a249-e411-b0cc-f8bc1246af59, $GPGGA,182010.00,4437.5854,N,12402.8869,W,2,11,0.8,33.2,M,-21.8,M,,*69
2023-07-21T18:20:12.6540518Z, 6cda8203-a249-e411-b0cc-f8bc1246af59, $GPGGA,182012.00,4437.5855,N,12402.8869,W,2,11,0.8,33.1,M,-21.8,M,,*69
2023-07-21T18:20:13.4440934Z, 6cda8203-a249-e411-b0cc-f8bc1246af59, $GPGGA,182013.00,4437.5855,N,12402.8867,W,2,11,0.8,33.0,M,-21.8,M,,*67
2023-07-21T18:20:14.4447723Z, 6cda8203-a249-e411-b0cc-f8bc1246af59, $GPGGA,182014.00,4437.5855,N,12402.8867,W,2,11,0.8,32.9,M,-21.8,M,,*68
2023-07-21T18:20:15.4445149Z, 6cda8203-a249-e411-b0cc-f8bc1246af59, $GPGGA,182015.00,4437.5855,N,12402.8865,W,2,11,0.8,32.8,M,-21.8,M,,*6A
2023-07-21T18:20:16.4441338Z, 6cda8203-a249-e411-b0cc-f8bc1246af59, $GPGGA,182016.00,4437.5856,N,12402.8864,W,2,11,0.8,32.8,M,-21.8,M,,*6B
2023-07-21T18:20:18.0951415Z, 6cda8203-a249-e411-b0cc-f8bc1246af59, $GPGGA,182017.00,4437.5855,N,12402.8862,W,2,11,0.8,32.7,M,-21.8,M,,*60
2023-07-21T18:20:18.4446247Z, 6cda8203-a249-e411-b0cc-f8bc1246af59, $GPGGA,182018.00,4437.5855,N,12402.8861,W,2,11,0.8,32.7,M,-21.8,M,,*6C
2023-07-21T18:20:19.4452856Z, 6cda8203-a249-e411-b0cc-f8bc1246af59, $GPGGA,182019.00,4437.5855,N,12402.8859,W,2,11,0.8,32.6,M,-21.8,M,,*67
2023-07-21T18:20:20.4548782Z, 6cda8203-a249-e411-b0cc-f8bc1246af59, $GPGGA,182020.00,4437.5855,N,12402.8858,W,2,11,0.8,32.6,M,-21.8,M,,*6C
2023-07-21T18:20:21.4447568Z, 6cda8203-a249-e411-b0cc-f8bc1246af59, $GPGGA,182021.00,4437.5855,N,12402.8857,W,2,11,0.8,32.6,M,-21.8,M,,*62
2023-07-21T18:20:23.0945843Z, 6cda8203-a249-e411-b0cc-f8bc1246af59, $GPGGA,182022.00,4437.5856,N,12402.8855,W,2,11,0.8,32.6,M,-21.8,M,,*60
2023-07-21T18:20:23.4550291Z, 6cda8203-a249-e411-b0cc-f8bc1246af59, $GPGGA,182023.00,4437.5855,N,12402.8854,W,2,11,0.8,32.5,M,-21.8,M,,*60
2023-07-21T18:20:25.0053343Z, 6cda8203-a249-e411-b0cc-f8bc1246af59, $GPGGA,182024.00,4437.5856,N,12402.8853,W,2,11,0.8,32.5,M,-21.8,M,,*63
2023-07-21T18:20:26.0956068Z, 6cda8203-a249-e411-b0cc-f8bc1246af59, $GPGGA,182025.00,4437.5855,N,12402.8851,W,2,11,0.8,32.5,M,-21.8,M,,*63
2023-07-21T18:20:26.4550087Z, 6cda8203-a249-e411-b0cc-f8bc1246af59, $GPGGA,182026.00,4437.5855,N,12402.8850,W,2,11,0.8,32.5,M,-21.8,M,,*61
2023-07-21T18:20:27.4556833Z, 6cda8203-a249-e411-b0cc-f8bc1246af59, $GPGGA,182027.00,4437.5855,N,12402.8849,W,2,11,0.8,32.4,M,-21.8,M,,*69
2023-07-21T18:20:28.4554828Z, 6cda8203-a249-e411-b0cc-f8bc1246af59, $GPGGA,182028.00,4437.5854,N,12402.8847,W,2,11,0.8,32.4,M,-21.8,M,,*69
2023-07-21T18:20:29.4551281Z, 6cda8203-a249-e411-b0cc-f8bc1246af59, $GPGGA,182029.00,4437.5854,N,12402.8846,W,2,12,0.8,32.4,M,-21.8,M,,*6A
2023-07-21T18:20:30.4558039Z, 6cda8203-a249-e411-b0cc-f8bc1246af59, $GPGGA,182030.00,4437.5854,N,12402.8846,W,2,12,0.8,32.4,M,-21.8,M,,*62
2023-07-21T18:20:31.8258767Z, 6cda8203-a249-e411-b0cc-f8bc1246af59, $GPGGA,182031.00,4437.5853,N,12402.8845,W,2,12,0.8,32.4,M,-21.8,M,,*67
2023-07-21T18:20:33.0957937Z, 6cda8203-a249-e411-b0cc-f8bc1246af59, $GPGGA,182032.00,4437.5852,N,12402.8844,W,2,12,0.8,32.4,M,-21.8,M,,*64
2023-07-21T18:20:33.4562531Z, 6cda8203-a249-e411-b0cc-f8bc1246af59, $GPGGA,182033.00,4437.5851,N,12402.8842,W,2,12,0.8,32.4,M,-21.8,M,,*60
2023-07-21T18:20:34.4559417Z, 6cda8203-a249-e411-b0cc-f8bc1246af59, $GPGGA,182034.00,4437.5850,N,12402.8841,W,2,12,0.8,32.4,M,-21.8,M,,*65
2023-07-21T18:20:35.4557805Z, 6cda8203-a249-e411-b0cc-f8bc1246af59, $GPGGA,182035.00,4437.5849,N,12402.8840,W,2,12,0.8,32.5,M,-21.8,M,,*6C
2023-07-21T18:20:36.4564387Z, 6cda8203-a249-e411-b0cc-f8bc1246af59, $GPGGA,182036.00,4437.5849,N,12402.8839,W,2,12,0.8,32.5,M,-21.8,M,,*61
2023-07-21T18:20:38.0965024Z, 6cda8203-a249-e411-b0cc-f8bc1246af59, $GPGGA,182037.00,4437.5848,N,12402.8839,W,2,12,0.8,32.5,M,-21.8,M,,*61
2023-07-21T18:20:38.4559364Z, 6cda8203-a249-e411-b0cc-f8bc1246af59, $GPGGA,182038.00,4437.5847,N,12402.8838,W,2,12,0.8,32.5,M,-21.8,M,,*60
2023-07-21T18:20:39.4566006Z, 6cda8203-a249-e411-b0cc-f8bc1246af59, $GPGGA,182039.00,4437.5847,N,12402.8837,W,2,12,0.8,32.5,M,-21.8,M,,*6E
2023-07-21T18:20:41.0966496Z, 6cda8203-a249-e411-b0cc-f8bc1246af59, $GPGGA,182040.00,4437.5846,N,12402.8836,W,2,12,0.8,32.5,M,-21.8,M,,*60
2023-07-21T18:20:41.4560760Z, 6cda8203-a249-e411-b0cc-f8bc1246af59, $GPGGA,182041.00,4437.5846,N,12402.8836,W,2,12,0.8,32.6,M,-21.8,M,,*62
2023-07-21T18:20:42.4567540Z, 6cda8203-a249-e411-b0cc-f8bc1246af59, $GPGGA,182042.00,4437.5845,N,12402.8835,W,2,12,0.8,32.6,M,-21.8,M,,*61
2023-07-21T18:20:44.0962633Z, 6cda8203-a249-e411-b0cc-f8bc1246af59, $GPGGA,182043.00,4437.5845,N,12402.8835,W,2,12,0.8,32.7,M,-21.8,M,,*61
2023-07-21T18:20:44.6667908Z, 6cda8203-a249-e411-b0cc-f8bc1246af59, $GPGGA,182044.00,4437.5844,N,12402.8834,W,2,12,0.8,32.7,M,-21.8,M,,*66
2023-07-21T18:20:46.0963940Z, 6cda8203-a249-e411-b0cc-f8bc1246af59, $GPGGA,182045.00,4437.5844,N,12402.8834,W,2,12,0.8,32.8,M,-21.8,M,,*68
2023-07-21T18:20:46.4568422Z, 6cda8203-a249-e411-b0cc-f8bc1246af59, $GPGGA,182046.00,4437.5844,N,12402.8834,W,2,12,0.8,32.8,M,-21.8,M,,*6B
2023-07-21T18:20:47.4664233Z, 6cda8203-a249-e411-b0cc-f8bc1246af59, $GPGGA,182047.00,4437.5844,N,12402.8833,W,2,12,0.8,32.8,M,-21.8,M,,*6D
2023-07-21T18:20:48.4571768Z, 6cda8203-a249-e411-b0cc-f8bc1246af59, $GPGGA,182048.00,4437.5844,N,12402.8834,W,2,12,0.8,32.8,M,-21.8,M,,*65
