ACQ Timestamp (Server Time in UTC), MessageID, Data Value For: GNSS-6452-$GPGGA
2023-08-27T17:19:00.0949741Z, 6cda8203-a249-e411-b0cc-f8bc1246af59, $GPGGA,171859.00,4807.5264,N,12326.6213,W,2,11,0.8,26.9,M,-18.5,M,,*66
2023-08-27T17:19:00.4255222Z, 6cda8203-a249-e411-b0cc-f8bc1246af59, $GPGGA,171900.00,4807.5265,N,12326.6214,W,2,11,0.8,26.8,M,-18.5,M,,*6C
2023-08-27T17:19:02.0954264Z, 6cda8203-a249-e411-b0cc-f8bc1246af59, $GPGGA,171901.00,4807.5265,N,12326.6215,W,2,11,0.8,26.7,M,-18.5,M,,*63
2023-08-27T17:19:02.4256389Z, 6cda8203-a249-e411-b0cc-f8bc1246af59, $GPGGA,171902.00,4807.5266,N,12326.6216,W,2,11,0.8,26.6,M,-18.5,M,,*61
2023-08-27T17:19:03.3848720Z, 6cda8203-a249-e411-b0cc-f8bc1246af59, $GPGGA,171903.00,4807.5267,N,12326.6217,W,2,11,0.8,26.5,M,-18.5,M,,*63
2023-08-27T17:19:04.2351579Z, 6cda8203-a249-e411-b0cc-f8bc1246af59, $GPGGA,171904.00,4807.5267,N,12326.6218,W,2,11,0.8,26.4,M,-18.5,M,,*6A
2023-08-27T17:19:06.0955354Z, 6cda8203-a249-e411-b0cc-f8bc1246af59, $GPGGA,171905.00,4807.5267,N,12326.6219,W,2,11,0.8,26.3,M,-18.5,M,,*6D
2023-08-27T17:19:06.4252642Z, 6cda8203-a249-e411-b0cc-f8bc1246af59, $GPGGA,171906.00,4807.5268,N,12326.6220,W,2,11,0.8,26.2,M,-18.5,M,,*6A
2023-08-27T17:19:07.2350778Z, 6cda8203-a249-e411-b0cc-f8bc1246af59, $GPGGA,171907.00,4807.5269,N,12326.6221,W,2,11,0.8,26.1,M,-18.5,M,,*68
2023-08-27T17:19:09.0958694Z, 6cda8203-a249-e411-b0cc-f8bc1246af59, $GPGGA,171908.00,4807.5269,N,12326.6221,W,2,11,0.8,26.0,M,-18.5,M,,*66
2023-08-27T17:19:09.4254173Z, 6cda8203-a249-e411-b0cc-f8bc1246af59, $GPGGA,171909.00,4807.5270,N,12326.6222,W,2,11,0.8,25.9,M,-18.5,M,,*66
2023-08-27T17:19:10.2358736Z, 6cda8203-a249-e411-b0cc-f8bc1246af59, $GPGGA,171910.00,4807.5270,N,12326.6223,W,2,11,0.8,25.8,M,-18.5,M,,*6E
2023-08-27T17:19:12.1057218Z, 6cda8203-a249-e411-b0cc-f8bc1246af59, $GPGGA,171911.00,4807.5272,N,12326.6229,W,2,11,0.8,25.6,M,-18.5,M,,*69
2023-08-27T17:19:12.4263713Z, 6cda8203-a249-e411-b0cc-f8bc1246af59, $GPGGA,171912.00,4807.5273,N,12326.6229,W,2,11,0.8,25.4,M,-18.5,M,,*69
2023-08-27T17:19:13.2358966Z, 6cda8203-a249-e411-b0cc-f8bc1246af59, $GPGGA,171913.00,4807.5273,N,12326.6228,W,2,11,0.8,25.2,M,-18.5,M,,*6F
2023-08-27T17:19:15.0962930Z, 6cda8203-a249-e411-b0cc-f8bc1246af59, $GPGGA,171914.00,4807.5274,N,12326.6228,W,2,11,0.8,25.0,M,-18.5,M,,*6D
2023-08-27T17:19:15.4261327Z, 6cda8203-a249-e411-b0cc-f8bc1246af59, $GPGGA,171915.00,4807.5274,N,12326.6227,W,2,11,0.8,24.9,M,-18.5,M,,*6B
2023-08-27T17:19:16.2465004Z, 6cda8203-a249-e411-b0cc-f8bc1246af59, $GPGGA,171916.00,4807.5274,N,12326.6227,W,2,11,0.8,24.7,M,-18.5,M,,*66
2023-08-27T17:19:18.1908394Z, 6cda8203-a249-e411-b0cc-f8bc1246af59, $GPGGA,171917.00,4807.5274,N,12326.6227,W,2,11,0.8,24.6,M,-18.5,M,,*66
2023-08-27T17:19:18.6375875Z, 6cda8203-a249-e411-b0cc-f8bc1246af59, $GPGGA,171918.00,4807.5274,N,12326.6226,W,2,11,0.8,24.5,M,-18.5,M,,*6B
2023-08-27T17:19:19.2337568Z, 6cda8203-a249-e411-b0cc-f8bc1246af59, $GPGGA,171919.00,4807.5274,N,12326.6226,W,2,11,0.8,24.3,M,-18.5,M,,*6C
2023-08-27T17:19:21.0820250Z, 6cda8203-a249-e411-b0cc-f8bc1246af59, $GPGGA,171920.00,4807.5274,N,12326.6226,W,2,11,0.8,24.2,M,-18.5,M,,*67
2023-08-27T17:19:21.4116366Z, 6cda8203-a249-e411-b0cc-f8bc1246af59, $GPGGA,171921.00,4807.5274,N,12326.6226,W,2,11,0.8,24.1,M,-18.5,M,,*65
2023-08-27T17:19:22.2320566Z, 6cda8203-a249-e411-b0cc-f8bc1246af59, $GPGGA,171922.00,4807.5274,N,12326.6226,W,2,11,0.8,24.0,M,-18.5,M,,*67
2023-08-27T17:19:24.2624121Z, 6cda8203-a249-e411-b0cc-f8bc1246af59, $GPGGA,171923.00,4807.5274,N,12326.6226,W,2,11,0.8,23.9,M,-18.5,M,,*68
2023-08-27T17:19:24.4121898Z, 6cda8203-a249-e411-b0cc-f8bc1246af59, $GPGGA,171924.00,4807.5274,N,12326.6226,W,2,11,0.8,23.9,M,-18.5,M,,*6F
2023-08-27T17:19:25.2319435Z, 6cda8203-a249-e411-b0cc-f8bc1246af59, $GPGGA,171925.00,4807.5275,N,12326.6226,W,2,11,0.8,23.8,M,-18.5,M,,*6E
2023-08-27T17:19:26.3919182Z, 6cda8203-a249-e411-b0cc-f8bc1246af59, $GPGGA,171926.00,4807.5275,N,12326.6226,W,2,11,0.8,23.7,M,-18.5,M,,*62
2023-08-27T17:19:27.2323351Z, 6cda8203-a249-e411-b0cc-f8bc1246af59, $GPGGA,171927.00,4807.5275,N,12326.6227,W,2,11,0.8,23.7,M,-18.5,M,,*62
2023-08-27T17:19:28.2319466Z, 6cda8203-a249-e411-b0cc-f8bc1246af59, $GPGGA,171928.00,4807.5276,N,12326.6226,W,2,11,0.8,23.6,M,-18.5,M,,*6E
2023-08-27T17:19:30.2721947Z, 6cda8203-a249-e411-b0cc-f8bc1246af59, $GPGGA,171929.00,4807.5276,N,12326.6227,W,2,11,0.8,23.6,M,-18.5,M,,*6E
2023-08-27T17:19:30.6923524Z, 6cda8203-a249-e411-b0cc-f8bc1246af59, $GPGGA,171930.00,4807.5277,N,12326.6227,W,2,11,0.8,23.6,M,-18.5,M,,*67
2023-08-27T17:19:32.0830025Z, 6cda8203-a249-e411-b0cc-f8bc1246af59, $GPGGA,171931.00,4807.5278,N,12326.6227,W,2,11,0.8,23.5,M,-18.5,M,,*6A
2023-08-27T17:19:32.4126191Z, 6cda8203-a249-e411-b0cc-f8bc1246af59, $GPGGA,171932.00,4807.5279,N,12326.6228,W,2,11,0.8,23.5,M,-18.5,M,,*67
2023-08-27T17:19:33.2330359Z, 6cda8203-a249-e411-b0cc-f8bc1246af59, $GPGGA,171933.00,4807.5279,N,12326.6228,W,2,11,0.8,23.5,M,-18.5,M,,*66
2023-08-27T17:19:34.4029527Z, 6cda8203-a249-e411-b0cc-f8bc1246af59, $GPGGA,171934.00,4807.5281,N,12326.6229,W,2,11,0.8,23.6,M,-18.5,M,,*64
2023-08-27T17:19:35.2326350Z, 6cda8203-a249-e411-b0cc-f8bc1246af59, $GPGGA,171935.00,4807.5280,N,12326.6228,W,2,11,0.8,23.5,M,-18.5,M,,*66
2023-08-27T17:19:36.8725956Z, 6cda8203-a249-e411-b0cc-f8bc1246af59, $GPGGA,171936.00,4807.5279,N,12326.6227,W,2,11,0.8,23.5,M,-18.5,M,,*6C
2023-08-27T17:19:37.4032989Z, 6cda8203-a249-e411-b0cc-f8bc1246af59, $GPGGA,171937.00,4807.5279,N,12326.6226,W,2,11,0.8,23.4,M,-18.5,M,,*6D
2023-08-27T17:19:38.2332736Z, 6cda8203-a249-e411-b0cc-f8bc1246af59, $GPGGA,171938.00,4807.5278,N,12326.6226,W,2,11,0.8,23.3,M,-18.5,M,,*64
2023-08-27T17:19:39.2428534Z, 6cda8203-a249-e411-b0cc-f8bc1246af59, $GPGGA,171939.00,4807.5278,N,12326.6225,W,2,11,0.8,23.3,M,-18.5,M,,*66
2023-08-27T17:19:40.4028729Z, 6cda8203-a249-e411-b0cc-f8bc1246af59, $GPGGA,171940.00,4807.5278,N,12326.6224,W,2,11,0.8,23.2,M,-18.5,M,,*68
2023-08-27T17:19:41.2334809Z, 6cda8203-a249-e411-b0cc-f8bc1246af59, $GPGGA,171941.00,4807.5277,N,12326.6224,W,2,11,0.8,23.2,M,-18.5,M,,*66
2023-08-27T17:19:42.2438361Z, 6cda8203-a249-e411-b0cc-f8bc1246af59, $GPGGA,171942.00,4807.5278,N,12326.6224,W,2,11,0.8,23.2,M,-18.5,M,,*6A
2023-08-27T17:19:44.0837453Z, 6cda8203-a249-e411-b0cc-f8bc1246af59, $GPGGA,171943.00,4807.5277,N,12326.6224,W,2,11,0.8,23.2,M,-18.5,M,,*64
2023-08-27T17:19:44.4133319Z, 6cda8203-a249-e411-b0cc-f8bc1246af59, $GPGGA,171944.00,4807.5277,N,12326.6223,W,2,11,0.8,23.2,M,-18.5,M,,*64
2023-08-27T17:19:45.2436666Z, 6cda8203-a249-e411-b0cc-f8bc1246af59, $GPGGA,171945.00,4807.5277,N,12326.6224,W,2,11,0.8,23.1,M,-18.5,M,,*61
2023-08-27T17:19:46.4034450Z, 6cda8203-a249-e411-b0cc-f8bc1246af59, $GPGGA,171946.00,4807.5277,N,12326.6224,W,2,11,0.8,23.1,M,-18.5,M,,*62
2023-08-27T17:19:47.2437787Z, 6cda8203-a249-e411-b0cc-f8bc1246af59, $GPGGA,171947.00,4807.5276,N,12326.6223,W,2,11,0.8,23.1,M,-18.5,M,,*65
2023-08-27T17:19:48.2441620Z, 6cda8203-a249-e411-b0cc-f8bc1246af59, $GPGGA,171948.00,4807.5276,N,12326.6223,W,2,11,0.8,23.1,M,-18.5,M,,*6A
2023-08-27T17:19:50.0838931Z, 6cda8203-a249-e411-b0cc-f8bc1246af59, $GPGGA,171949.00,4807.5276,N,12326.6223,W,2,11,0.8,23.1,M,-18.5,M,,*6B
2023-08-27T17:19:50.4135493Z, 6cda8203-a249-e411-b0cc-f8bc1246af59, $GPGGA,171950.00,4807.5275,N,12326.6223,W,2,11,0.8,23.0,M,-18.5,M,,*61
2023-08-27T17:19:51.2445041Z, 6cda8203-a249-e411-b0cc-f8bc1246af59, $GPGGA,171951.00,4807.5275,N,12326.6223,W,2,11,0.8,23.0,M,-18.5,M,,*60
2023-08-27T17:19:52.4042522Z, 6cda8203-a249-e411-b0cc-f8bc1246af59, $GPGGA,171952.00,4807.5274,N,12326.6222,W,2,11,0.8,23.0,M,-18.5,M,,*63
2023-08-27T17:19:53.2442324Z, 6cda8203-a249-e411-b0cc-f8bc1246af59, $GPGGA,171953.00,4807.5274,N,12326.6221,W,2,11,0.8,23.0,M,-18.5,M,,*61
2023-08-27T17:19:55.2246601Z, 6cda8203-a249-e411-b0cc-f8bc1246af59, $GPGGA,171954.00,4807.5274,N,12326.6221,W,2,11,0.8,23.0,M,-18.5,M,,*66
2023-08-27T17:19:55.6547737Z, 6cda8203-a249-e411-b0cc-f8bc1246af59, $GPGGA,171955.00,4807.5274,N,12326.6219,W,2,11,0.8,23.0,M,-18.5,M,,*6C
2023-08-27T17:19:56.2442311Z, 6cda8203-a249-e411-b0cc-f8bc1246af59, $GPGGA,171956.00,4807.5274,N,12326.6219,W,2,11,0.8,23.0,M,-18.5,M,,*6F
2023-08-27T17:19:57.4141391Z, 6cda8203-a249-e411-b0cc-f8bc1246af59, $GPGGA,171957.00,4807.5274,N,12326.6218,W,2,11,0.8,23.0,M,-18.5,M,,*6F
2023-08-27T17:19:58.2441580Z, 6cda8203-a249-e411-b0cc-f8bc1246af59, $GPGGA,171958.00,4807.5274,N,12326.6217,W,2,11,0.8,23.0,M,-18.5,M,,*6F
2023-08-27T17:20:00.0841522Z, 6cda8203-a249-e411-b0cc-f8bc1246af59, $GPGGA,171959.00,4807.5274,N,12326.6217,W,2,11,0.8,23.0,M,-18.5,M,,*6E
2023-08-27T17:20:00.4147532Z, 6cda8203-a249-e411-b0cc-f8bc1246af59, $GPGGA,172000.00,4807.5274,N,12326.6217,W,2,11,0.8,23.0,M,-18.5,M,,*68
2023-08-27T17:20:01.8445396Z, 6cda8203-a249-e411-b0cc-f8bc1246af59, $GPGGA,172001.00,4807.5275,N,12326.6216,W,2,11,0.8,23.1,M,-18.5,M,,*68
2023-08-27T17:20:03.0852670Z, 6cda8203-a249-e411-b0cc-f8bc1246af59, $GPGGA,172002.00,4807.5275,N,12326.6216,W,2,11,0.8,23.1,M,-18.5,M,,*6B
2023-08-27T17:20:03.4148825Z, 6cda8203-a249-e411-b0cc-f8bc1246af59, $GPGGA,172003.00,4807.5275,N,12326.6216,W,2,11,0.8,23.1,M,-18.5,M,,*6A
2023-08-27T17:20:04.2453383Z, 6cda8203-a249-e411-b0cc-f8bc1246af59, $GPGGA,172004.00,4807.5276,N,12326.6217,W,2,11,0.8,23.2,M,-18.5,M,,*6C
2023-08-27T17:20:05.2546067Z, 6cda8203-a249-e411-b0cc-f8bc1246af59, $GPGGA,172005.00,4807.5276,N,12326.6216,W,2,11,0.8,23.2,M,-18.5,M,,*6C
2023-08-27T17:20:06.4150788Z, 6cda8203-a249-e411-b0cc-f8bc1246af59, $GPGGA,172006.00,4807.5276,N,12326.6216,W,2,11,0.8,23.3,M,-18.5,M,,*6E
2023-08-27T17:20:07.2556079Z, 6cda8203-a249-e411-b0cc-f8bc1246af59, $GPGGA,172007.00,4807.5275,N,12326.6214,W,2,11,0.8,23.3,M,-18.5,M,,*6E
2023-08-27T17:20:08.2554734Z, 6cda8203-a249-e411-b0cc-f8bc1246af59, $GPGGA,172008.00,4807.5276,N,12326.6215,W,2,11,0.8,23.4,M,-18.5,M,,*64
2023-08-27T17:20:09.4155106Z, 6cda8203-a249-e411-b0cc-f8bc1246af59, $GPGGA,172009.00,4807.5276,N,12326.6214,W,2,11,0.8,23.4,M,-18.5,M,,*64
2023-08-27T17:20:10.2557542Z, 6cda8203-a249-e411-b0cc-f8bc1246af59, $GPGGA,172010.00,4807.5277,N,12326.6215,W,2,11,0.8,23.5,M,-18.5,M,,*6D
2023-08-27T17:20:11.4157594Z, 6cda8203-a249-e411-b0cc-f8bc1246af59, $GPGGA,172011.00,4807.5278,N,12326.6215,W,2,11,0.8,23.6,M,-18.5,M,,*60
2023-08-27T17:20:12.2650955Z, 6cda8203-a249-e411-b0cc-f8bc1246af59, $GPGGA,172012.00,4807.5278,N,12326.6215,W,2,11,0.8,23.6,M,-18.5,M,,*63
2023-08-27T17:20:13.2557646Z, 6cda8203-a249-e411-b0cc-f8bc1246af59, $GPGGA,172013.00,4807.5278,N,12326.6215,W,2,11,0.8,23.7,M,-18.5,M,,*63
2023-08-27T17:20:15.0856678Z, 6cda8203-a249-e411-b0cc-f8bc1246af59, $GPGGA,172014.00,4807.5279,N,12326.6214,W,2,11,0.8,23.7,M,-18.5,M,,*64
2023-08-27T17:20:15.4155210Z, 6cda8203-a249-e411-b0cc-f8bc1246af59, $GPGGA,172015.00,4807.5279,N,12326.6214,W,2,11,0.8,23.8,M,-18.5,M,,*6A
2023-08-27T17:20:16.2557580Z, 6cda8203-a249-e411-b0cc-f8bc1246af59, $GPGGA,172016.00,4807.5279,N,12326.6213,W,2,11,0.8,23.8,M,-18.5,M,,*6E
2023-08-27T17:20:18.0857884Z, 6cda8203-a249-e411-b0cc-f8bc1246af59, $GPGGA,172017.00,4807.5278,N,12326.6212,W,2,11,0.8,23.8,M,-18.5,M,,*6F
2023-08-27T17:20:18.4163528Z, 6cda8203-a249-e411-b0cc-f8bc1246af59, $GPGGA,172018.00,4807.5278,N,12326.6213,W,2,11,0.8,23.9,M,-18.5,M,,*60
2023-08-27T17:20:19.2557198Z, 6cda8203-a249-e411-b0cc-f8bc1246af59, $GPGGA,172019.00,4807.5278,N,12326.6213,W,2,11,0.8,23.9,M,-18.5,M,,*61
2023-08-27T17:20:21.1303970Z, 6cda8203-a249-e411-b0cc-f8bc1246af59, $GPGGA,172020.00,4807.5278,N,12326.6214,W,2,11,0.8,23.9,M,-18.5,M,,*6C
2023-08-27T17:20:21.6364329Z, 6cda8203-a249-e411-b0cc-f8bc1246af59, $GPGGA,172021.00,4807.5277,N,12326.6214,W,2,11,0.8,23.9,M,-18.5,M,,*62
2023-08-27T17:20:22.2557078Z, 6cda8203-a249-e411-b0cc-f8bc1246af59, $GPGGA,172022.00,4807.5276,N,12326.6211,W,2,10,0.8,24.0,M,-18.5,M,,*6A
2023-08-27T17:20:23.3961877Z, 6cda8203-a249-e411-b0cc-f8bc1246af59, $GPGGA,172023.00,4807.5275,N,12326.6210,W,2,10,0.8,24.1,M,-18.5,M,,*68
2023-08-27T17:20:24.2962448Z, 6cda8203-a249-e411-b0cc-f8bc1246af59, $GPGGA,172024.00,4807.5275,N,12326.6208,W,2,10,0.8,24.3,M,-18.5,M,,*64
2023-08-27T17:20:25.2560719Z, 6cda8203-a249-e411-b0cc-f8bc1246af59, $GPGGA,172025.00,4807.5274,N,12326.6206,W,2,10,0.8,24.4,M,-18.5,M,,*6D
2023-08-27T17:20:27.2161927Z, 6cda8203-a249-e411-b0cc-f8bc1246af59, $GPGGA,172026.00,4807.5274,N,12326.6204,W,2,10,0.8,24.5,M,-18.5,M,,*6D
2023-08-27T17:20:27.4163590Z, 6cda8203-a249-e411-b0cc-f8bc1246af59, $GPGGA,172027.00,4807.5273,N,12326.6202,W,2,11,0.8,24.6,M,-18.5,M,,*6F
2023-08-27T17:20:29.0870940Z, 6cda8203-a249-e411-b0cc-f8bc1246af59, $GPGGA,172028.00,4807.5272,N,12326.6199,W,2,11,0.8,24.7,M,-18.5,M,,*61
2023-08-27T17:20:29.4166924Z, 6cda8203-a249-e411-b0cc-f8bc1246af59, $GPGGA,172029.00,4807.5271,N,12326.6197,W,2,11,0.8,24.8,M,-18.5,M,,*62
2023-08-27T17:20:31.0865496Z, 6cda8203-a249-e411-b0cc-f8bc1246af59, $GPGGA,172030.00,4807.5271,N,12326.6196,W,2,11,0.8,24.8,M,-18.5,M,,*6B
2023-08-27T17:20:31.4171361Z, 6cda8203-a249-e411-b0cc-f8bc1246af59, $GPGGA,172031.00,4807.5270,N,12326.6194,W,2,11,0.8,24.9,M,-18.5,M,,*68
2023-08-27T17:20:33.0873304Z, 6cda8203-a249-e411-b0cc-f8bc1246af59, $GPGGA,172032.00,4807.5268,N,12326.6192,W,2,11,0.8,25.0,M,-18.5,M,,*6C
2023-08-27T17:20:33.4169406Z, 6cda8203-a249-e411-b0cc-f8bc1246af59, $GPGGA,172033.00,4807.5267,N,12326.6190,W,2,11,0.8,25.0,M,-18.5,M,,*60
2023-08-27T17:20:35.0872318Z, 6cda8203-a249-e411-b0cc-f8bc1246af59, $GPGGA,172034.00,4807.5266,N,12326.6188,W,2,11,0.8,25.1,M,-18.5,M,,*6E
2023-08-27T17:20:35.4171536Z, 6cda8203-a249-e411-b0cc-f8bc1246af59, $GPGGA,172035.00,4807.5265,N,12326.6186,W,2,11,0.8,25.1,M,-18.5,M,,*62
2023-08-27T17:20:37.0871668Z, 6cda8203-a249-e411-b0cc-f8bc1246af59, $GPGGA,172036.00,4807.5263,N,12326.6184,W,2,11,0.8,25.1,M,-18.5,M,,*65
2023-08-27T17:20:37.4220094Z, 6cda8203-a249-e411-b0cc-f8bc1246af59, $GPGGA,172037.00,4807.5262,N,12326.6182,W,2,11,0.8,25.2,M,-18.5,M,,*60
2023-08-27T17:20:39.0871471Z, 6cda8203-a249-e411-b0cc-f8bc1246af59, $GPGGA,172038.00,4807.5260,N,12326.6181,W,2,11,0.8,25.2,M,-18.5,M,,*6E
2023-08-27T17:20:39.4177429Z, 6cda8203-a249-e411-b0cc-f8bc1246af59, $GPGGA,172039.00,4807.5259,N,12326.6180,W,2,11,0.8,25.3,M,-18.5,M,,*65
2023-08-27T17:20:41.0878114Z, 6cda8203-a249-e411-b0cc-f8bc1246af59, $GPGGA,172040.00,4807.5257,N,12326.6179,W,2,11,0.8,25.2,M,-18.5,M,,*62
2023-08-27T17:20:41.4174176Z, 6cda8203-a249-e411-b0cc-f8bc1246af59, $GPGGA,172041.00,4807.5255,N,12326.6178,W,2,11,0.8,25.3,M,-18.5,M,,*61
2023-08-27T17:20:43.0872068Z, 6cda8203-a249-e411-b0cc-f8bc1246af59, $GPGGA,172042.00,4807.5254,N,12326.6177,W,2,11,0.8,25.3,M,-18.5,M,,*6C
2023-08-27T17:20:43.4177728Z, 6cda8203-a249-e411-b0cc-f8bc1246af59, $GPGGA,172043.00,4807.5252,N,12326.6177,W,2,11,0.8,25.3,M,-18.5,M,,*6B
2023-08-27T17:20:45.0875466Z, 6cda8203-a249-e411-b0cc-f8bc1246af59, $GPGGA,172044.00,4807.5251,N,12326.6176,W,2,11,0.8,25.3,M,-18.5,M,,*6E
2023-08-27T17:20:45.4180988Z, 6cda8203-a249-e411-b0cc-f8bc1246af59, $GPGGA,172045.00,4807.5249,N,12326.6175,W,2,11,0.8,25.3,M,-18.5,M,,*65
2023-08-27T17:20:46.3778868Z, 6cda8203-a249-e411-b0cc-f8bc1246af59, $GPGGA,172046.00,4807.5249,N,12326.6174,W,2,11,0.8,25.3,M,-18.5,M,,*67
2023-08-27T17:20:47.2182613Z, 6cda8203-a249-e411-b0cc-f8bc1246af59, $GPGGA,172047.00,4807.5248,N,12326.6174,W,2,11,0.8,25.3,M,-18.5,M,,*67
2023-08-27T17:20:49.1019562Z, 6cda8203-a249-e411-b0cc-f8bc1246af59, $GPGGA,172048.00,4807.5248,N,12326.6175,W,2,11,0.8,25.4,M,-18.5,M,,*6E
2023-08-27T17:20:49.4177168Z, 6cda8203-a249-e411-b0cc-f8bc1246af59, $GPGGA,172049.00,4807.5248,N,12326.6175,W,2,11,0.8,25.4,M,-18.5,M,,*6F
2023-08-27T17:20:50.7686660Z, 6cda8203-a249-e411-b0cc-f8bc1246af59, $GPGGA,172050.00,4807.5247,N,12326.6175,W,2,11,0.8,25.5,M,-18.5,M,,*69
2023-08-27T17:20:52.0884352Z, 6cda8203-a249-e411-b0cc-f8bc1246af59, $GPGGA,172051.00,4807.5246,N,12326.6175,W,2,11,0.8,25.5,M,-18.5,M,,*69
2023-08-27T17:20:52.4180159Z, 6cda8203-a249-e411-b0cc-f8bc1246af59, $GPGGA,172052.00,4807.5246,N,12326.6174,W,2,11,0.8,25.5,M,-18.5,M,,*6B
2023-08-27T17:20:54.0881681Z, 6cda8203-a249-e411-b0cc-f8bc1246af59, $GPGGA,172053.00,4807.5247,N,12326.6175,W,2,11,0.8,25.5,M,-18.5,M,,*6A
2023-08-27T17:20:54.4187480Z, 6cda8203-a249-e411-b0cc-f8bc1246af59, $GPGGA,172054.00,4807.5248,N,12326.6176,W,2,11,0.8,25.6,M,-18.5,M,,*62
2023-08-27T17:20:56.0881733Z, 6cda8203-a249-e411-b0cc-f8bc1246af59, $GPGGA,172055.00,4807.5248,N,12326.6176,W,2,11,0.8,25.6,M,-18.5,M,,*63
2023-08-27T17:20:56.4187279Z, 6cda8203-a249-e411-b0cc-f8bc1246af59, $GPGGA,172056.00,4807.5249,N,12326.6176,W,2,11,0.8,25.6,M,-18.5,M,,*61
2023-08-27T17:20:58.0884542Z, 6cda8203-a249-e411-b0cc-f8bc1246af59, $GPGGA,172057.00,4807.5249,N,12326.6177,W,2,11,0.8,25.6,M,-18.5,M,,*61
2023-08-27T17:20:58.4190878Z, 6cda8203-a249-e411-b0cc-f8bc1246af59, $GPGGA,172058.00,4807.5250,N,12326.6178,W,2,11,0.8,25.6,M,-18.5,M,,*69
2023-08-27T17:21:00.0888288Z, 6cda8203-a249-e411-b0cc-f8bc1246af59, $GPGGA,172059.00,4807.5250,N,12326.6179,W,2,11,0.8,25.7,M,-18.5,M,,*68
2023-08-27T17:21:00.4184204Z, 6cda8203-a249-e411-b0cc-f8bc1246af59, $GPGGA,172100.00,4807.5252,N,12326.6179,W,2,11,0.8,25.6,M,-18.5,M,,*66
2023-08-27T17:21:02.0890937Z, 6cda8203-a249-e411-b0cc-f8bc1246af59, $GPGGA,172101.00,4807.5252,N,12326.6179,W,2,11,0.8,25.7,M,-18.5,M,,*66
2023-08-27T17:21:02.4187440Z, 6cda8203-a249-e411-b0cc-f8bc1246af59, $GPGGA,172102.00,4807.5253,N,12326.6180,W,2,11,0.8,25.7,M,-18.5,M,,*62
2023-08-27T17:21:04.0891549Z, 6cda8203-a249-e411-b0cc-f8bc1246af59, $GPGGA,172103.00,4807.5253,N,12326.6181,W,2,11,0.8,25.7,M,-18.5,M,,*62
2023-08-27T17:21:04.4187612Z, 6cda8203-a249-e411-b0cc-f8bc1246af59, $GPGGA,172104.00,4807.5254,N,12326.6181,W,2,11,0.8,25.7,M,-18.5,M,,*62
2023-08-27T17:21:06.0896176Z, 6cda8203-a249-e411-b0cc-f8bc1246af59, $GPGGA,172105.00,4807.5254,N,12326.6181,W,2,11,0.8,25.7,M,-18.5,M,,*63
2023-08-27T17:21:06.4193499Z, 6cda8203-a249-e411-b0cc-f8bc1246af59, $GPGGA,172106.00,4807.5255,N,12326.6182,W,2,11,0.8,25.8,M,-18.5,M,,*6D
2023-08-27T17:21:07.7789657Z, 6cda8203-a249-e411-b0cc-f8bc1246af59, $GPGGA,172107.00,4807.5256,N,12326.6182,W,2,11,0.8,25.8,M,-18.5,M,,*6F
2023-08-27T17:21:08.3696765Z, 6cda8203-a249-e411-b0cc-f8bc1246af59, $GPGGA,172108.00,4807.5256,N,12326.6183,W,2,11,0.8,25.8,M,-18.5,M,,*61
2023-08-27T17:21:09.2299302Z, 6cda8203-a249-e411-b0cc-f8bc1246af59, $GPGGA,172109.00,4807.5257,N,12326.6183,W,2,11,0.8,25.8,M,-18.5,M,,*61
2023-08-27T17:21:11.0898338Z, 6cda8203-a249-e411-b0cc-f8bc1246af59, $GPGGA,172110.00,4807.5257,N,12326.6183,W,2,11,0.8,25.8,M,-18.5,M,,*69
2023-08-27T17:21:11.4194503Z, 6cda8203-a249-e411-b0cc-f8bc1246af59, $GPGGA,172111.00,4807.5257,N,12326.6184,W,2,11,0.8,25.8,M,-18.5,M,,*6F
2023-08-27T17:21:12.2299138Z, 6cda8203-a249-e411-b0cc-f8bc1246af59, $GPGGA,172112.00,4807.5257,N,12326.6184,W,2,11,0.8,25.8,M,-18.5,M,,*6C
2023-08-27T17:21:14.0898435Z, 6cda8203-a249-e411-b0cc-f8bc1246af59, $GPGGA,172113.00,4807.5257,N,12326.6185,W,2,11,0.8,25.8,M,-18.5,M,,*6C
2023-08-27T17:21:14.4194139Z, 6cda8203-a249-e411-b0cc-f8bc1246af59, $GPGGA,172114.00,4807.5257,N,12326.6185,W,2,11,0.8,25.8,M,-18.5,M,,*6B
2023-08-27T17:21:15.2299474Z, 6cda8203-a249-e411-b0cc-f8bc1246af59, $GPGGA,172115.00,4807.5257,N,12326.6185,W,2,11,0.8,25.9,M,-18.5,M,,*6B
2023-08-27T17:21:17.0903363Z, 6cda8203-a249-e411-b0cc-f8bc1246af59, $GPGGA,172116.00,4807.5257,N,12326.6186,W,2,11,0.8,25.8,M,-18.5,M,,*6A
2023-08-27T17:21:17.4202012Z, 6cda8203-a249-e411-b0cc-f8bc1246af59, $GPGGA,172117.00,4807.5258,N,12326.6186,W,2,11,0.8,25.8,M,-18.5,M,,*64
2023-08-27T17:21:18.2299094Z, 6cda8203-a249-e411-b0cc-f8bc1246af59, $GPGGA,172118.00,4807.5258,N,12326.6185,W,2,11,0.8,26.0,M,-18.5,M,,*63
2023-08-27T17:21:20.0901281Z, 6cda8203-a249-e411-b0cc-f8bc1246af59, $GPGGA,172119.00,4807.5257,N,12326.6185,W,2,11,0.8,26.0,M,-18.5,M,,*6D
2023-08-27T17:21:20.4207200Z, 6cda8203-a249-e411-b0cc-f8bc1246af59, $GPGGA,172120.00,4807.5258,N,12326.6185,W,2,11,0.8,26.1,M,-18.5,M,,*69
2023-08-27T17:21:21.2302040Z, 6cda8203-a249-e411-b0cc-f8bc1246af59, $GPGGA,172121.00,4807.5258,N,12326.6186,W,2,11,0.8,26.2,M,-18.5,M,,*68
2023-08-27T17:21:23.0901886Z, 6cda8203-a249-e411-b0cc-f8bc1246af59, $GPGGA,172122.00,4807.5258,N,12326.6186,W,2,11,0.8,26.3,M,-18.5,M,,*6A
2023-08-27T17:21:23.4207961Z, 6cda8203-a249-e411-b0cc-f8bc1246af59, $GPGGA,172123.00,4807.5258,N,12326.6187,W,2,11,0.8,26.5,M,-18.5,M,,*6C
2023-08-27T17:21:25.2306791Z, 6cda8203-a249-e411-b0cc-f8bc1246af59, $GPGGA,172124.00,4807.5258,N,12326.6187,W,2,11,0.8,26.6,M,-18.5,M,,*68
2023-08-27T17:21:25.6902419Z, 6cda8203-a249-e411-b0cc-f8bc1246af59, $GPGGA,172125.00,4807.5258,N,12326.6187,W,2,11,0.8,26.8,M,-18.5,M,,*67
2023-08-27T17:21:27.0910599Z, 6cda8203-a249-e411-b0cc-f8bc1246af59, $GPGGA,172126.00,4807.5258,N,12326.6187,W,2,11,0.8,26.9,M,-18.5,M,,*65
2023-08-27T17:21:27.4206740Z, 6cda8203-a249-e411-b0cc-f8bc1246af59, $GPGGA,172127.00,4807.5258,N,12326.6187,W,2,11,0.8,27.0,M,-18.5,M,,*6C
2023-08-27T17:21:29.0907213Z, 6cda8203-a249-e411-b0cc-f8bc1246af59, $GPGGA,172128.00,4807.5258,N,12326.6187,W,2,11,0.8,27.2,M,-18.5,M,,*61
2023-08-27T17:21:29.4206121Z, 6cda8203-a249-e411-b0cc-f8bc1246af59, $GPGGA,172129.00,4807.5257,N,12326.6187,W,2,11,0.8,27.3,M,-18.5,M,,*6E
2023-08-27T17:21:30.8814585Z, 6cda8203-a249-e411-b0cc-f8bc1246af59, $GPGGA,172130.00,4807.5257,N,12326.6187,W,2,11,0.8,27.5,M,-18.5,M,,*60
2023-08-27T17:21:31.2414343Z, 6cda8203-a249-e411-b0cc-f8bc1246af59, $GPGGA,172131.00,4807.5257,N,12326.6187,W,2,11,0.8,27.6,M,-18.5,M,,*62
2023-08-27T17:21:32.4013796Z, 6cda8203-a249-e411-b0cc-f8bc1246af59, $GPGGA,172132.00,4807.5257,N,12326.6186,W,2,11,0.8,27.7,M,-18.5,M,,*61
2023-08-27T17:21:33.2407430Z, 6cda8203-a249-e411-b0cc-f8bc1246af59, $GPGGA,172133.00,4807.5257,N,12326.6186,W,2,11,0.8,27.8,M,-18.5,M,,*6F
2023-08-27T17:21:34.2414209Z, 6cda8203-a249-e411-b0cc-f8bc1246af59, $GPGGA,172134.00,4807.5257,N,12326.6185,W,2,11,0.8,28.0,M,-18.5,M,,*6C
2023-08-27T17:21:35.4009184Z, 6cda8203-a249-e411-b0cc-f8bc1246af59, $GPGGA,172135.00,4807.5257,N,12326.6185,W,2,11,0.8,28.1,M,-18.5,M,,*6C
2023-08-27T17:21:36.2412648Z, 6cda8203-a249-e411-b0cc-f8bc1246af59, $GPGGA,172136.00,4807.5256,N,12326.6184,W,2,11,0.8,28.2,M,-18.5,M,,*6C
2023-08-27T17:21:37.8727586Z, 6cda8203-a249-e411-b0cc-f8bc1246af59, $GPGGA,172137.00,4807.5257,N,12326.6184,W,2,11,0.8,28.3,M,-18.5,M,,*6D
2023-08-27T17:21:38.4015439Z, 6cda8203-a249-e411-b0cc-f8bc1246af59, $GPGGA,172138.00,4807.5256,N,12326.6184,W,2,11,0.8,28.5,M,-18.5,M,,*65
2023-08-27T17:21:39.2419005Z, 6cda8203-a249-e411-b0cc-f8bc1246af59, $GPGGA,172139.00,4807.5255,N,12326.6184,W,2,11,0.8,28.6,M,-18.5,M,,*64
2023-08-27T17:21:41.0918342Z, 6cda8203-a249-e411-b0cc-f8bc1246af59, $GPGGA,172140.00,4807.5255,N,12326.6183,W,2,11,0.8,28.7,M,-18.5,M,,*6C
2023-08-27T17:21:41.4214231Z, 6cda8203-a249-e411-b0cc-f8bc1246af59, $GPGGA,172141.00,4807.5255,N,12326.6183,W,2,11,0.8,28.8,M,-18.5,M,,*62
2023-08-27T17:21:42.2418735Z, 6cda8203-a249-e411-b0cc-f8bc1246af59, $GPGGA,172142.00,4807.5254,N,12326.6183,W,2,11,0.8,29.0,M,-18.5,M,,*69
2023-08-27T17:21:44.0918593Z, 6cda8203-a249-e411-b0cc-f8bc1246af59, $GPGGA,172143.00,4807.5254,N,12326.6182,W,2,11,0.8,29.1,M,-18.5,M,,*68
2023-08-27T17:21:44.4223965Z, 6cda8203-a249-e411-b0cc-f8bc1246af59, $GPGGA,172144.00,4807.5253,N,12326.6182,W,2,11,0.8,29.2,M,-18.5,M,,*6B
2023-08-27T17:21:45.2418265Z, 6cda8203-a249-e411-b0cc-f8bc1246af59, $GPGGA,172145.00,4807.5253,N,12326.6181,W,2,11,0.8,29.3,M,-18.5,M,,*68
2023-08-27T17:21:47.0920712Z, 6cda8203-a249-e411-b0cc-f8bc1246af59, $GPGGA,172146.00,4807.5253,N,12326.6181,W,2,11,0.8,29.5,M,-18.5,M,,*6D
2023-08-27T17:21:47.4225471Z, 6cda8203-a249-e411-b0cc-f8bc1246af59, $GPGGA,172147.00,4807.5252,N,12326.6180,W,2,11,0.8,29.6,M,-18.5,M,,*6F
2023-08-27T17:21:48.2419819Z, 6cda8203-a249-e411-b0cc-f8bc1246af59, $GPGGA,172148.00,4807.5251,N,12326.6180,W,2,11,0.8,29.7,M,-18.5,M,,*62
2023-08-27T17:21:49.8320668Z, 6cda8203-a249-e411-b0cc-f8bc1246af59, $GPGGA,172149.00,4807.5251,N,12326.6179,W,2,11,0.8,29.8,M,-18.5,M,,*6A
2023-08-27T17:21:50.2423650Z, 6cda8203-a249-e411-b0cc-f8bc1246af59, $GPGGA,172150.00,4807.5250,N,12326.6178,W,2,11,0.8,29.9,M,-18.5,M,,*63
2023-08-27T17:21:52.0920681Z, 6cda8203-a249-e411-b0cc-f8bc1246af59, $GPGGA,172151.00,4807.5250,N,12326.6178,W,2,11,0.8,30.0,M,-18.5,M,,*63
2023-08-27T17:21:52.4226541Z, 6cda8203-a249-e411-b0cc-f8bc1246af59, $GPGGA,172152.00,4807.5249,N,12326.6177,W,2,11,0.8,30.1,M,-18.5,M,,*66
2023-08-27T17:21:53.2530536Z, 6cda8203-a249-e411-b0cc-f8bc1246af59, $GPGGA,172153.00,4807.5249,N,12326.6177,W,2,11,0.8,30.1,M,-18.5,M,,*67
2023-08-27T17:21:54.4126569Z, 6cda8203-a249-e411-b0cc-f8bc1246af59, $GPGGA,172154.00,4807.5249,N,12326.6177,W,2,11,0.8,30.2,M,-18.5,M,,*63
2023-08-27T17:21:55.9325184Z, 6cda8203-a249-e411-b0cc-f8bc1246af59, $GPGGA,172155.00,4807.5248,N,12326.6176,W,2,11,0.8,30.3,M,-18.5,M,,*63
2023-08-27T17:21:57.0924670Z, 6cda8203-a249-e411-b0cc-f8bc1246af59, $GPGGA,172156.00,4807.5248,N,12326.6177,W,2,11,0.8,30.5,M,-18.5,M,,*67
2023-08-27T17:21:57.4230969Z, 6cda8203-a249-e411-b0cc-f8bc1246af59, $GPGGA,172157.00,4807.5248,N,12326.6177,W,2,11,0.8,30.6,M,-18.5,M,,*65
2023-08-27T17:21:58.2532354Z, 6cda8203-a249-e411-b0cc-f8bc1246af59, $GPGGA,172158.00,4807.5247,N,12326.6176,W,2,11,0.8,30.6,M,-18.5,M,,*64
2023-08-27T17:21:59.4131918Z, 6cda8203-a249-e411-b0cc-f8bc1246af59, $GPGGA,172159.00,4807.5246,N,12326.6176,W,2,11,0.8,30.7,M,-18.5,M,,*65
2023-08-27T17:22:00.2576795Z, 6cda8203-a249-e411-b0cc-f8bc1246af59, $GPGGA,172200.00,4807.5246,N,12326.6176,W,2,11,0.8,30.8,M,-18.5,M,,*65
2023-08-27T17:22:01.9334131Z, 6cda8203-a249-e411-b0cc-f8bc1246af59, $GPGGA,172201.00,4807.5245,N,12326.6176,W,2,11,0.8,30.9,M,-18.5,M,,*66
2023-08-27T17:22:02.4133529Z, 6cda8203-a249-e411-b0cc-f8bc1246af59, $GPGGA,172202.00,4807.5245,N,12326.6176,W,2,11,0.8,30.9,M,-18.5,M,,*65
2023-08-27T17:22:03.2531825Z, 6cda8203-a249-e411-b0cc-f8bc1246af59, $GPGGA,172203.00,4807.5244,N,12326.6176,W,2,11,0.8,31.0,M,-18.5,M,,*6D
2023-08-27T17:22:04.4238454Z, 6cda8203-a249-e411-b0cc-f8bc1246af59, $GPGGA,172204.00,4807.5243,N,12326.6176,W,2,11,0.8,31.0,M,-18.5,M,,*6D
2023-08-27T17:22:05.2532777Z, 6cda8203-a249-e411-b0cc-f8bc1246af59, $GPGGA,172205.00,4807.5244,N,12326.6176,W,2,11,0.8,31.1,M,-18.5,M,,*6A
2023-08-27T17:22:06.2540257Z, 6cda8203-a249-e411-b0cc-f8bc1246af59, $GPGGA,172206.00,4807.5243,N,12326.6176,W,2,11,0.8,31.1,M,-18.5,M,,*6E
2023-08-27T17:22:07.9237772Z, 6cda8203-a249-e411-b0cc-f8bc1246af59, $GPGGA,172207.00,4807.5242,N,12326.6176,W,2,11,0.8,31.2,M,-18.5,M,,*6D
2023-08-27T17:22:08.2534069Z, 6cda8203-a249-e411-b0cc-f8bc1246af59, $GPGGA,172208.00,4807.5242,N,12326.6176,W,2,11,0.8,31.2,M,-18.5,M,,*62
2023-08-27T17:22:09.4232863Z, 6cda8203-a249-e411-b0cc-f8bc1246af59, $GPGGA,172209.00,4807.5241,N,12326.6176,W,2,11,0.8,31.2,M,-18.5,M,,*60
2023-08-27T17:22:10.2750671Z, 6cda8203-a249-e411-b0cc-f8bc1246af59, $GPGGA,172210.00,4807.5242,N,12326.6176,W,2,11,0.8,31.2,M,-18.5,M,,*6B
2023-08-27T17:22:11.2543863Z, 6cda8203-a249-e411-b0cc-f8bc1246af59, $GPGGA,172211.00,4807.5242,N,12326.6176,W,2,11,0.8,31.3,M,-18.5,M,,*6B
2023-08-27T17:22:12.4242745Z, 6cda8203-a249-e411-b0cc-f8bc1246af59, $GPGGA,172212.00,4807.5242,N,12326.6176,W,2,11,0.8,31.3,M,-18.5,M,,*68
2023-08-27T17:22:13.2735935Z, 6cda8203-a249-e411-b0cc-f8bc1246af59, $GPGGA,172213.00,4807.5242,N,12326.6176,W,2,11,0.8,31.3,M,-18.5,M,,*69
2023-08-27T17:22:14.8941988Z, 6cda8203-a249-e411-b0cc-f8bc1246af59, $GPGGA,172214.00,4807.5242,N,12326.6176,W,2,11,0.8,31.4,M,-18.5,M,,*69
2023-08-27T17:22:16.0943048Z, 6cda8203-a249-e411-b0cc-f8bc1246af59, $GPGGA,172215.00,4807.5243,N,12326.6176,W,2,11,0.8,31.4,M,-18.5,M,,*69
2023-08-27T17:22:16.4238482Z, 6cda8203-a249-e411-b0cc-f8bc1246af59, $GPGGA,172216.00,4807.5243,N,12326.6177,W,2,11,0.8,31.4,M,-18.5,M,,*6B
2023-08-27T17:22:17.2547120Z, 6cda8203-a249-e411-b0cc-f8bc1246af59, $GPGGA,172217.00,4807.5243,N,12326.6176,W,2,11,0.8,31.5,M,-18.5,M,,*6A
2023-08-27T17:22:18.2645729Z, 6cda8203-a249-e411-b0cc-f8bc1246af59, $GPGGA,172218.00,4807.5243,N,12326.6177,W,2,11,0.8,31.5,M,-18.5,M,,*64
2023-08-27T17:22:19.2342318Z, 6cda8203-a249-e411-b0cc-f8bc1246af59, $GPGGA,172219.00,4807.5245,N,12326.6177,W,2,11,0.8,31.6,M,-18.5,M,,*60
2023-08-27T17:22:20.2647777Z, 6cda8203-a249-e411-b0cc-f8bc1246af59, $GPGGA,172220.00,4807.5245,N,12326.6177,W,2,11,0.8,31.6,M,-18.5,M,,*6A
2023-08-27T17:22:21.7147271Z, 6cda8203-a249-e411-b0cc-f8bc1246af59, $GPGGA,172221.00,4807.5245,N,12326.6177,W,2,11,0.8,31.7,M,-18.5,M,,*6A
2023-08-27T17:22:22.4245896Z, 6cda8203-a249-e411-b0cc-f8bc1246af59, $GPGGA,172222.00,4807.5244,N,12326.6177,W,2,11,0.8,31.7,M,-18.5,M,,*68
2023-08-27T17:22:23.2651298Z, 6cda8203-a249-e411-b0cc-f8bc1246af59, $GPGGA,172223.00,4807.5244,N,12326.6176,W,2,11,0.8,31.7,M,-18.5,M,,*68
2023-08-27T17:22:24.3046433Z, 6cda8203-a249-e411-b0cc-f8bc1246af59, $GPGGA,172224.00,4807.5243,N,12326.6176,W,2,11,0.8,31.8,M,-18.5,M,,*67
2023-08-27T17:22:25.4251639Z, 6cda8203-a249-e411-b0cc-f8bc1246af59, $GPGGA,172225.00,4807.5243,N,12326.6176,W,2,11,0.8,31.8,M,-18.5,M,,*66
2023-08-27T17:22:26.2651640Z, 6cda8203-a249-e411-b0cc-f8bc1246af59, $GPGGA,172226.00,4807.5242,N,12326.6176,W,2,11,0.8,31.8,M,-18.5,M,,*64
2023-08-27T17:22:27.9062388Z, 6cda8203-a249-e411-b0cc-f8bc1246af59, $GPGGA,172227.00,4807.5242,N,12326.6176,W,2,11,0.8,31.8,M,-18.5,M,,*65
2023-08-27T17:22:28.4053352Z, 6cda8203-a249-e411-b0cc-f8bc1246af59, $GPGGA,172228.00,4807.5242,N,12326.6176,W,2,11,0.8,31.9,M,-18.5,M,,*6B
2023-08-27T17:22:30.0956734Z, 6cda8203-a249-e411-b0cc-f8bc1246af59, $GPGGA,172229.00,4807.5242,N,12326.6176,W,2,11,0.8,31.9,M,-18.5,M,,*6A
2023-08-27T17:22:30.4252840Z, 6cda8203-a249-e411-b0cc-f8bc1246af59, $GPGGA,172230.00,4807.5243,N,12326.6176,W,2,10,0.8,31.9,M,-18.5,M,,*62
2023-08-27T17:22:32.0948620Z, 6cda8203-a249-e411-b0cc-f8bc1246af59, $GPGGA,172231.00,4807.5244,N,12326.6175,W,2,10,0.8,32.0,M,-18.5,M,,*6D
2023-08-27T17:22:32.4295713Z, 6cda8203-a249-e411-b0cc-f8bc1246af59, $GPGGA,172232.00,4807.5245,N,12326.6175,W,2,11,0.8,32.0,M,-18.5,M,,*6E
2023-08-27T17:22:34.0951767Z, 6cda8203-a249-e411-b0cc-f8bc1246af59, $GPGGA,172233.00,4807.5246,N,12326.6174,W,2,11,0.8,32.0,M,-18.5,M,,*6D
2023-08-27T17:22:34.4257635Z, 6cda8203-a249-e411-b0cc-f8bc1246af59, $GPGGA,172234.00,4807.5246,N,12326.6174,W,2,11,0.8,32.1,M,-18.5,M,,*6B
2023-08-27T17:22:36.0958018Z, 6cda8203-a249-e411-b0cc-f8bc1246af59, $GPGGA,172235.00,4807.5247,N,12326.6173,W,2,11,0.8,32.1,M,-18.5,M,,*6C
2023-08-27T17:22:36.4253977Z, 6cda8203-a249-e411-b0cc-f8bc1246af59, $GPGGA,172236.00,4807.5248,N,12326.6172,W,2,11,0.8,32.1,M,-18.5,M,,*61
2023-08-27T17:22:38.0961432Z, 6cda8203-a249-e411-b0cc-f8bc1246af59, $GPGGA,172237.00,4807.5248,N,12326.6172,W,2,11,0.8,32.2,M,-18.5,M,,*63
2023-08-27T17:22:38.4258022Z, 6cda8203-a249-e411-b0cc-f8bc1246af59, $GPGGA,172238.00,4807.5248,N,12326.6171,W,2,11,0.8,32.2,M,-18.5,M,,*6F
2023-08-27T17:22:40.0954533Z, 6cda8203-a249-e411-b0cc-f8bc1246af59, $GPGGA,172239.00,4807.5247,N,12326.6169,W,2,10,0.8,32.2,M,-18.5,M,,*69
2023-08-27T17:22:40.4254964Z, 6cda8203-a249-e411-b0cc-f8bc1246af59, $GPGGA,172240.00,4807.5247,N,12326.6168,W,2,10,0.8,32.3,M,-18.5,M,,*67
2023-08-27T17:22:42.0956424Z, 6cda8203-a249-e411-b0cc-f8bc1246af59, $GPGGA,172241.00,4807.5246,N,12326.6166,W,2,10,0.8,32.4,M,-18.5,M,,*6E
2023-08-27T17:22:42.4262793Z, 6cda8203-a249-e411-b0cc-f8bc1246af59, $GPGGA,172242.00,4807.5246,N,12326.6165,W,2,10,0.8,32.5,M,-18.5,M,,*6F
2023-08-27T17:22:44.1005238Z, 6cda8203-a249-e411-b0cc-f8bc1246af59, $GPGGA,172243.00,4807.5246,N,12326.6164,W,2,10,0.8,32.6,M,-18.5,M,,*6C
2023-08-27T17:22:44.4264657Z, 6cda8203-a249-e411-b0cc-f8bc1246af59, $GPGGA,172244.00,4807.5245,N,12326.6164,W,2,10,0.8,32.7,M,-18.5,M,,*69
2023-08-27T17:22:46.0961806Z, 6cda8203-a249-e411-b0cc-f8bc1246af59, $GPGGA,172245.00,4807.5246,N,12326.6163,W,2,10,0.8,32.8,M,-18.5,M,,*63
2023-08-27T17:22:46.4267677Z, 6cda8203-a249-e411-b0cc-f8bc1246af59, $GPGGA,172246.00,4807.5246,N,12326.6163,W,2,10,0.8,32.9,M,-18.5,M,,*61
2023-08-27T17:22:47.2262591Z, 6cda8203-a249-e411-b0cc-f8bc1246af59, $GPGGA,172247.00,4807.5246,N,12326.6163,W,2,10,0.8,33.0,M,-18.5,M,,*68
2023-08-27T17:22:49.0961873Z, 6cda8203-a249-e411-b0cc-f8bc1246af59, $GPGGA,172248.00,4807.5247,N,12326.6163,W,2,10,0.8,33.0,M,-18.5,M,,*66
2023-08-27T17:22:49.4267715Z, 6cda8203-a249-e411-b0cc-f8bc1246af59, $GPGGA,172249.00,4807.5247,N,12326.6163,W,2,10,0.8,33.1,M,-18.5,M,,*66
2023-08-27T17:22:51.0968255Z, 6cda8203-a249-e411-b0cc-f8bc1246af59, $GPGGA,172250.00,4807.5248,N,12326.6163,W,2,10,0.8,33.2,M,-18.5,M,,*62
2023-08-27T17:22:51.4264033Z, 6cda8203-a249-e411-b0cc-f8bc1246af59, $GPGGA,172251.00,4807.5248,N,12326.6163,W,2,10,0.8,33.2,M,-18.5,M,,*63
2023-08-27T17:22:52.3871516Z, 6cda8203-a249-e411-b0cc-f8bc1246af59, $GPGGA,172252.00,4807.5248,N,12326.6164,W,2,11,0.8,33.2,M,-18.5,M,,*66
2023-08-27T17:22:54.0967557Z, 6cda8203-a249-e411-b0cc-f8bc1246af59, $GPGGA,172253.00,4807.5249,N,12326.6166,W,2,11,0.8,33.2,M,-18.5,M,,*64
2023-08-27T17:22:54.4273161Z, 6cda8203-a249-e411-b0cc-f8bc1246af59, $GPGGA,172254.00,4807.5249,N,12326.6167,W,2,11,0.8,33.2,M,-18.5,M,,*62
2023-08-27T17:22:55.3767774Z, 6cda8203-a249-e411-b0cc-f8bc1246af59, $GPGGA,172255.00,4807.5250,N,12326.6168,W,2,11,0.8,33.1,M,-18.5,M,,*67
2023-08-27T17:22:57.0971794Z, 6cda8203-a249-e411-b0cc-f8bc1246af59, $GPGGA,172256.00,4807.5250,N,12326.6169,W,2,11,0.8,33.0,M,-18.5,M,,*64
2023-08-27T17:22:57.4267563Z, 6cda8203-a249-e411-b0cc-f8bc1246af59, $GPGGA,172257.00,4807.5251,N,12326.6170,W,2,11,0.8,32.9,M,-18.5,M,,*64
2023-08-27T17:22:59.0968736Z, 6cda8203-a249-e411-b0cc-f8bc1246af59, $GPGGA,172258.00,4807.5251,N,12326.6170,W,2,11,0.8,32.8,M,-18.5,M,,*6A
2023-08-27T17:22:59.4274818Z, 6cda8203-a249-e411-b0cc-f8bc1246af59, $GPGGA,172259.00,4807.5251,N,12326.6171,W,2,11,0.8,32.7,M,-18.5,M,,*65
2023-08-27T17:23:00.3773631Z, 6cda8203-a249-e411-b0cc-f8bc1246af59, $GPGGA,172300.00,4807.5251,N,12326.6171,W,2,11,0.8,32.6,M,-18.5,M,,*69
2023-08-27T17:23:02.0979355Z, 6cda8203-a249-e411-b0cc-f8bc1246af59, $GPGGA,172301.00,4807.5251,N,12326.6171,W,2,11,0.8,32.5,M,-18.5,M,,*6B
2023-08-27T17:23:02.8475890Z, 6cda8203-a249-e411-b0cc-f8bc1246af59, $GPGGA,172302.00,4807.5251,N,12326.6171,W,2,11,0.8,32.4,M,-18.5,M,,*69
2023-08-27T17:23:04.0972065Z, 6cda8203-a249-e411-b0cc-f8bc1246af59, $GPGGA,172303.00,4807.5251,N,12326.6172,W,2,11,0.8,32.3,M,-18.5,M,,*6C
2023-08-27T17:23:04.4277953Z, 6cda8203-a249-e411-b0cc-f8bc1246af59, $GPGGA,172304.00,4807.5250,N,12326.6172,W,2,11,0.8,32.3,M,-18.5,M,,*6A
2023-08-27T17:23:05.3773771Z, 6cda8203-a249-e411-b0cc-f8bc1246af59, $GPGGA,172305.00,4807.5250,N,12326.6173,W,2,11,0.8,32.2,M,-18.5,M,,*6B
2023-08-27T17:23:07.0973603Z, 6cda8203-a249-e411-b0cc-f8bc1246af59, $GPGGA,172306.00,4807.5250,N,12326.6174,W,2,11,0.8,32.0,M,-18.5,M,,*6D
2023-08-27T17:23:07.4279945Z, 6cda8203-a249-e411-b0cc-f8bc1246af59, $GPGGA,172307.00,4807.5250,N,12326.6174,W,2,11,0.8,31.9,M,-18.5,M,,*66
2023-08-27T17:23:09.0976959Z, 6cda8203-a249-e411-b0cc-f8bc1246af59, $GPGGA,172308.00,4807.5250,N,12326.6174,W,2,11,0.8,31.8,M,-18.5,M,,*68
2023-08-27T17:23:09.4282974Z, 6cda8203-a249-e411-b0cc-f8bc1246af59, $GPGGA,172309.00,4807.5249,N,12326.6175,W,2,11,0.8,31.6,M,-18.5,M,,*6E
2023-08-27T17:23:11.0980223Z, 6cda8203-a249-e411-b0cc-f8bc1246af59, $GPGGA,172310.00,4807.5249,N,12326.6176,W,2,11,0.8,31.5,M,-18.5,M,,*66
2023-08-27T17:23:11.4285950Z, 6cda8203-a249-e411-b0cc-f8bc1246af59, $GPGGA,172311.00,4807.5249,N,12326.6176,W,2,11,0.8,31.3,M,-18.5,M,,*61
2023-08-27T17:23:13.0985356Z, 6cda8203-a249-e411-b0cc-f8bc1246af59, $GPGGA,172312.00,4807.5249,N,12326.6177,W,2,11,0.8,31.2,M,-18.5,M,,*62
2023-08-27T17:23:13.4281266Z, 6cda8203-a249-e411-b0cc-f8bc1246af59, $GPGGA,172313.00,4807.5249,N,12326.6178,W,2,11,0.8,31.0,M,-18.5,M,,*6E
2023-08-27T17:23:14.7784810Z, 6cda8203-a249-e411-b0cc-f8bc1246af59, $GPGGA,172314.00,4807.5249,N,12326.6178,W,2,11,0.8,30.9,M,-18.5,M,,*61
2023-08-27T17:23:16.0986616Z, 6cda8203-a249-e411-b0cc-f8bc1246af59, $GPGGA,172315.00,4807.5249,N,12326.6179,W,2,11,0.8,30.7,M,-18.5,M,,*6F
2023-08-27T17:23:16.4282571Z, 6cda8203-a249-e411-b0cc-f8bc1246af59, $GPGGA,172316.00,4807.5249,N,12326.6180,W,2,11,0.8,30.5,M,-18.5,M,,*68
2023-08-27T17:23:17.2387311Z, 6cda8203-a249-e411-b0cc-f8bc1246af59, $GPGGA,172317.00,4807.5249,N,12326.6181,W,2,11,0.8,30.3,M,-18.5,M,,*6E
2023-08-27T17:23:19.0985513Z, 6cda8203-a249-e411-b0cc-f8bc1246af59, $GPGGA,172318.00,4807.5249,N,12326.6182,W,2,11,0.8,30.1,M,-18.5,M,,*60
2023-08-27T17:23:19.4291188Z, 6cda8203-a249-e411-b0cc-f8bc1246af59, $GPGGA,172319.00,4807.5249,N,12326.6182,W,2,11,0.8,29.9,M,-18.5,M,,*61
2023-08-27T17:23:21.0988498Z, 6cda8203-a249-e411-b0cc-f8bc1246af59, $GPGGA,172320.00,4807.5249,N,12326.6183,W,2,11,0.8,29.7,M,-18.5,M,,*64
2023-08-27T17:23:21.4284472Z, 6cda8203-a249-e411-b0cc-f8bc1246af59, $GPGGA,172321.00,4807.5249,N,12326.6184,W,2,11,0.8,29.5,M,-18.5,M,,*60
2023-08-27T17:23:23.0989190Z, 6cda8203-a249-e411-b0cc-f8bc1246af59, $GPGGA,172322.00,4807.5250,N,12326.6185,W,2,11,0.8,29.4,M,-18.5,M,,*6B
2023-08-27T17:23:23.4285227Z, 6cda8203-a249-e411-b0cc-f8bc1246af59, $GPGGA,172323.00,4807.5250,N,12326.6185,W,2,11,0.8,29.3,M,-18.5,M,,*6D
2023-08-27T17:23:24.3785597Z, 6cda8203-a249-e411-b0cc-f8bc1246af59, $GPGGA,172324.00,4807.5250,N,12326.6185,W,2,11,0.8,29.1,M,-18.5,M,,*68
2023-08-27T17:23:26.2395048Z, 6cda8203-a249-e411-b0cc-f8bc1246af59, $GPGGA,172325.00,4807.5251,N,12326.6186,W,2,11,0.8,29.0,M,-18.5,M,,*6A
2023-08-27T17:23:26.6994587Z, 6cda8203-a249-e411-b0cc-f8bc1246af59, $GPGGA,172326.00,4807.5251,N,12326.6186,W,2,11,0.8,28.9,M,-18.5,M,,*61
2023-08-27T17:23:28.0989419Z, 6cda8203-a249-e411-b0cc-f8bc1246af59, $GPGGA,172327.00,4807.5251,N,12326.6187,W,2,11,0.8,28.7,M,-18.5,M,,*6F
2023-08-27T17:23:28.4295198Z, 6cda8203-a249-e411-b0cc-f8bc1246af59, $GPGGA,172328.00,4807.5251,N,12326.6187,W,2,11,0.8,28.6,M,-18.5,M,,*61
2023-08-27T17:23:29.3796426Z, 6cda8203-a249-e411-b0cc-f8bc1246af59, $GPGGA,172329.00,4807.5252,N,12326.6187,W,2,11,0.8,28.5,M,-18.5,M,,*60
2023-08-27T17:23:30.2390176Z, 6cda8203-a249-e411-b0cc-f8bc1246af59, $GPGGA,172330.00,4807.5252,N,12326.6186,W,2,11,0.8,28.5,M,-18.5,M,,*69
2023-08-27T17:23:32.2391181Z, 6cda8203-a249-e411-b0cc-f8bc1246af59, $GPGGA,172331.00,4807.5252,N,12326.6186,W,2,11,0.8,28.4,M,-18.5,M,,*69
2023-08-27T17:23:32.6990987Z, 6cda8203-a249-e411-b0cc-f8bc1246af59, $GPGGA,172332.00,4807.5252,N,12326.6185,W,2,11,0.8,28.3,M,-18.5,M,,*6E
2023-08-27T17:23:34.1038086Z, 6cda8203-a249-e411-b0cc-f8bc1246af59, $GPGGA,172333.00,4807.5253,N,12326.6185,W,2,11,0.8,28.2,M,-18.5,M,,*6F
2023-08-27T17:23:34.4296570Z, 6cda8203-a249-e411-b0cc-f8bc1246af59, $GPGGA,172334.00,4807.5253,N,12326.6184,W,2,11,0.8,28.1,M,-18.5,M,,*6A
2023-08-27T17:23:35.3794703Z, 6cda8203-a249-e411-b0cc-f8bc1246af59, $GPGGA,172335.00,4807.5253,N,12326.6184,W,2,11,0.8,28.0,M,-18.5,M,,*6A
2023-08-27T17:23:37.0995543Z, 6cda8203-a249-e411-b0cc-f8bc1246af59, $GPGGA,172336.00,4807.5253,N,12326.6183,W,2,11,0.8,28.0,M,-18.5,M,,*6E
2023-08-27T17:23:37.4301434Z, 6cda8203-a249-e411-b0cc-f8bc1246af59, $GPGGA,172337.00,4807.5254,N,12326.6179,W,2,11,0.8,27.9,M,-18.5,M,,*6B
2023-08-27T17:23:39.1005111Z, 6cda8203-a249-e411-b0cc-f8bc1246af59, $GPGGA,172338.00,4807.5254,N,12326.6180,W,2,11,0.8,27.8,M,-18.5,M,,*63
2023-08-27T17:23:39.4300887Z, 6cda8203-a249-e411-b0cc-f8bc1246af59, $GPGGA,172339.00,4807.5254,N,12326.6179,W,2,11,0.8,27.7,M,-18.5,M,,*6B
2023-08-27T17:23:40.3804808Z, 6cda8203-a249-e411-b0cc-f8bc1246af59, $GPGGA,172340.00,4807.5253,N,12326.6179,W,2,11,0.8,27.6,M,-18.5,M,,*63
2023-08-27T17:23:42.0976174Z, 6cda8203-a249-e411-b0cc-f8bc1246af59, $GPGGA,172341.00,4807.5253,N,12326.6178,W,2,11,0.8,27.5,M,-18.5,M,,*60
2023-08-27T17:23:42.4252507Z, 6cda8203-a249-e411-b0cc-f8bc1246af59, $GPGGA,172342.00,4807.5253,N,12326.6178,W,2,11,0.8,27.4,M,-18.5,M,,*62
2023-08-27T17:23:44.0055522Z, 6cda8203-a249-e411-b0cc-f8bc1246af59, $GPGGA,172343.00,4807.5253,N,12326.6178,W,2,11,0.8,27.2,M,-18.5,M,,*65
2023-08-27T17:23:45.0858609Z, 6cda8203-a249-e411-b0cc-f8bc1246af59, $GPGGA,172344.00,4807.5252,N,12326.6178,W,2,11,0.8,27.1,M,-18.5,M,,*60
2023-08-27T17:23:45.4154698Z, 6cda8203-a249-e411-b0cc-f8bc1246af59, $GPGGA,172345.00,4807.5252,N,12326.6178,W,2,11,0.8,27.0,M,-18.5,M,,*60
2023-08-27T17:23:46.3961975Z, 6cda8203-a249-e411-b0cc-f8bc1246af59, $GPGGA,172346.00,4807.5251,N,12326.6177,W,2,11,0.8,26.8,M,-18.5,M,,*66
2023-08-27T17:23:48.0863550Z, 6cda8203-a249-e411-b0cc-f8bc1246af59, $GPGGA,172347.00,4807.5251,N,12326.6177,W,2,11,0.8,26.8,M,-18.5,M,,*67
2023-08-27T17:23:48.4099484Z, 6cda8203-a249-e411-b0cc-f8bc1246af59, $GPGGA,172348.00,4807.5250,N,12326.6176,W,2,11,0.8,26.6,M,-18.5,M,,*66
2023-08-27T17:23:50.0066681Z, 6cda8203-a249-e411-b0cc-f8bc1246af59, $GPGGA,172349.00,4807.5250,N,12326.6175,W,2,11,0.8,26.5,M,-18.5,M,,*67
2023-08-27T17:23:51.0859692Z, 6cda8203-a249-e411-b0cc-f8bc1246af59, $GPGGA,172350.00,4807.5249,N,12326.6175,W,2,11,0.8,26.4,M,-18.5,M,,*66
2023-08-27T17:23:51.4165683Z, 6cda8203-a249-e411-b0cc-f8bc1246af59, $GPGGA,172351.00,4807.5248,N,12326.6174,W,2,11,0.8,26.2,M,-18.5,M,,*61
2023-08-27T17:23:52.2359920Z, 6cda8203-a249-e411-b0cc-f8bc1246af59, $GPGGA,172352.00,4807.5247,N,12326.6174,W,2,11,0.8,26.1,M,-18.5,M,,*6E
2023-08-27T17:23:53.2366576Z, 6cda8203-a249-e411-b0cc-f8bc1246af59, $GPGGA,172353.00,4807.5246,N,12326.6174,W,2,11,0.8,26.0,M,-18.5,M,,*6F
2023-08-27T17:23:55.0867927Z, 6cda8203-a249-e411-b0cc-f8bc1246af59, $GPGGA,172354.00,4807.5246,N,12326.6174,W,2,11,0.8,25.8,M,-18.5,M,,*63
2023-08-27T17:23:55.4163821Z, 6cda8203-a249-e411-b0cc-f8bc1246af59, $GPGGA,172355.00,4807.5245,N,12326.6175,W,2,11,0.8,25.7,M,-18.5,M,,*6F
2023-08-27T17:23:56.8378471Z, 6cda8203-a249-e411-b0cc-f8bc1246af59, $GPGGA,172356.00,4807.5244,N,12326.6175,W,2,11,0.8,25.7,M,-18.5,M,,*6D
2023-08-27T17:23:58.0862922Z, 6cda8203-a249-e411-b0cc-f8bc1246af59, $GPGGA,172357.00,4807.5243,N,12326.6175,W,2,11,0.8,25.6,M,-18.5,M,,*6A
2023-08-27T17:23:58.4168975Z, 6cda8203-a249-e411-b0cc-f8bc1246af59, $GPGGA,172358.00,4807.5243,N,12326.6175,W,2,11,0.8,25.5,M,-18.5,M,,*66
2023-08-27T17:23:59.2373124Z, 6cda8203-a249-e411-b0cc-f8bc1246af59, $GPGGA,172359.00,4807.5242,N,12326.6174,W,2,11,0.8,25.4,M,-18.5,M,,*66
2023-08-27T17:24:01.0869489Z, 6cda8203-a249-e411-b0cc-f8bc1246af59, $GPGGA,172400.00,4807.5242,N,12326.6175,W,2,11,0.8,25.3,M,-18.5,M,,*6B
2023-08-27T17:24:01.4174232Z, 6cda8203-a249-e411-b0cc-f8bc1246af59, $GPGGA,172401.00,4807.5242,N,12326.6176,W,2,11,0.8,25.3,M,-18.5,M,,*69
2023-08-27T17:24:02.8366538Z, 6cda8203-a249-e411-b0cc-f8bc1246af59, $GPGGA,172402.00,4807.5242,N,12326.6176,W,2,11,0.8,25.2,M,-18.5,M,,*6B
2023-08-27T17:24:04.0874237Z, 6cda8203-a249-e411-b0cc-f8bc1246af59, $GPGGA,172403.00,4807.5241,N,12326.6177,W,2,11,0.8,25.1,M,-18.5,M,,*6B
2023-08-27T17:24:04.4170504Z, 6cda8203-a249-e411-b0cc-f8bc1246af59, $GPGGA,172404.00,4807.5241,N,12326.6178,W,2,11,0.8,25.1,M,-18.5,M,,*63
2023-08-27T17:24:05.2469569Z, 6cda8203-a249-e411-b0cc-f8bc1246af59, $GPGGA,172405.00,4807.5240,N,12326.6178,W,2,11,0.8,25.0,M,-18.5,M,,*62
2023-08-27T17:24:07.0877753Z, 6cda8203-a249-e411-b0cc-f8bc1246af59, $GPGGA,172406.00,4807.5240,N,12326.6179,W,2,11,0.8,25.0,M,-18.5,M,,*60
2023-08-27T17:24:07.4173518Z, 6cda8203-a249-e411-b0cc-f8bc1246af59, $GPGGA,172407.00,4807.5240,N,12326.6180,W,2,11,0.8,24.9,M,-18.5,M,,*6F
2023-08-27T17:24:08.8272203Z, 6cda8203-a249-e411-b0cc-f8bc1246af59, $GPGGA,172408.00,4807.5240,N,12326.6180,W,2,11,0.8,24.8,M,-18.5,M,,*61
2023-08-27T17:24:09.2474104Z, 6cda8203-a249-e411-b0cc-f8bc1246af59, $GPGGA,172409.00,4807.5239,N,12326.6181,W,2,11,0.8,24.8,M,-18.5,M,,*6F
2023-08-27T17:24:10.4073961Z, 6cda8203-a249-e411-b0cc-f8bc1246af59, $GPGGA,172410.00,4807.5239,N,12326.6181,W,2,11,0.8,24.8,M,-18.5,M,,*67
2023-08-27T17:24:12.0880903Z, 6cda8203-a249-e411-b0cc-f8bc1246af59, $GPGGA,172411.00,4807.5239,N,12326.6181,W,2,11,0.8,24.8,M,-18.5,M,,*66
2023-08-27T17:24:12.4176342Z, 6cda8203-a249-e411-b0cc-f8bc1246af59, $GPGGA,172412.00,4807.5238,N,12326.6182,W,2,11,0.8,24.8,M,-18.5,M,,*67
2023-08-27T17:24:13.4078619Z, 6cda8203-a249-e411-b0cc-f8bc1246af59, $GPGGA,172413.00,4807.5239,N,12326.6182,W,2,11,0.8,24.8,M,-18.5,M,,*67
2023-08-27T17:24:14.9174318Z, 6cda8203-a249-e411-b0cc-f8bc1246af59, $GPGGA,172414.00,4807.5238,N,12326.6182,W,2,11,0.8,24.8,M,-18.5,M,,*61
2023-08-27T17:24:15.2480030Z, 6cda8203-a249-e411-b0cc-f8bc1246af59, $GPGGA,172415.00,4807.5238,N,12326.6183,W,2,11,0.8,24.7,M,-18.5,M,,*6E
2023-08-27T17:24:16.2277743Z, 6cda8203-a249-e411-b0cc-f8bc1246af59, $GPGGA,172416.00,4807.5237,N,12326.6183,W,2,11,0.8,24.7,M,-18.5,M,,*62
2023-08-27T17:24:18.0883791Z, 6cda8203-a249-e411-b0cc-f8bc1246af59, $GPGGA,172417.00,4807.5237,N,12326.6183,W,2,11,0.8,24.7,M,-18.5,M,,*63
2023-08-27T17:24:18.4179490Z, 6cda8203-a249-e411-b0cc-f8bc1246af59, $GPGGA,172418.00,4807.5237,N,12326.6184,W,2,11,0.8,24.6,M,-18.5,M,,*6A
2023-08-27T17:24:19.2682756Z, 6cda8203-a249-e411-b0cc-f8bc1246af59, $GPGGA,172419.00,4807.5237,N,12326.6183,W,2,11,0.8,24.6,M,-18.5,M,,*6C
2023-08-27T17:24:20.2480259Z, 6cda8203-a249-e411-b0cc-f8bc1246af59, $GPGGA,172420.00,4807.5236,N,12326.6183,W,2,11,0.8,24.6,M,-18.5,M,,*67
2023-08-27T17:24:21.8285391Z, 6cda8203-a249-e411-b0cc-f8bc1246af59, $GPGGA,172421.00,4807.5237,N,12326.6183,W,2,11,0.8,24.6,M,-18.5,M,,*67
2023-08-27T17:24:22.2484027Z, 6cda8203-a249-e411-b0cc-f8bc1246af59, $GPGGA,172422.00,4807.5237,N,12326.6182,W,2,11,0.8,24.6,M,-18.5,M,,*65
2023-08-27T17:24:24.0926717Z, 6cda8203-a249-e411-b0cc-f8bc1246af59, $GPGGA,172423.00,4807.5237,N,12326.6182,W,2,11,0.8,24.5,M,-18.5,M,,*67
2023-08-27T17:24:24.4188321Z, 6cda8203-a249-e411-b0cc-f8bc1246af59, $GPGGA,172424.00,4807.5236,N,12326.6181,W,2,11,0.8,24.5,M,-18.5,M,,*62
2023-08-27T17:24:25.2490320Z, 6cda8203-a249-e411-b0cc-f8bc1246af59, $GPGGA,172425.00,4807.5236,N,12326.6181,W,2,11,0.8,24.5,M,-18.5,M,,*63
2023-08-27T17:24:26.2585870Z, 6cda8203-a249-e411-b0cc-f8bc1246af59, $GPGGA,172426.00,4807.5236,N,12326.6181,W,2,11,0.8,24.5,M,-18.5,M,,*60
2023-08-27T17:24:27.2284090Z, 6cda8203-a249-e411-b0cc-f8bc1246af59, $GPGGA,172427.00,4807.5236,N,12326.6180,W,2,11,0.8,24.4,M,-18.5,M,,*61
2023-08-27T17:24:28.2589425Z, 6cda8203-a249-e411-b0cc-f8bc1246af59, $GPGGA,172428.00,4807.5236,N,12326.6180,W,2,11,0.8,24.4,M,-18.5,M,,*6E
2023-08-27T17:24:29.2587583Z, 6cda8203-a249-e411-b0cc-f8bc1246af59, $GPGGA,172429.00,4807.5236,N,12326.6180,W,2,11,0.8,24.4,M,-18.5,M,,*6F
2023-08-27T17:24:30.4192622Z, 6cda8203-a249-e411-b0cc-f8bc1246af59, $GPGGA,172430.00,4807.5236,N,12326.6179,W,2,11,0.8,24.3,M,-18.5,M,,*66
2023-08-27T17:24:32.0894476Z, 6cda8203-a249-e411-b0cc-f8bc1246af59, $GPGGA,172431.00,4807.5236,N,12326.6178,W,2,11,0.8,24.3,M,-18.5,M,,*66
2023-08-27T17:24:32.4189895Z, 6cda8203-a249-e411-b0cc-f8bc1246af59, $GPGGA,172432.00,4807.5236,N,12326.6178,W,2,11,0.8,24.3,M,-18.5,M,,*65
2023-08-27T17:24:33.2593149Z, 6cda8203-a249-e411-b0cc-f8bc1246af59, $GPGGA,172433.00,4807.5236,N,12326.6177,W,2,11,0.8,24.3,M,-18.5,M,,*6B
2023-08-27T17:24:34.2594401Z, 6cda8203-a249-e411-b0cc-f8bc1246af59, $GPGGA,172434.00,4807.5236,N,12326.6176,W,2,11,0.8,24.3,M,-18.5,M,,*6D
2023-08-27T17:24:35.2293524Z, 6cda8203-a249-e411-b0cc-f8bc1246af59, $GPGGA,172435.00,4807.5235,N,12326.6176,W,2,11,0.8,24.3,M,-18.5,M,,*6F
2023-08-27T17:24:37.0890794Z, 6cda8203-a249-e411-b0cc-f8bc1246af59, $GPGGA,172436.00,4807.5235,N,12326.6176,W,2,11,0.8,24.3,M,-18.5,M,,*6C
2023-08-27T17:24:37.4196357Z, 6cda8203-a249-e411-b0cc-f8bc1246af59, $GPGGA,172437.00,4807.5235,N,12326.6176,W,2,11,0.8,24.3,M,-18.5,M,,*6D
2023-08-27T17:24:38.2097462Z, 6cda8203-a249-e411-b0cc-f8bc1246af59, $GPGGA,172438.00,4807.5235,N,12326.6175,W,2,11,0.8,24.3,M,-18.5,M,,*61
2023-08-27T17:24:40.0897417Z, 6cda8203-a249-e411-b0cc-f8bc1246af59, $GPGGA,172439.00,4807.5235,N,12326.6175,W,2,11,0.8,24.3,M,-18.5,M,,*60
2023-08-27T17:24:40.4193219Z, 6cda8203-a249-e411-b0cc-f8bc1246af59, $GPGGA,172440.00,4807.5234,N,12326.6175,W,2,11,0.8,24.3,M,-18.5,M,,*6F
2023-08-27T17:24:42.0897628Z, 6cda8203-a249-e411-b0cc-f8bc1246af59, $GPGGA,172441.00,4807.5235,N,12326.6174,W,2,11,0.8,24.3,M,-18.5,M,,*6E
2023-08-27T17:24:42.4196428Z, 6cda8203-a249-e411-b0cc-f8bc1246af59, $GPGGA,172442.00,4807.5235,N,12326.6173,W,2,11,0.8,24.3,M,-18.5,M,,*6A
2023-08-27T17:24:44.0895632Z, 6cda8203-a249-e411-b0cc-f8bc1246af59, $GPGGA,172443.00,4807.5235,N,12326.6172,W,2,11,0.8,24.3,M,-18.5,M,,*6A
2023-08-27T17:24:44.4201763Z, 6cda8203-a249-e411-b0cc-f8bc1246af59, $GPGGA,172444.00,4807.5235,N,12326.6171,W,2,11,0.8,24.3,M,-18.5,M,,*6E
2023-08-27T17:24:46.0899194Z, 6cda8203-a249-e411-b0cc-f8bc1246af59, $GPGGA,172445.00,4807.5234,N,12326.6171,W,2,11,0.8,24.3,M,-18.5,M,,*6E
2023-08-27T17:24:46.8437917Z, 6cda8203-a249-e411-b0cc-f8bc1246af59, $GPGGA,172446.00,4807.5235,N,12326.6171,W,2,11,0.8,24.3,M,-18.5,M,,*6C
2023-08-27T17:24:48.0902986Z, 6cda8203-a249-e411-b0cc-f8bc1246af59, $GPGGA,172447.00,4807.5235,N,12326.6171,W,2,11,0.8,24.3,M,-18.5,M,,*6D
2023-08-27T17:24:48.4199229Z, 6cda8203-a249-e411-b0cc-f8bc1246af59, $GPGGA,172448.00,4807.5235,N,12326.6170,W,2,11,0.8,24.3,M,-18.5,M,,*63
2023-08-27T17:24:50.0906826Z, 6cda8203-a249-e411-b0cc-f8bc1246af59, $GPGGA,172449.00,4807.5234,N,12326.6171,W,2,11,0.8,24.3,M,-18.5,M,,*62
2023-08-27T17:24:50.4202633Z, 6cda8203-a249-e411-b0cc-f8bc1246af59, $GPGGA,172450.00,4807.5235,N,12326.6170,W,2,11,0.8,24.4,M,-18.5,M,,*6D
2023-08-27T17:24:52.1807484Z, 6cda8203-a249-e411-b0cc-f8bc1246af59, $GPGGA,172451.00,4807.5235,N,12326.6169,W,2,11,0.8,24.4,M,-18.5,M,,*64
2023-08-27T17:24:52.6207096Z, 6cda8203-a249-e411-b0cc-f8bc1246af59, $GPGGA,172452.00,4807.5235,N,12326.6169,W,2,11,0.8,24.4,M,-18.5,M,,*67
2023-08-27T17:24:53.2110828Z, 6cda8203-a249-e411-b0cc-f8bc1246af59, $GPGGA,172453.00,4807.5235,N,12326.6169,W,2,11,0.8,24.4,M,-18.5,M,,*66
2023-08-27T17:24:55.0911388Z, 6cda8203-a249-e411-b0cc-f8bc1246af59, $GPGGA,172454.00,4807.5235,N,12326.6169,W,2,11,0.8,24.4,M,-18.5,M,,*61
2023-08-27T17:24:55.4207732Z, 6cda8203-a249-e411-b0cc-f8bc1246af59, $GPGGA,172455.00,4807.5235,N,12326.6169,W,2,11,0.8,24.4,M,-18.5,M,,*60
2023-08-27T17:24:56.2212218Z, 6cda8203-a249-e411-b0cc-f8bc1246af59, $GPGGA,172456.00,4807.5236,N,12326.6168,W,2,11,0.8,24.4,M,-18.5,M,,*61
2023-08-27T17:24:58.1907078Z, 6cda8203-a249-e411-b0cc-f8bc1246af59, $GPGGA,172457.00,4807.5236,N,12326.6168,W,2,11,0.8,24.4,M,-18.5,M,,*60
2023-08-27T17:24:58.7214258Z, 6cda8203-a249-e411-b0cc-f8bc1246af59, $GPGGA,172458.00,4807.5236,N,12326.6167,W,2,11,0.8,24.5,M,-18.5,M,,*61
2023-08-27T17:25:00.0915154Z, 6cda8203-a249-e411-b0cc-f8bc1246af59, $GPGGA,172459.00,4807.5237,N,12326.6167,W,2,11,0.8,24.5,M,-18.5,M,,*61
2023-08-27T17:25:00.4210985Z, 6cda8203-a249-e411-b0cc-f8bc1246af59, $GPGGA,172500.00,4807.5237,N,12326.6167,W,2,11,0.8,24.4,M,-18.5,M,,*6D
2023-08-27T17:25:02.0916830Z, 6cda8203-a249-e411-b0cc-f8bc1246af59, $GPGGA,172501.00,4807.5238,N,12326.6167,W,2,11,0.8,24.4,M,-18.5,M,,*63
2023-08-27T17:25:02.4212511Z, 6cda8203-a249-e411-b0cc-f8bc1246af59, $GPGGA,172502.00,4807.5238,N,12326.6166,W,2,11,0.8,24.4,M,-18.5,M,,*61
2023-08-27T17:25:04.0914957Z, 6cda8203-a249-e411-b0cc-f8bc1246af59, $GPGGA,172503.00,4807.5238,N,12326.6166,W,2,11,0.8,24.5,M,-18.5,M,,*61
2023-08-27T17:25:04.4211176Z, 6cda8203-a249-e411-b0cc-f8bc1246af59, $GPGGA,172504.00,4807.5238,N,12326.6166,W,2,11,0.8,24.5,M,-18.5,M,,*66
2023-08-27T17:25:05.2217932Z, 6cda8203-a249-e411-b0cc-f8bc1246af59, $GPGGA,172505.00,4807.5238,N,12326.6165,W,2,11,0.8,24.5,M,-18.5,M,,*64
2023-08-27T17:25:07.0916490Z, 6cda8203-a249-e411-b0cc-f8bc1246af59, $GPGGA,172506.00,4807.5239,N,12326.6165,W,2,11,0.8,24.5,M,-18.5,M,,*66
2023-08-27T17:25:07.4212933Z, 6cda8203-a249-e411-b0cc-f8bc1246af59, $GPGGA,172507.00,4807.5239,N,12326.6164,W,2,11,0.8,24.5,M,-18.5,M,,*66
2023-08-27T17:25:08.2217644Z, 6cda8203-a249-e411-b0cc-f8bc1246af59, $GPGGA,172508.00,4807.5239,N,12326.6164,W,2,11,0.8,24.5,M,-18.5,M,,*69
2023-08-27T17:25:10.1822646Z, 6cda8203-a249-e411-b0cc-f8bc1246af59, $GPGGA,172509.00,4807.5240,N,12326.6163,W,2,11,0.8,24.5,M,-18.5,M,,*61
2023-08-27T17:25:10.6322511Z, 6cda8203-a249-e411-b0cc-f8bc1246af59, $GPGGA,172510.00,4807.5240,N,12326.6163,W,2,11,0.8,24.5,M,-18.5,M,,*69
2023-08-27T17:25:11.2217385Z, 6cda8203-a249-e411-b0cc-f8bc1246af59, $GPGGA,172511.00,4807.5240,N,12326.6163,W,2,11,0.8,24.5,M,-18.5,M,,*68
2023-08-27T17:25:13.0916071Z, 6cda8203-a249-e411-b0cc-f8bc1246af59, $GPGGA,172512.00,4807.5241,N,12326.6162,W,2,11,0.8,24.5,M,-18.5,M,,*6B
2023-08-27T17:25:13.4221816Z, 6cda8203-a249-e411-b0cc-f8bc1246af59, $GPGGA,172513.00,4807.5241,N,12326.6162,W,2,11,0.8,24.5,M,-18.5,M,,*6A
2023-08-27T17:25:15.0919609Z, 6cda8203-a249-e411-b0cc-f8bc1246af59, $GPGGA,172514.00,4807.5242,N,12326.6161,W,2,11,0.8,24.5,M,-18.5,M,,*6D
2023-08-27T17:25:15.4225133Z, 6cda8203-a249-e411-b0cc-f8bc1246af59, $GPGGA,172515.00,4807.5242,N,12326.6160,W,2,11,0.8,24.5,M,-18.5,M,,*6D
2023-08-27T17:25:16.7718716Z, 6cda8203-a249-e411-b0cc-f8bc1246af59, $GPGGA,172516.00,4807.5242,N,12326.6160,W,2,11,0.8,24.5,M,-18.5,M,,*6E
2023-08-27T17:25:18.0921517Z, 6cda8203-a249-e411-b0cc-f8bc1246af59, $GPGGA,172517.00,4807.5243,N,12326.6160,W,2,11,0.8,24.5,M,-18.5,M,,*6E
2023-08-27T17:25:18.4227008Z, 6cda8203-a249-e411-b0cc-f8bc1246af59, $GPGGA,172518.00,4807.5243,N,12326.6160,W,2,11,0.8,24.4,M,-18.5,M,,*60
2023-08-27T17:25:20.0952330Z, 6cda8203-a249-e411-b0cc-f8bc1246af59, $GPGGA,172519.00,4807.5244,N,12326.6161,W,2,11,0.8,24.4,M,-18.5,M,,*67
2023-08-27T17:25:20.4228201Z, 6cda8203-a249-e411-b0cc-f8bc1246af59, $GPGGA,172520.00,4807.5244,N,12326.6162,W,2,11,0.8,24.4,M,-18.5,M,,*6E
2023-08-27T17:25:22.1830251Z, 6cda8203-a249-e411-b0cc-f8bc1246af59, $GPGGA,172521.00,4807.5245,N,12326.6162,W,2,11,0.8,24.3,M,-18.5,M,,*69
2023-08-27T17:25:22.6827152Z, 6cda8203-a249-e411-b0cc-f8bc1246af59, $GPGGA,172522.00,4807.5245,N,12326.6163,W,2,11,0.8,24.3,M,-18.5,M,,*6B
2023-08-27T17:25:23.3727560Z, 6cda8203-a249-e411-b0cc-f8bc1246af59, $GPGGA,172523.00,4807.5246,N,12326.6163,W,2,11,0.8,24.3,M,-18.5,M,,*69
2023-08-27T17:25:24.2624627Z, 6cda8203-a249-e411-b0cc-f8bc1246af59, $GPGGA,172524.00,4807.5246,N,12326.6163,W,2,11,0.8,24.3,M,-18.5,M,,*6E
2023-08-27T17:25:26.0924925Z, 6cda8203-a249-e411-b0cc-f8bc1246af59, $GPGGA,172525.00,4807.5247,N,12326.6164,W,2,11,0.8,24.3,M,-18.5,M,,*69
2023-08-27T17:25:26.4230429Z, 6cda8203-a249-e411-b0cc-f8bc1246af59, $GPGGA,172526.00,4807.5248,N,12326.6164,W,2,11,0.8,24.3,M,-18.5,M,,*65
2023-08-27T17:25:28.0926107Z, 6cda8203-a249-e411-b0cc-f8bc1246af59, $GPGGA,172527.00,4807.5249,N,12326.6165,W,2,11,0.8,24.3,M,-18.5,M,,*64
2023-08-27T17:25:28.4231707Z, 6cda8203-a249-e411-b0cc-f8bc1246af59, $GPGGA,172528.00,4807.5249,N,12326.6165,W,2,11,0.8,24.3,M,-18.5,M,,*6B
2023-08-27T17:25:30.0929942Z, 6cda8203-a249-e411-b0cc-f8bc1246af59, $GPGGA,172529.00,4807.5250,N,12326.6166,W,2,11,0.8,24.2,M,-18.5,M,,*60
2023-08-27T17:25:30.4235595Z, 6cda8203-a249-e411-b0cc-f8bc1246af59, $GPGGA,172530.00,4807.5251,N,12326.6166,W,2,11,0.8,24.2,M,-18.5,M,,*69
2023-08-27T17:25:31.3734599Z, 6cda8203-a249-e411-b0cc-f8bc1246af59, $GPGGA,172531.00,4807.5251,N,12326.6166,W,2,11,0.8,24.2,M,-18.5,M,,*68
2023-08-27T17:25:33.0932599Z, 6cda8203-a249-e411-b0cc-f8bc1246af59, $GPGGA,172532.00,4807.5252,N,12326.6166,W,2,11,0.8,24.1,M,-18.5,M,,*6B
2023-08-27T17:25:33.4237970Z, 6cda8203-a249-e411-b0cc-f8bc1246af59, $GPGGA,172533.00,4807.5253,N,12326.6166,W,2,11,0.8,24.1,M,-18.5,M,,*6B
2023-08-27T17:25:35.0931437Z, 6cda8203-a249-e411-b0cc-f8bc1246af59, $GPGGA,172534.00,4807.5253,N,12326.6166,W,2,11,0.8,24.0,M,-18.5,M,,*6D
2023-08-27T17:25:35.4237748Z, 6cda8203-a249-e411-b0cc-f8bc1246af59, $GPGGA,172535.00,4807.5253,N,12326.6166,W,2,11,0.8,24.0,M,-18.5,M,,*6C
2023-08-27T17:25:37.0934984Z, 6cda8203-a249-e411-b0cc-f8bc1246af59, $GPGGA,172536.00,4807.5253,N,12326.6165,W,2,11,0.8,24.0,M,-18.5,M,,*6C
2023-08-27T17:25:37.4240716Z, 6cda8203-a249-e411-b0cc-f8bc1246af59, $GPGGA,172537.00,4807.5254,N,12326.6165,W,2,11,0.8,24.0,M,-18.5,M,,*6A
2023-08-27T17:25:39.0939810Z, 6cda8203-a249-e411-b0cc-f8bc1246af59, $GPGGA,172538.00,4807.5254,N,12326.6165,W,2,11,0.8,23.9,M,-18.5,M,,*6B
2023-08-27T17:25:39.8742703Z, 6cda8203-a249-e411-b0cc-f8bc1246af59, $GPGGA,172539.00,4807.5255,N,12326.6164,W,2,11,0.8,23.9,M,-18.5,M,,*6A
2023-08-27T17:25:41.0935062Z, 6cda8203-a249-e411-b0cc-f8bc1246af59, $GPGGA,172540.00,4807.5255,N,12326.6164,W,2,11,0.8,23.8,M,-18.5,M,,*65
2023-08-27T17:25:41.4240580Z, 6cda8203-a249-e411-b0cc-f8bc1246af59, $GPGGA,172541.00,4807.5255,N,12326.6164,W,2,11,0.8,23.8,M,-18.5,M,,*64
2023-08-27T17:25:42.2337802Z, 6cda8203-a249-e411-b0cc-f8bc1246af59, $GPGGA,172542.00,4807.5255,N,12326.6163,W,2,11,0.8,23.8,M,-18.5,M,,*60
2023-08-27T17:25:44.0942226Z, 6cda8203-a249-e411-b0cc-f8bc1246af59, $GPGGA,172543.00,4807.5256,N,12326.6163,W,2,11,0.8,23.7,M,-18.5,M,,*6D
2023-08-27T17:25:44.4237968Z, 6cda8203-a249-e411-b0cc-f8bc1246af59, $GPGGA,172544.00,4807.5256,N,12326.6163,W,2,11,0.8,23.6,M,-18.5,M,,*6B
2023-08-27T17:25:45.8745114Z, 6cda8203-a249-e411-b0cc-f8bc1246af59, $GPGGA,172545.00,4807.5256,N,12326.6163,W,2,11,0.8,23.6,M,-18.5,M,,*6A
2023-08-27T17:25:47.0944302Z, 6cda8203-a249-e411-b0cc-f8bc1246af59, $GPGGA,172546.00,4807.5256,N,12326.6163,W,2,11,0.8,23.5,M,-18.5,M,,*6A
2023-08-27T17:25:47.4239715Z, 6cda8203-a249-e411-b0cc-f8bc1246af59, $GPGGA,172547.00,4807.5256,N,12326.6163,W,2,11,0.8,23.5,M,-18.5,M,,*6B
2023-08-27T17:25:49.0944992Z, 6cda8203-a249-e411-b0cc-f8bc1246af59, $GPGGA,172548.00,4807.5256,N,12326.6163,W,2,11,0.8,23.5,M,-18.5,M,,*64
2023-08-27T17:25:49.4240981Z, 6cda8203-a249-e411-b0cc-f8bc1246af59, $GPGGA,172549.00,4807.5257,N,12326.6163,W,2,11,0.8,23.4,M,-18.5,M,,*65
2023-08-27T17:25:51.1851374Z, 6cda8203-a249-e411-b0cc-f8bc1246af59, $GPGGA,172550.00,4807.5257,N,12326.6163,W,2,11,0.8,23.4,M,-18.5,M,,*6D
2023-08-27T17:25:51.6443835Z, 6cda8203-a249-e411-b0cc-f8bc1246af59, $GPGGA,172551.00,4807.5257,N,12326.6163,W,2,11,0.8,23.3,M,-18.5,M,,*6B
2023-08-27T17:25:52.2447409Z, 6cda8203-a249-e411-b0cc-f8bc1246af59, $GPGGA,172552.00,4807.5257,N,12326.6163,W,2,11,0.8,23.3,M,-18.5,M,,*68
2023-08-27T17:25:53.2444026Z, 6cda8203-a249-e411-b0cc-f8bc1246af59, $GPGGA,172553.00,4807.5258,N,12326.6163,W,2,11,0.8,23.3,M,-18.5,M,,*66
2023-08-27T17:25:55.0951715Z, 6cda8203-a249-e411-b0cc-f8bc1246af59, $GPGGA,172554.00,4807.5258,N,12326.6163,W,2,11,0.8,23.2,M,-18.5,M,,*60
2023-08-27T17:25:55.4247091Z, 6cda8203-a249-e411-b0cc-f8bc1246af59, $GPGGA,172555.00,4807.5259,N,12326.6163,W,2,11,0.8,23.2,M,-18.5,M,,*60
2023-08-27T17:25:57.2348887Z, 6cda8203-a249-e411-b0cc-f8bc1246af59, $GPGGA,172556.00,4807.5259,N,12326.6162,W,2,11,0.8,23.2,M,-18.5,M,,*62
2023-08-27T17:25:57.4250377Z, 6cda8203-a249-e411-b0cc-f8bc1246af59, $GPGGA,172557.00,4807.5260,N,12326.6162,W,2,11,0.8,23.2,M,-18.5,M,,*69
2023-08-27T17:25:58.2456216Z, 6cda8203-a249-e411-b0cc-f8bc1246af59, $GPGGA,172558.00,4807.5260,N,12326.6162,W,2,11,0.8,23.1,M,-18.5,M,,*65
2023-08-27T17:26:00.0950034Z, 6cda8203-a249-e411-b0cc-f8bc1246af59, $GPGGA,172559.00,4807.5261,N,12326.6161,W,2,11,0.8,23.1,M,-18.5,M,,*66
2023-08-27T17:26:00.4255262Z, 6cda8203-a249-e411-b0cc-f8bc1246af59, $GPGGA,172600.00,4807.5261,N,12326.6161,W,2,11,0.8,23.0,M,-18.5,M,,*68
2023-08-27T17:26:01.2455682Z, 6cda8203-a249-e411-b0cc-f8bc1246af59, $GPGGA,172601.00,4807.5262,N,12326.6161,W,2,11,0.8,23.0,M,-18.5,M,,*6A
2023-08-27T17:26:03.2355067Z, 6cda8203-a249-e411-b0cc-f8bc1246af59, $GPGGA,172602.00,4807.5263,N,12326.6161,W,2,11,0.8,23.0,M,-18.5,M,,*68
2023-08-27T17:26:03.7054240Z, 6cda8203-a249-e411-b0cc-f8bc1246af59, $GPGGA,172603.00,4807.5263,N,12326.6161,W,2,11,0.8,22.9,M,-18.5,M,,*61
2023-08-27T17:26:05.0954002Z, 6cda8203-a249-e411-b0cc-f8bc1246af59, $GPGGA,172604.00,4807.5264,N,12326.6161,W,2,11,0.8,22.9,M,-18.5,M,,*61
2023-08-27T17:26:05.4259811Z, 6cda8203-a249-e411-b0cc-f8bc1246af59, $GPGGA,172605.00,4807.5265,N,12326.6160,W,2,11,0.8,22.9,M,-18.5,M,,*60
2023-08-27T17:26:06.2476492Z, 6cda8203-a249-e411-b0cc-f8bc1246af59, $GPGGA,172606.00,4807.5265,N,12326.6160,W,2,11,0.8,22.8,M,-18.5,M,,*62
2023-08-27T17:26:07.4161405Z, 6cda8203-a249-e411-b0cc-f8bc1246af59, $GPGGA,172607.00,4807.5266,N,12326.6160,W,2,11,0.8,22.7,M,-18.5,M,,*6F
2023-08-27T17:26:08.2455456Z, 6cda8203-a249-e411-b0cc-f8bc1246af59, $GPGGA,172608.00,4807.5266,N,12326.6160,W,2,11,0.8,22.6,M,-18.5,M,,*61
2023-08-27T17:26:10.0965343Z, 6cda8203-a249-e411-b0cc-f8bc1246af59, $GPGGA,172609.00,4807.5266,N,12326.6160,W,2,11,0.8,22.6,M,-18.5,M,,*60
