ACQ Timestamp (Server Time in UTC), MessageID, Data Value For: GNSS-6452-$GPGGA
2023-07-17T21:14:34.0967761Z, 6cda8203-a249-e411-b0cc-f8bc1246af59, $GPGGA,211433.00,4034.9035,N,12452.6870,W,2,11,0.8,23.2,M,-27.1,M,,*6C
2023-07-17T21:14:34.4661582Z, 6cda8203-a249-e411-b0cc-f8bc1246af59, $GPGGA,211434.00,4034.9062,N,12452.6868,W,2,11,0.8,22.9,M,-27.1,M,,*6A
2023-07-17T21:14:35.4668062Z, 6cda8203-a249-e411-b0cc-f8bc1246af59, $GPGGA,211435.00,4034.9089,N,12452.6864,W,2,11,0.8,22.9,M,-27.1,M,,*62
2023-07-17T21:14:37.0967778Z, 6cda8203-a249-e411-b0cc-f8bc1246af59, $GPGGA,211436.00,4034.9117,N,12452.6860,W,2,11,0.8,23.1,M,-27.1,M,,*6A
2023-07-17T21:14:37.4661649Z, 6cda8203-a249-e411-b0cc-f8bc1246af59, $GPGGA,211437.00,4034.9143,N,12452.6856,W,2,11,0.8,23.2,M,-27.1,M,,*6C
2023-07-17T21:14:39.0970994Z, 6cda8203-a249-e411-b0cc-f8bc1246af59, $GPGGA,211438.00,4034.9171,N,12452.6853,W,2,11,0.8,23.3,M,-27.1,M,,*66
2023-07-17T21:14:39.4665168Z, 6cda8203-a249-e411-b0cc-f8bc1246af59, $GPGGA,211439.00,4034.9198,N,12452.6852,W,2,11,0.8,23.1,M,-27.1,M,,*63
2023-07-17T21:14:40.4671715Z, 6cda8203-a249-e411-b0cc-f8bc1246af59, $GPGGA,211440.00,4034.9225,N,12452.6850,W,2,11,0.8,23.0,M,-27.1,M,,*6B
2023-07-17T21:14:42.0971228Z, 6cda8203-a249-e411-b0cc-f8bc1246af59, $GPGGA,211441.00,4034.9254,N,12452.6848,W,2,11,0.8,22.9,M,-27.1,M,,*6D
2023-07-17T21:14:42.4675228Z, 6cda8203-a249-e411-b0cc-f8bc1246af59, $GPGGA,211442.00,4034.9282,N,12452.6844,W,2,11,0.8,23.1,M,-27.1,M,,*60
2023-07-17T21:14:43.4671487Z, 6cda8203-a249-e411-b0cc-f8bc1246af59, $GPGGA,211443.00,4034.9309,N,12452.6840,W,2,11,0.8,23.4,M,-27.1,M,,*62
2023-07-17T21:14:45.1877060Z, 6cda8203-a249-e411-b0cc-f8bc1246af59, $GPGGA,211444.00,4034.9335,N,12452.6836,W,2,11,0.8,23.6,M,-27.1,M,,*69
2023-07-17T21:14:45.6775488Z, 6cda8203-a249-e411-b0cc-f8bc1246af59, $GPGGA,211445.00,4034.9364,N,12452.6833,W,2,11,0.8,23.5,M,-27.1,M,,*6A
2023-07-17T21:14:46.4671403Z, 6cda8203-a249-e411-b0cc-f8bc1246af59, $GPGGA,211446.00,4034.9395,N,12452.6833,W,2,11,0.8,23.1,M,-27.1,M,,*63
2023-07-17T21:14:48.0970691Z, 6cda8203-a249-e411-b0cc-f8bc1246af59, $GPGGA,211447.00,4034.9423,N,12452.6834,W,2,11,0.8,22.6,M,-27.1,M,,*69
2023-07-17T21:14:48.4674648Z, 6cda8203-a249-e411-b0cc-f8bc1246af59, $GPGGA,211448.00,4034.9447,N,12452.6832,W,2,11,0.8,22.8,M,-27.1,M,,*6C
2023-07-17T21:14:49.4671257Z, 6cda8203-a249-e411-b0cc-f8bc1246af59, $GPGGA,211449.00,4034.9472,N,12452.6828,W,2,11,0.8,23.4,M,-27.1,M,,*6D
2023-07-17T21:14:51.2774347Z, 6cda8203-a249-e411-b0cc-f8bc1246af59, $GPGGA,211450.00,4034.9501,N,12452.6822,W,2,11,0.8,23.7,M,-27.1,M,,*69
2023-07-17T21:14:51.6776871Z, 6cda8203-a249-e411-b0cc-f8bc1246af59, $GPGGA,211451.00,4034.9532,N,12452.6819,W,2,11,0.8,23.2,M,-27.1,M,,*65
2023-07-17T21:14:53.0975426Z, 6cda8203-a249-e411-b0cc-f8bc1246af59, $GPGGA,211452.00,4034.9558,N,12452.6817,W,2,11,0.8,22.9,M,-27.1,M,,*6E
2023-07-17T21:14:53.4679399Z, 6cda8203-a249-e411-b0cc-f8bc1246af59, $GPGGA,211453.00,4034.9583,N,12452.6815,W,2,11,0.8,23.0,M,-27.1,M,,*63
2023-07-17T21:14:55.0978859Z, 6cda8203-a249-e411-b0cc-f8bc1246af59, $GPGGA,211454.00,4034.9609,N,12452.6813,W,2,11,0.8,23.3,M,-27.1,M,,*60
2023-07-17T21:14:55.4682566Z, 6cda8203-a249-e411-b0cc-f8bc1246af59, $GPGGA,211455.00,4034.9637,N,12452.6810,W,2,11,0.8,23.3,M,-27.1,M,,*6F
2023-07-17T21:14:57.0981966Z, 6cda8203-a249-e411-b0cc-f8bc1246af59, $GPGGA,211456.00,4034.9665,N,12452.6808,W,2,11,0.8,23.0,M,-27.1,M,,*61
2023-07-17T21:14:57.4785288Z, 6cda8203-a249-e411-b0cc-f8bc1246af59, $GPGGA,211457.00,4034.9691,N,12452.6806,W,2,11,0.8,22.9,M,-27.1,M,,*6D
2023-07-17T21:14:59.0985163Z, 6cda8203-a249-e411-b0cc-f8bc1246af59, $GPGGA,211458.00,4034.9717,N,12452.6803,W,2,11,0.8,23.2,M,-27.1,M,,*62
2023-07-17T21:14:59.4778532Z, 6cda8203-a249-e411-b0cc-f8bc1246af59, $GPGGA,211459.00,4034.9744,N,12452.6800,W,2,11,0.8,23.5,M,-27.1,M,,*61
2023-07-17T21:15:01.0978671Z, 6cda8203-a249-e411-b0cc-f8bc1246af59, $GPGGA,211500.00,4034.9772,N,12452.6797,W,2,11,0.8,23.3,M,-27.1,M,,*6E
2023-07-17T21:15:01.4781790Z, 6cda8203-a249-e411-b0cc-f8bc1246af59, $GPGGA,211501.00,4034.9800,N,12452.6795,W,2,11,0.8,23.0,M,-27.1,M,,*64
2023-07-17T21:15:02.7486722Z, 6cda8203-a249-e411-b0cc-f8bc1246af59, $GPGGA,211502.00,4034.9827,N,12452.6792,W,2,11,0.8,23.0,M,-27.1,M,,*65
2023-07-17T21:15:04.0988398Z, 6cda8203-a249-e411-b0cc-f8bc1246af59, $GPGGA,211503.00,4034.9854,N,12452.6789,W,2,11,0.8,23.1,M,-27.1,M,,*6B
2023-07-17T21:15:04.4781873Z, 6cda8203-a249-e411-b0cc-f8bc1246af59, $GPGGA,211504.00,4034.9882,N,12452.6785,W,2,11,0.8,23.2,M,-27.1,M,,*68
2023-07-17T21:15:05.4788514Z, 6cda8203-a249-e411-b0cc-f8bc1246af59, $GPGGA,211505.00,4034.9909,N,12452.6784,W,2,10,0.8,23.2,M,-27.1,M,,*6B
2023-07-17T21:15:07.0988370Z, 6cda8203-a249-e411-b0cc-f8bc1246af59, $GPGGA,211506.00,4034.9937,N,12452.6783,W,2,10,0.8,23.1,M,-27.1,M,,*61
2023-07-17T21:15:07.4791774Z, 6cda8203-a249-e411-b0cc-f8bc1246af59, $GPGGA,211507.00,4034.9966,N,12452.6782,W,2,11,0.8,23.3,M,-27.1,M,,*66
2023-07-17T21:15:09.0991650Z, 6cda8203-a249-e411-b0cc-f8bc1246af59, $GPGGA,211508.00,4034.9995,N,12452.6778,W,2,11,0.8,23.5,M,-27.1,M,,*66
2023-07-17T21:15:09.4785184Z, 6cda8203-a249-e411-b0cc-f8bc1246af59, $GPGGA,211509.00,4035.0021,N,12452.6774,W,2,11,0.8,23.8,M,-27.1,M,,*68
2023-07-17T21:15:11.0995195Z, 6cda8203-a249-e411-b0cc-f8bc1246af59, $GPGGA,211510.00,4035.0048,N,12452.6771,W,2,11,0.8,23.9,M,-27.1,M,,*6B
2023-07-17T21:15:11.4788453Z, 6cda8203-a249-e411-b0cc-f8bc1246af59, $GPGGA,211511.00,4035.0077,N,12452.6771,W,2,11,0.8,23.7,M,-27.1,M,,*68
2023-07-17T21:15:13.0988236Z, 6cda8203-a249-e411-b0cc-f8bc1246af59, $GPGGA,211512.00,4035.0106,N,12452.6771,W,2,10,0.8,23.7,M,-27.1,M,,*6D
2023-07-17T21:15:13.4792207Z, 6cda8203-a249-e411-b0cc-f8bc1246af59, $GPGGA,211513.00,4035.0133,N,12452.6768,W,2,10,0.8,24.0,M,-27.1,M,,*62
2023-07-17T21:15:15.1036152Z, 6cda8203-a249-e411-b0cc-f8bc1246af59, $GPGGA,211514.00,4035.0160,N,12452.6765,W,2,11,0.8,24.3,M,-27.1,M,,*6C
2023-07-17T21:15:15.4794979Z, 6cda8203-a249-e411-b0cc-f8bc1246af59, $GPGGA,211515.00,4035.0189,N,12452.6760,W,2,11,0.8,24.7,M,-27.1,M,,*6B
2023-07-17T21:15:16.4791628Z, 6cda8203-a249-e411-b0cc-f8bc1246af59, $GPGGA,211516.00,4035.0218,N,12452.6757,W,2,11,0.8,24.7,M,-27.1,M,,*67
2023-07-17T21:15:18.0991485Z, 6cda8203-a249-e411-b0cc-f8bc1246af59, $GPGGA,211517.00,4035.0245,N,12452.6756,W,2,11,0.8,24.5,M,-27.1,M,,*6D
2023-07-17T21:15:18.4794963Z, 6cda8203-a249-e411-b0cc-f8bc1246af59, $GPGGA,211518.00,4035.0272,N,12452.6756,W,2,11,0.8,24.3,M,-27.1,M,,*60
2023-07-17T21:15:20.1900742Z, 6cda8203-a249-e411-b0cc-f8bc1246af59, $GPGGA,211519.00,4035.0301,N,12452.6757,W,2,11,0.8,24.2,M,-27.1,M,,*64
2023-07-17T21:15:20.6898829Z, 6cda8203-a249-e411-b0cc-f8bc1246af59, $GPGGA,211520.00,4035.0329,N,12452.6756,W,2,11,0.8,24.3,M,-27.1,M,,*64
2023-07-17T21:15:21.4794956Z, 6cda8203-a249-e411-b0cc-f8bc1246af59, $GPGGA,211521.00,4035.0354,N,12452.6751,W,2,11,0.8,24.6,M,-27.1,M,,*6D
2023-07-17T21:15:22.4835791Z, 6cda8203-a249-e411-b0cc-f8bc1246af59, $GPGGA,211522.00,4035.0380,N,12452.6744,W,2,10,0.8,25.0,M,-27.1,M,,*65
2023-07-17T21:15:24.1001197Z, 6cda8203-a249-e411-b0cc-f8bc1246af59, $GPGGA,211523.00,4035.0409,N,12452.6739,W,2,10,0.8,25.3,M,-27.1,M,,*6B
2023-07-17T21:15:24.4904016Z, 6cda8203-a249-e411-b0cc-f8bc1246af59, $GPGGA,211524.00,4035.0438,N,12452.6738,W,2,11,0.8,25.0,M,-27.1,M,,*6D
2023-07-17T21:15:26.0596033Z, 6cda8203-a249-e411-b0cc-f8bc1246af59, $GPGGA,211525.00,4035.0466,N,12452.6739,W,2,10,0.8,24.7,M,-27.1,M,,*61
2023-07-17T21:15:27.1001123Z, 6cda8203-a249-e411-b0cc-f8bc1246af59, $GPGGA,211526.00,4035.0491,N,12452.6740,W,2,10,0.8,24.7,M,-27.1,M,,*64
2023-07-17T21:15:27.4903840Z, 6cda8203-a249-e411-b0cc-f8bc1246af59, $GPGGA,211527.00,4035.0517,N,12452.6736,W,2,10,0.8,25.1,M,-27.1,M,,*6C
2023-07-17T21:15:28.4900509Z, 6cda8203-a249-e411-b0cc-f8bc1246af59, $GPGGA,211528.00,4035.0545,N,12452.6730,W,2,10,0.8,25.4,M,-27.1,M,,*67
2023-07-17T21:15:30.1001064Z, 6cda8203-a249-e411-b0cc-f8bc1246af59, $GPGGA,211529.00,4035.0574,N,12452.6725,W,2,11,0.8,25.3,M,-27.1,M,,*66
2023-07-17T21:15:30.4901771Z, 6cda8203-a249-e411-b0cc-f8bc1246af59, $GPGGA,211530.00,4035.0601,N,12452.6722,W,2,11,0.8,25.1,M,-27.1,M,,*6A
2023-07-17T21:15:32.0105937Z, 6cda8203-a249-e411-b0cc-f8bc1246af59, $GPGGA,211531.00,4035.0626,N,12452.6718,W,2,10,0.8,25.5,M,-27.1,M,,*62
2023-07-17T21:15:32.6507780Z, 6cda8203-a249-e411-b0cc-f8bc1246af59, $GPGGA,211532.00,4035.0653,N,12452.6713,W,2,10,0.8,25.8,M,-27.1,M,,*65
2023-07-17T21:15:34.1005352Z, 6cda8203-a249-e411-b0cc-f8bc1246af59, $GPGGA,211533.00,4035.0682,N,12452.6710,W,2,11,0.8,25.6,M,-27.1,M,,*64
2023-07-17T21:15:34.4908284Z, 6cda8203-a249-e411-b0cc-f8bc1246af59, $GPGGA,211534.00,4035.0710,N,12452.6709,W,2,11,0.8,25.4,M,-27.1,M,,*63
2023-07-17T21:15:35.4904956Z, 6cda8203-a249-e411-b0cc-f8bc1246af59, $GPGGA,211535.00,4035.0736,N,12452.6706,W,2,11,0.8,25.4,M,-27.1,M,,*69
2023-07-17T21:15:37.1005280Z, 6cda8203-a249-e411-b0cc-f8bc1246af59, $GPGGA,211536.00,4035.0763,N,12452.6700,W,2,11,0.8,25.8,M,-27.1,M,,*60
2023-07-17T21:15:37.4908406Z, 6cda8203-a249-e411-b0cc-f8bc1246af59, $GPGGA,211537.00,4035.0791,N,12452.6694,W,2,11,0.8,26.2,M,-27.1,M,,*69
2023-07-17T21:15:38.6507721Z, 6cda8203-a249-e411-b0cc-f8bc1246af59, $GPGGA,211538.00,4035.0819,N,12452.6690,W,2,11,0.8,26.0,M,-27.1,M,,*6F
2023-07-17T21:15:40.1015254Z, 6cda8203-a249-e411-b0cc-f8bc1246af59, $GPGGA,211539.00,4035.0846,N,12452.6688,W,2,11,0.8,25.7,M,-27.1,M,,*69
2023-07-17T21:15:40.4908096Z, 6cda8203-a249-e411-b0cc-f8bc1246af59, $GPGGA,211540.00,4035.0872,N,12452.6686,W,2,11,0.8,25.7,M,-27.1,M,,*6E
2023-07-17T21:15:41.4914696Z, 6cda8203-a249-e411-b0cc-f8bc1246af59, $GPGGA,211541.00,4035.0900,N,12452.6683,W,2,11,0.8,25.9,M,-27.1,M,,*60
2023-07-17T21:15:42.4911349Z, 6cda8203-a249-e411-b0cc-f8bc1246af59, $GPGGA,211542.00,4035.0928,N,12452.6680,W,2,11,0.8,26.0,M,-27.1,M,,*60
2023-07-17T21:15:44.1011557Z, 6cda8203-a249-e411-b0cc-f8bc1246af59, $GPGGA,211543.00,4035.0955,N,12452.6675,W,2,10,0.8,25.8,M,-27.1,M,,*6B
2023-07-17T21:15:44.8809057Z, 6cda8203-a249-e411-b0cc-f8bc1246af59, $GPGGA,211544.00,4035.0982,N,12452.6671,W,2,10,0.8,25.7,M,-27.1,M,,*6D
2023-07-17T21:15:45.4912570Z, 6cda8203-a249-e411-b0cc-f8bc1246af59, $GPGGA,211545.00,4035.1010,N,12452.6669,W,2,10,0.8,25.7,M,-27.1,M,,*66
2023-07-17T21:15:47.1013011Z, 6cda8203-a249-e411-b0cc-f8bc1246af59, $GPGGA,211546.00,4035.1039,N,12452.6670,W,2,11,0.8,25.7,M,-27.1,M,,*67
2023-07-17T21:15:47.4916013Z, 6cda8203-a249-e411-b0cc-f8bc1246af59, $GPGGA,211547.00,4035.1067,N,12452.6668,W,2,11,0.8,25.9,M,-27.1,M,,*6A
2023-07-17T21:15:48.4912428Z, 6cda8203-a249-e411-b0cc-f8bc1246af59, $GPGGA,211548.00,4035.1094,N,12452.6664,W,2,11,0.8,26.1,M,-27.1,M,,*6E
2023-07-17T21:15:49.4919815Z, 6cda8203-a249-e411-b0cc-f8bc1246af59, $GPGGA,211549.00,4035.1121,N,12452.6661,W,2,11,0.8,26.2,M,-27.1,M,,*66
2023-07-17T21:15:51.1020261Z, 6cda8203-a249-e411-b0cc-f8bc1246af59, $GPGGA,211550.00,4035.1151,N,12452.6660,W,2,11,0.8,26.2,M,-27.1,M,,*68
2023-07-17T21:15:51.5022817Z, 6cda8203-a249-e411-b0cc-f8bc1246af59, $GPGGA,211551.00,4035.1180,N,12452.6661,W,2,11,0.8,26.0,M,-27.1,M,,*66
2023-07-17T21:15:52.5019155Z, 6cda8203-a249-e411-b0cc-f8bc1246af59, $GPGGA,211552.00,4035.1207,N,12452.6660,W,2,11,0.8,26.0,M,-27.1,M,,*68
2023-07-17T21:15:53.5015742Z, 6cda8203-a249-e411-b0cc-f8bc1246af59, $GPGGA,211553.00,4035.1234,N,12452.6659,W,2,11,0.8,26.1,M,-27.1,M,,*62
2023-07-17T21:15:55.1016632Z, 6cda8203-a249-e411-b0cc-f8bc1246af59, $GPGGA,211554.00,4035.1262,N,12452.6658,W,2,11,0.8,26.3,M,-27.1,M,,*65
2023-07-17T21:15:55.5019283Z, 6cda8203-a249-e411-b0cc-f8bc1246af59, $GPGGA,211555.00,4035.1290,N,12452.6659,W,2,11,0.8,26.3,M,-27.1,M,,*68
2023-07-17T21:15:56.5017452Z, 6cda8203-a249-e411-b0cc-f8bc1246af59, $GPGGA,211556.00,4035.1318,N,12452.6658,W,2,11,0.8,26.3,M,-27.1,M,,*6B
2023-07-17T21:15:57.7124997Z, 6cda8203-a249-e411-b0cc-f8bc1246af59, $GPGGA,211557.00,4035.1346,N,12452.6655,W,2,11,0.8,26.4,M,-27.1,M,,*6B
2023-07-17T21:15:58.5020774Z, 6cda8203-a249-e411-b0cc-f8bc1246af59, $GPGGA,211558.00,4035.1373,N,12452.6652,W,2,11,0.8,26.5,M,-27.1,M,,*64
2023-07-17T21:15:59.5027365Z, 6cda8203-a249-e411-b0cc-f8bc1246af59, $GPGGA,211559.00,4035.1402,N,12452.6650,W,2,11,0.8,26.4,M,-27.1,M,,*67
2023-07-17T21:16:01.1023138Z, 6cda8203-a249-e411-b0cc-f8bc1246af59, $GPGGA,211600.00,4035.1431,N,12452.6651,W,2,11,0.8,26.3,M,-27.1,M,,*6E
2023-07-17T21:16:01.5025673Z, 6cda8203-a249-e411-b0cc-f8bc1246af59, $GPGGA,211601.00,4035.1458,N,12452.6651,W,2,11,0.8,26.1,M,-27.1,M,,*62
2023-07-17T21:16:02.5022149Z, 6cda8203-a249-e411-b0cc-f8bc1246af59, $GPGGA,211602.00,4035.1486,N,12452.6651,W,2,11,0.8,26.3,M,-27.1,M,,*60
2023-07-17T21:16:03.8424165Z, 6cda8203-a249-e411-b0cc-f8bc1246af59, $GPGGA,211603.00,4035.1515,N,12452.6649,W,2,10,0.8,26.5,M,-27.1,M,,*64
2023-07-17T21:16:05.1029453Z, 6cda8203-a249-e411-b0cc-f8bc1246af59, $GPGGA,211604.00,4035.1544,N,12452.6646,W,2,11,0.8,26.5,M,-27.1,M,,*69
2023-07-17T21:16:05.5032019Z, 6cda8203-a249-e411-b0cc-f8bc1246af59, $GPGGA,211605.00,4035.1572,N,12452.6644,W,2,11,0.8,26.3,M,-27.1,M,,*69
2023-07-17T21:16:06.5030002Z, 6cda8203-a249-e411-b0cc-f8bc1246af59, $GPGGA,211606.00,4035.1599,N,12452.6644,W,2,11,0.8,26.2,M,-27.1,M,,*6E
2023-07-17T21:16:07.5026557Z, 6cda8203-a249-e411-b0cc-f8bc1246af59, $GPGGA,211607.00,4035.1626,N,12452.6644,W,2,11,0.8,26.4,M,-27.1,M,,*6E
2023-07-17T21:16:08.5033126Z, 6cda8203-a249-e411-b0cc-f8bc1246af59, $GPGGA,211608.00,4035.1654,N,12452.6641,W,2,11,0.8,26.6,M,-27.1,M,,*63
2023-07-17T21:16:09.9729567Z, 6cda8203-a249-e411-b0cc-f8bc1246af59, $GPGGA,211609.00,4035.1683,N,12452.6639,W,2,11,0.8,26.5,M,-27.1,M,,*64
2023-07-17T21:16:11.1030644Z, 6cda8203-a249-e411-b0cc-f8bc1246af59, $GPGGA,211610.00,4035.1711,N,12452.6637,W,2,11,0.8,26.2,M,-27.1,M,,*6F
2023-07-17T21:16:11.5113391Z, 6cda8203-a249-e411-b0cc-f8bc1246af59, $GPGGA,211611.00,4035.1738,N,12452.6635,W,2,11,0.8,26.3,M,-27.1,M,,*66
2023-07-17T21:16:12.4958850Z, 6cda8203-a249-e411-b0cc-f8bc1246af59, $GPGGA,211612.00,4035.1765,N,12452.6633,W,2,11,0.8,26.5,M,-27.1,M,,*6D
2023-07-17T21:16:13.4931752Z, 6cda8203-a249-e411-b0cc-f8bc1246af59, $GPGGA,211613.00,4035.1794,N,12452.6632,W,2,11,0.8,26.3,M,-27.1,M,,*65
2023-07-17T21:16:14.5027825Z, 6cda8203-a249-e411-b0cc-f8bc1246af59, $GPGGA,211614.00,4035.1823,N,12452.6632,W,2,11,0.8,25.8,M,-27.1,M,,*69
2023-07-17T21:16:15.5034345Z, 6cda8203-a249-e411-b0cc-f8bc1246af59, $GPGGA,211615.00,4035.1850,N,12452.6631,W,2,11,0.8,25.5,M,-27.1,M,,*62
2023-07-17T21:16:16.9233151Z, 6cda8203-a249-e411-b0cc-f8bc1246af59, $GPGGA,211616.00,4035.1876,N,12452.6629,W,2,11,0.8,25.8,M,-27.1,M,,*61
2023-07-17T21:16:18.0932320Z, 6cda8203-a249-e411-b0cc-f8bc1246af59, $GPGGA,211617.00,4035.1904,N,12452.6625,W,2,11,0.8,26.1,M,-27.1,M,,*62
2023-07-17T21:16:18.5034553Z, 6cda8203-a249-e411-b0cc-f8bc1246af59, $GPGGA,211618.00,4035.1933,N,12452.6621,W,2,11,0.8,26.2,M,-27.1,M,,*6E
2023-07-17T21:16:19.5031497Z, 6cda8203-a249-e411-b0cc-f8bc1246af59, $GPGGA,211619.00,4035.1961,N,12452.6618,W,2,11,0.8,26.0,M,-27.1,M,,*60
2023-07-17T21:16:20.5037790Z, 6cda8203-a249-e411-b0cc-f8bc1246af59, $GPGGA,211620.00,4035.1989,N,12452.6617,W,2,10,0.8,25.9,M,-27.1,M,,*68
2023-07-17T21:16:21.5034463Z, 6cda8203-a249-e411-b0cc-f8bc1246af59, $GPGGA,211621.00,4035.2017,N,12452.6616,W,2,11,0.8,25.9,M,-27.1,M,,*64
2023-07-17T21:16:22.5031072Z, 6cda8203-a249-e411-b0cc-f8bc1246af59, $GPGGA,211622.00,4035.2046,N,12452.6613,W,2,11,0.8,26.0,M,-27.1,M,,*6C
2023-07-17T21:16:23.8034858Z, 6cda8203-a249-e411-b0cc-f8bc1246af59, $GPGGA,211623.00,4035.2074,N,12452.6610,W,2,10,0.8,26.1,M,-27.1,M,,*6F
2023-07-17T21:16:24.5034473Z, 6cda8203-a249-e411-b0cc-f8bc1246af59, $GPGGA,211624.00,4035.2103,N,12452.6606,W,2,10,0.8,26.1,M,-27.1,M,,*6E
2023-07-17T21:16:25.5040995Z, 6cda8203-a249-e411-b0cc-f8bc1246af59, $GPGGA,211625.00,4035.2131,N,12452.6603,W,2,10,0.8,26.1,M,-27.1,M,,*6B
2023-07-17T21:16:26.5037794Z, 6cda8203-a249-e411-b0cc-f8bc1246af59, $GPGGA,211626.00,4035.2160,N,12452.6599,W,2,11,0.8,26.1,M,-27.1,M,,*6D
2023-07-17T21:16:27.5044420Z, 6cda8203-a249-e411-b0cc-f8bc1246af59, $GPGGA,211627.00,4035.2189,N,12452.6595,W,2,11,0.8,26.2,M,-27.1,M,,*64
2023-07-17T21:16:28.5837468Z, 6cda8203-a249-e411-b0cc-f8bc1246af59, $GPGGA,211628.00,4035.2218,N,12452.6593,W,2,11,0.8,26.0,M,-27.1,M,,*64
2023-07-17T21:16:29.5037558Z, 6cda8203-a249-e411-b0cc-f8bc1246af59, $GPGGA,211629.00,4035.2247,N,12452.6590,W,2,11,0.8,25.9,M,-27.1,M,,*66
2023-07-17T21:16:31.0938669Z, 6cda8203-a249-e411-b0cc-f8bc1246af59, $GPGGA,211630.00,4035.2275,N,12452.6587,W,2,11,0.8,26.0,M,-27.1,M,,*63
2023-07-17T21:16:31.5140397Z, 6cda8203-a249-e411-b0cc-f8bc1246af59, $GPGGA,211631.00,4035.2303,N,12452.6582,W,2,11,0.8,26.3,M,-27.1,M,,*64
2023-07-17T21:16:32.5044233Z, 6cda8203-a249-e411-b0cc-f8bc1246af59, $GPGGA,211632.00,4035.2332,N,12452.6577,W,2,11,0.8,26.4,M,-27.1,M,,*68
2023-07-17T21:16:33.5040876Z, 6cda8203-a249-e411-b0cc-f8bc1246af59, $GPGGA,211633.00,4035.2361,N,12452.6573,W,2,11,0.8,26.2,M,-27.1,M,,*6D
2023-07-17T21:16:34.5047439Z, 6cda8203-a249-e411-b0cc-f8bc1246af59, $GPGGA,211634.00,4035.2389,N,12452.6572,W,2,11,0.8,25.9,M,-27.1,M,,*65
2023-07-17T21:16:35.5044294Z, 6cda8203-a249-e411-b0cc-f8bc1246af59, $GPGGA,211635.00,4035.2416,N,12452.6570,W,2,11,0.8,25.8,M,-27.1,M,,*66
2023-07-17T21:16:36.5150152Z, 6cda8203-a249-e411-b0cc-f8bc1246af59, $GPGGA,211636.00,4035.2444,N,12452.6565,W,2,11,0.8,25.9,M,-27.1,M,,*67
2023-07-17T21:16:37.8442641Z, 6cda8203-a249-e411-b0cc-f8bc1246af59, $GPGGA,211637.00,4035.2473,N,12452.6559,W,2,10,0.8,26.0,M,-27.1,M,,*66
2023-07-17T21:16:38.5945274Z, 6cda8203-a249-e411-b0cc-f8bc1246af59, $GPGGA,211638.00,4035.2501,N,12452.6555,W,2,11,0.8,26.0,M,-27.1,M,,*60
2023-07-17T21:16:40.0950315Z, 6cda8203-a249-e411-b0cc-f8bc1246af59, $GPGGA,211639.00,4035.2527,N,12452.6552,W,2,11,0.8,26.0,M,-27.1,M,,*62
2023-07-17T21:16:40.5151633Z, 6cda8203-a249-e411-b0cc-f8bc1246af59, $GPGGA,211640.00,4035.2555,N,12452.6548,W,2,11,0.8,26.0,M,-27.1,M,,*62
2023-07-17T21:16:42.0990847Z, 6cda8203-a249-e411-b0cc-f8bc1246af59, $GPGGA,211641.00,4035.2585,N,12452.6545,W,2,11,0.8,25.7,M,-27.1,M,,*67
2023-07-17T21:16:42.5145334Z, 6cda8203-a249-e411-b0cc-f8bc1246af59, $GPGGA,211642.00,4035.2614,N,12452.6543,W,2,11,0.8,25.3,M,-27.1,M,,*6D
2023-07-17T21:16:44.0946780Z, 6cda8203-a249-e411-b0cc-f8bc1246af59, $GPGGA,211643.00,4035.2639,N,12452.6540,W,2,11,0.8,25.4,M,-27.1,M,,*67
2023-07-17T21:16:44.5158462Z, 6cda8203-a249-e411-b0cc-f8bc1246af59, $GPGGA,211644.00,4035.2665,N,12452.6536,W,2,11,0.8,26.0,M,-27.1,M,,*6F
2023-07-17T21:16:46.0950161Z, 6cda8203-a249-e411-b0cc-f8bc1246af59, $GPGGA,211645.00,4035.2694,N,12452.6532,W,2,11,0.8,26.4,M,-27.1,M,,*60
2023-07-17T21:16:46.5151886Z, 6cda8203-a249-e411-b0cc-f8bc1246af59, $GPGGA,211646.00,4035.2725,N,12452.6529,W,2,11,0.8,26.1,M,-27.1,M,,*67
2023-07-17T21:16:47.5158674Z, 6cda8203-a249-e411-b0cc-f8bc1246af59, $GPGGA,211647.00,4035.2754,N,12452.6528,W,2,11,0.8,25.5,M,-27.1,M,,*66
2023-07-17T21:16:49.2752241Z, 6cda8203-a249-e411-b0cc-f8bc1246af59, $GPGGA,211648.00,4035.2780,N,12452.6529,W,2,11,0.8,25.3,M,-27.1,M,,*67
2023-07-17T21:16:49.6754597Z, 6cda8203-a249-e411-b0cc-f8bc1246af59, $GPGGA,211649.00,4035.2805,N,12452.6528,W,2,11,0.8,25.8,M,-27.1,M,,*6E
2023-07-17T21:16:51.0953334Z, 6cda8203-a249-e411-b0cc-f8bc1246af59, $GPGGA,211650.00,4035.2834,N,12452.6525,W,2,11,0.8,26.2,M,-27.1,M,,*60
2023-07-17T21:16:51.5154969Z, 6cda8203-a249-e411-b0cc-f8bc1246af59, $GPGGA,211651.00,4035.2866,N,12452.6521,W,2,11,0.8,26.3,M,-27.1,M,,*63
2023-07-17T21:16:53.0956599Z, 6cda8203-a249-e411-b0cc-f8bc1246af59, $GPGGA,211652.00,4035.2894,N,12452.6519,W,2,11,0.8,26.0,M,-27.1,M,,*65
2023-07-17T21:16:53.5158292Z, 6cda8203-a249-e411-b0cc-f8bc1246af59, $GPGGA,211653.00,4035.2920,N,12452.6518,W,2,11,0.8,25.9,M,-27.1,M,,*61
2023-07-17T21:16:55.0959817Z, 6cda8203-a249-e411-b0cc-f8bc1246af59, $GPGGA,211654.00,4035.2947,N,12452.6517,W,2,11,0.8,26.2,M,-27.1,M,,*60
2023-07-17T21:16:55.5161531Z, 6cda8203-a249-e411-b0cc-f8bc1246af59, $GPGGA,211655.00,4035.2977,N,12452.6517,W,2,10,0.8,26.2,M,-27.1,M,,*63
2023-07-17T21:16:57.0963021Z, 6cda8203-a249-e411-b0cc-f8bc1246af59, $GPGGA,211656.00,4035.3006,N,12452.6518,W,2,10,0.8,25.7,M,-27.1,M,,*67
2023-07-17T21:16:57.5164749Z, 6cda8203-a249-e411-b0cc-f8bc1246af59, $GPGGA,211657.00,4035.3033,N,12452.6518,W,2,11,0.8,25.3,M,-27.1,M,,*65
2023-07-17T21:16:58.5162472Z, 6cda8203-a249-e411-b0cc-f8bc1246af59, $GPGGA,211658.00,4035.3059,N,12452.6517,W,2,11,0.8,25.6,M,-27.1,M,,*6C
2023-07-17T21:16:59.5258495Z, 6cda8203-a249-e411-b0cc-f8bc1246af59, $GPGGA,211659.00,4035.3087,N,12452.6514,W,2,11,0.8,26.2,M,-27.1,M,,*6A
2023-07-17T21:17:01.0961677Z, 6cda8203-a249-e411-b0cc-f8bc1246af59, $GPGGA,211700.00,4035.3117,N,12452.6512,W,2,11,0.8,26.2,M,-27.1,M,,*69
2023-07-17T21:17:01.5163320Z, 6cda8203-a249-e411-b0cc-f8bc1246af59, $GPGGA,211701.00,4035.3146,N,12452.6512,W,2,11,0.8,25.7,M,-27.1,M,,*6A
2023-07-17T21:17:03.0964884Z, 6cda8203-a249-e411-b0cc-f8bc1246af59, $GPGGA,211702.00,4035.3172,N,12452.6513,W,2,11,0.8,25.5,M,-27.1,M,,*6D
2023-07-17T21:17:03.5168665Z, 6cda8203-a249-e411-b0cc-f8bc1246af59, $GPGGA,211703.00,4035.3198,N,12452.6512,W,2,11,0.8,25.8,M,-27.1,M,,*64
2023-07-17T21:17:04.5183242Z, 6cda8203-a249-e411-b0cc-f8bc1246af59, $GPGGA,211704.00,4035.3226,N,12452.6508,W,2,10,0.8,26.1,M,-27.1,M,,*65
2023-07-17T21:17:06.0966988Z, 6cda8203-a249-e411-b0cc-f8bc1246af59, $GPGGA,211705.00,4035.3255,N,12452.6506,W,2,10,0.8,26.0,M,-27.1,M,,*6F
2023-07-17T21:17:06.5168688Z, 6cda8203-a249-e411-b0cc-f8bc1246af59, $GPGGA,211706.00,4035.3282,N,12452.6507,W,2,11,0.8,25.6,M,-27.1,M,,*63
2023-07-17T21:17:08.0970113Z, 6cda8203-a249-e411-b0cc-f8bc1246af59, $GPGGA,211707.00,4035.3309,N,12452.6506,W,2,11,0.8,25.4,M,-27.1,M,,*63
2023-07-17T21:17:08.5171917Z, 6cda8203-a249-e411-b0cc-f8bc1246af59, $GPGGA,211708.00,4035.3336,N,12452.6503,W,2,11,0.8,25.6,M,-27.1,M,,*67
2023-07-17T21:17:10.0973508Z, 6cda8203-a249-e411-b0cc-f8bc1246af59, $GPGGA,211709.00,4035.3363,N,12452.6500,W,2,11,0.8,25.7,M,-27.1,M,,*64
2023-07-17T21:17:10.5264673Z, 6cda8203-a249-e411-b0cc-f8bc1246af59, $GPGGA,211710.00,4035.3389,N,12452.6497,W,2,11,0.8,25.8,M,-27.1,M,,*68
2023-07-17T21:17:12.2769132Z, 6cda8203-a249-e411-b0cc-f8bc1246af59, $GPGGA,211711.00,4035.3417,N,12452.6495,W,2,11,0.8,25.6,M,-27.1,M,,*65
2023-07-17T21:17:12.6871015Z, 6cda8203-a249-e411-b0cc-f8bc1246af59, $GPGGA,211712.00,4035.3445,N,12452.6493,W,2,11,0.8,25.3,M,-27.1,M,,*62
2023-07-17T21:17:14.0970145Z, 6cda8203-a249-e411-b0cc-f8bc1246af59, $GPGGA,211713.00,4035.3473,N,12452.6493,W,2,11,0.8,25.3,M,-27.1,M,,*66
2023-07-17T21:17:14.5271374Z, 6cda8203-a249-e411-b0cc-f8bc1246af59, $GPGGA,211714.00,4035.3499,N,12452.6491,W,2,11,0.8,25.3,M,-27.1,M,,*67
2023-07-17T21:17:15.5278033Z, 6cda8203-a249-e411-b0cc-f8bc1246af59, $GPGGA,211715.00,4035.3526,N,12452.6489,W,2,11,0.8,25.6,M,-27.1,M,,*6F
2023-07-17T21:17:17.0969772Z, 6cda8203-a249-e411-b0cc-f8bc1246af59, $GPGGA,211716.00,4035.3554,N,12452.6487,W,2,11,0.8,25.9,M,-27.1,M,,*68
2023-07-17T21:17:17.5271266Z, 6cda8203-a249-e411-b0cc-f8bc1246af59, $GPGGA,211717.00,4035.3584,N,12452.6484,W,2,11,0.8,25.6,M,-27.1,M,,*68
2023-07-17T21:17:18.6372964Z, 6cda8203-a249-e411-b0cc-f8bc1246af59, $GPGGA,211718.00,4035.3613,N,12452.6482,W,2,11,0.8,25.2,M,-27.1,M,,*68
2023-07-17T21:17:20.0979893Z, 6cda8203-a249-e411-b0cc-f8bc1246af59, $GPGGA,211719.00,4035.3640,N,12452.6482,W,2,10,0.8,24.9,M,-27.1,M,,*64
2023-07-17T21:17:20.5281238Z, 6cda8203-a249-e411-b0cc-f8bc1246af59, $GPGGA,211720.00,4035.3665,N,12452.6480,W,2,10,0.8,25.3,M,-27.1,M,,*60
2023-07-17T21:17:21.5277793Z, 6cda8203-a249-e411-b0cc-f8bc1246af59, $GPGGA,211721.00,4035.3691,N,12452.6476,W,2,10,0.8,25.7,M,-27.1,M,,*67
2023-07-17T21:17:23.0979826Z, 6cda8203-a249-e411-b0cc-f8bc1246af59, $GPGGA,211722.00,4035.3720,N,12452.6471,W,2,10,0.8,25.7,M,-27.1,M,,*68
2023-07-17T21:17:23.5281146Z, 6cda8203-a249-e411-b0cc-f8bc1246af59, $GPGGA,211723.00,4035.3750,N,12452.6468,W,2,11,0.8,25.3,M,-27.1,M,,*63
2023-07-17T21:17:24.6382672Z, 6cda8203-a249-e411-b0cc-f8bc1246af59, $GPGGA,211724.00,4035.3777,N,12452.6466,W,2,11,0.8,25.1,M,-27.1,M,,*6D
2023-07-17T21:17:25.5284351Z, 6cda8203-a249-e411-b0cc-f8bc1246af59, $GPGGA,211725.00,4035.3803,N,12452.6463,W,2,11,0.8,25.3,M,-27.1,M,,*67
2023-07-17T21:17:27.0986436Z, 6cda8203-a249-e411-b0cc-f8bc1246af59, $GPGGA,211726.00,4035.3831,N,12452.6460,W,2,11,0.8,25.5,M,-27.1,M,,*60
2023-07-17T21:17:27.5279488Z, 6cda8203-a249-e411-b0cc-f8bc1246af59, $GPGGA,211727.00,4035.3858,N,12452.6457,W,2,11,0.8,25.3,M,-27.1,M,,*6C
2023-07-17T21:17:28.5285997Z, 6cda8203-a249-e411-b0cc-f8bc1246af59, $GPGGA,211728.00,4035.3885,N,12452.6453,W,2,11,0.8,25.2,M,-27.1,M,,*66
2023-07-17T21:17:30.0979558Z, 6cda8203-a249-e411-b0cc-f8bc1246af59, $GPGGA,211729.00,4035.3913,N,12452.6450,W,2,11,0.8,25.1,M,-27.1,M,,*69
2023-07-17T21:17:30.8686156Z, 6cda8203-a249-e411-b0cc-f8bc1246af59, $GPGGA,211730.00,4035.3940,N,12452.6447,W,2,11,0.8,25.1,M,-27.1,M,,*61
2023-07-17T21:17:31.5287412Z, 6cda8203-a249-e411-b0cc-f8bc1246af59, $GPGGA,211731.00,4035.3966,N,12452.6444,W,2,11,0.8,25.3,M,-27.1,M,,*65
2023-07-17T21:17:33.0989305Z, 6cda8203-a249-e411-b0cc-f8bc1246af59, $GPGGA,211732.00,4035.3993,N,12452.6440,W,2,11,0.8,25.5,M,-27.1,M,,*6E
2023-07-17T21:17:33.5390155Z, 6cda8203-a249-e411-b0cc-f8bc1246af59, $GPGGA,211733.00,4035.4021,N,12452.6437,W,2,11,0.8,25.2,M,-27.1,M,,*6F
2023-07-17T21:17:34.5386688Z, 6cda8203-a249-e411-b0cc-f8bc1246af59, $GPGGA,211734.00,4035.4049,N,12452.6436,W,2,11,0.8,24.8,M,-27.1,M,,*6C
2023-07-17T21:17:36.3283068Z, 6cda8203-a249-e411-b0cc-f8bc1246af59, $GPGGA,211735.00,4035.4075,N,12452.6434,W,2,11,0.8,24.6,M,-27.1,M,,*6E
2023-07-17T21:17:36.6987244Z, 6cda8203-a249-e411-b0cc-f8bc1246af59, $GPGGA,211736.00,4035.4101,N,12452.6431,W,2,11,0.8,25.0,M,-27.1,M,,*6D
2023-07-17T21:17:38.0986697Z, 6cda8203-a249-e411-b0cc-f8bc1246af59, $GPGGA,211737.00,4035.4129,N,12452.6426,W,2,11,0.8,25.3,M,-27.1,M,,*63
2023-07-17T21:17:38.5387344Z, 6cda8203-a249-e411-b0cc-f8bc1246af59, $GPGGA,211738.00,4035.4159,N,12452.6422,W,2,11,0.8,25.3,M,-27.1,M,,*6F
2023-07-17T21:17:39.5447746Z, 6cda8203-a249-e411-b0cc-f8bc1246af59, $GPGGA,211739.00,4035.4188,N,12452.6420,W,2,11,0.8,24.9,M,-27.1,M,,*6B
2023-07-17T21:17:41.0986580Z, 6cda8203-a249-e411-b0cc-f8bc1246af59, $GPGGA,211740.00,4035.4215,N,12452.6420,W,2,11,0.8,24.7,M,-27.1,M,,*6C
2023-07-17T21:17:41.5387459Z, 6cda8203-a249-e411-b0cc-f8bc1246af59, $GPGGA,211741.00,4035.4242,N,12452.6421,W,2,11,0.8,25.0,M,-27.1,M,,*68
2023-07-17T21:17:42.7895415Z, 6cda8203-a249-e411-b0cc-f8bc1246af59, $GPGGA,211742.00,4035.4271,N,12452.6419,W,2,11,0.8,25.4,M,-27.1,M,,*64
2023-07-17T21:17:44.0990411Z, 6cda8203-a249-e411-b0cc-f8bc1246af59, $GPGGA,211743.00,4035.4302,N,12452.6415,W,2,11,0.8,25.3,M,-27.1,M,,*6B
2023-07-17T21:17:44.5391435Z, 6cda8203-a249-e411-b0cc-f8bc1246af59, $GPGGA,211744.00,4035.4332,N,12452.6412,W,2,11,0.8,24.9,M,-27.1,M,,*63
2023-07-17T21:17:45.5398995Z, 6cda8203-a249-e411-b0cc-f8bc1246af59, $GPGGA,211745.00,4035.4359,N,12452.6410,W,2,11,0.8,24.8,M,-27.1,M,,*6C
2023-07-17T21:17:46.5395592Z, 6cda8203-a249-e411-b0cc-f8bc1246af59, $GPGGA,211746.00,4035.4385,N,12452.6410,W,2,11,0.8,25.1,M,-27.1,M,,*66
2023-07-17T21:17:47.5392187Z, 6cda8203-a249-e411-b0cc-f8bc1246af59, $GPGGA,211747.00,4035.4413,N,12452.6409,W,2,11,0.8,25.5,M,-27.1,M,,*63
2023-07-17T21:17:48.9092794Z, 6cda8203-a249-e411-b0cc-f8bc1246af59, $GPGGA,211748.00,4035.4444,N,12452.6408,W,2,11,0.8,25.5,M,-27.1,M,,*6F
2023-07-17T21:17:50.1001183Z, 6cda8203-a249-e411-b0cc-f8bc1246af59, $GPGGA,211749.00,4035.4473,N,12452.6408,W,2,11,0.8,25.1,M,-27.1,M,,*6E
2023-07-17T21:17:50.5402159Z, 6cda8203-a249-e411-b0cc-f8bc1246af59, $GPGGA,211750.00,4035.4501,N,12452.6407,W,2,10,0.8,24.9,M,-27.1,M,,*65
2023-07-17T21:17:51.5398796Z, 6cda8203-a249-e411-b0cc-f8bc1246af59, $GPGGA,211751.00,4035.4528,N,12452.6404,W,2,10,0.8,25.2,M,-27.1,M,,*66
2023-07-17T21:17:53.1001199Z, 6cda8203-a249-e411-b0cc-f8bc1246af59, $GPGGA,211752.00,4035.4555,N,12452.6402,W,2,11,0.8,25.5,M,-27.1,M,,*6F
2023-07-17T21:17:53.5501664Z, 6cda8203-a249-e411-b0cc-f8bc1246af59, $GPGGA,211753.00,4035.4584,N,12452.6400,W,2,11,0.8,25.5,M,-27.1,M,,*60
2023-07-17T21:17:54.9002856Z, 6cda8203-a249-e411-b0cc-f8bc1246af59, $GPGGA,211754.00,4035.4613,N,12452.6401,W,2,11,0.8,25.4,M,-27.1,M,,*6A
2023-07-17T21:17:55.5504619Z, 6cda8203-a249-e411-b0cc-f8bc1246af59, $GPGGA,211755.00,4035.4643,N,12452.6401,W,2,11,0.8,25.2,M,-27.1,M,,*68
2023-07-17T21:17:57.0998718Z, 6cda8203-a249-e411-b0cc-f8bc1246af59, $GPGGA,211756.00,4035.4670,N,12452.6400,W,2,11,0.8,25.2,M,-27.1,M,,*6A
2023-07-17T21:17:57.5400005Z, 6cda8203-a249-e411-b0cc-f8bc1246af59, $GPGGA,211757.00,4035.4698,N,12452.6398,W,2,11,0.8,25.5,M,-27.1,M,,*6C
2023-07-17T21:17:58.5407635Z, 6cda8203-a249-e411-b0cc-f8bc1246af59, $GPGGA,211758.00,4035.4726,N,12452.6395,W,2,11,0.8,25.7,M,-27.1,M,,*68
2023-07-17T21:17:59.5404301Z, 6cda8203-a249-e411-b0cc-f8bc1246af59, $GPGGA,211759.00,4035.4755,N,12452.6393,W,2,11,0.8,25.7,M,-27.1,M,,*6B
2023-07-17T21:18:01.2808866Z, 6cda8203-a249-e411-b0cc-f8bc1246af59, $GPGGA,211800.00,4035.4784,N,12452.6393,W,2,10,0.8,25.6,M,-27.1,M,,*64
2023-07-17T21:18:01.6602170Z, 6cda8203-a249-e411-b0cc-f8bc1246af59, $GPGGA,211801.00,4035.4813,N,12452.6392,W,2,10,0.8,25.3,M,-27.1,M,,*60
2023-07-17T21:18:02.5503747Z, 6cda8203-a249-e411-b0cc-f8bc1246af59, $GPGGA,211802.00,4035.4839,N,12452.6390,W,2,11,0.8,25.2,M,-27.1,M,,*69
2023-07-17T21:18:03.5510309Z, 6cda8203-a249-e411-b0cc-f8bc1246af59, $GPGGA,211803.00,4035.4867,N,12452.6388,W,2,11,0.8,25.1,M,-27.1,M,,*69
2023-07-17T21:18:04.5506960Z, 6cda8203-a249-e411-b0cc-f8bc1246af59, $GPGGA,211804.00,4035.4896,N,12452.6387,W,2,11,0.8,24.9,M,-27.1,M,,*66
2023-07-17T21:18:06.1010341Z, 6cda8203-a249-e411-b0cc-f8bc1246af59, $GPGGA,211805.00,4035.4924,N,12452.6387,W,2,11,0.8,24.6,M,-27.1,M,,*60
2023-07-17T21:18:06.5510668Z, 6cda8203-a249-e411-b0cc-f8bc1246af59, $GPGGA,211806.00,4035.4950,N,12452.6385,W,2,11,0.8,24.8,M,-27.1,M,,*6C
2023-07-17T21:18:07.8011456Z, 6cda8203-a249-e411-b0cc-f8bc1246af59, $GPGGA,211807.00,4035.4976,N,12452.6380,W,2,11,0.8,25.3,M,-27.1,M,,*66
2023-07-17T21:18:08.5508767Z, 6cda8203-a249-e411-b0cc-f8bc1246af59, $GPGGA,211808.00,4035.5003,N,12452.6376,W,2,11,0.8,25.4,M,-27.1,M,,*6D
2023-07-17T21:18:10.1011627Z, 6cda8203-a249-e411-b0cc-f8bc1246af59, $GPGGA,211809.00,4035.5033,N,12452.6374,W,2,09,0.8,25.0,M,-27.1,M,,*60
2023-07-17T21:18:10.5512108Z, 6cda8203-a249-e411-b0cc-f8bc1246af59, $GPGGA,211810.00,4035.5062,N,12452.6373,W,2,09,0.8,24.4,M,-27.1,M,,*6E
2023-07-17T21:18:11.5508694Z, 6cda8203-a249-e411-b0cc-f8bc1246af59, $GPGGA,211811.00,4035.5089,N,12452.6372,W,2,10,0.8,24.2,M,-27.1,M,,*65
2023-07-17T21:18:12.5515405Z, 6cda8203-a249-e411-b0cc-f8bc1246af59, $GPGGA,211812.00,4035.5114,N,12452.6369,W,2,10,0.8,24.5,M,-27.1,M,,*6E
2023-07-17T21:18:14.1018208Z, 6cda8203-a249-e411-b0cc-f8bc1246af59, $GPGGA,211813.00,4035.5141,N,12452.6366,W,2,10,0.8,24.9,M,-27.1,M,,*6C
2023-07-17T21:18:14.5518625Z, 6cda8203-a249-e411-b0cc-f8bc1246af59, $GPGGA,211814.00,4035.5170,N,12452.6362,W,2,10,0.8,24.8,M,-27.1,M,,*6C
2023-07-17T21:18:15.5515202Z, 6cda8203-a249-e411-b0cc-f8bc1246af59, $GPGGA,211815.00,4035.5199,N,12452.6362,W,2,10,0.8,24.5,M,-27.1,M,,*67
2023-07-17T21:18:16.5511847Z, 6cda8203-a249-e411-b0cc-f8bc1246af59, $GPGGA,211816.00,4035.5226,N,12452.6361,W,2,10,0.8,24.5,M,-27.1,M,,*60
2023-07-17T21:18:17.5518558Z, 6cda8203-a249-e411-b0cc-f8bc1246af59, $GPGGA,211817.00,4035.5253,N,12452.6358,W,2,11,0.8,24.5,M,-27.1,M,,*68
2023-07-17T21:18:18.5515152Z, 6cda8203-a249-e411-b0cc-f8bc1246af59, $GPGGA,211818.00,4035.5280,N,12452.6354,W,2,11,0.8,24.6,M,-27.1,M,,*66
2023-07-17T21:18:20.1017998Z, 6cda8203-a249-e411-b0cc-f8bc1246af59, $GPGGA,211819.00,4035.5306,N,12452.6350,W,2,11,0.8,24.5,M,-27.1,M,,*6F
2023-07-17T21:18:20.8415962Z, 6cda8203-a249-e411-b0cc-f8bc1246af59, $GPGGA,211820.00,4035.5334,N,12452.6348,W,2,11,0.8,24.5,M,-27.1,M,,*6D
2023-07-17T21:18:21.5514945Z, 6cda8203-a249-e411-b0cc-f8bc1246af59, $GPGGA,211821.00,4035.5363,N,12452.6347,W,2,11,0.8,24.4,M,-27.1,M,,*60
2023-07-17T21:18:22.5621035Z, 6cda8203-a249-e411-b0cc-f8bc1246af59, $GPGGA,211822.00,4035.5392,N,12452.6345,W,2,11,0.8,24.4,M,-27.1,M,,*6F
2023-07-17T21:18:23.5617958Z, 6cda8203-a249-e411-b0cc-f8bc1246af59, $GPGGA,211823.00,4035.5420,N,12452.6343,W,2,11,0.8,24.4,M,-27.1,M,,*66
2023-07-17T21:18:24.5624260Z, 6cda8203-a249-e411-b0cc-f8bc1246af59, $GPGGA,211824.00,4035.5447,N,12452.6340,W,2,11,0.8,24.4,M,-27.1,M,,*63
2023-07-17T21:18:26.1027895Z, 6cda8203-a249-e411-b0cc-f8bc1246af59, $GPGGA,211825.00,4035.5475,N,12452.6339,W,2,11,0.8,24.3,M,-27.1,M,,*6A
2023-07-17T21:18:26.5627639Z, 6cda8203-a249-e411-b0cc-f8bc1246af59, $GPGGA,211826.00,4035.5502,N,12452.6337,W,2,11,0.8,24.4,M,-27.1,M,,*61
2023-07-17T21:18:27.6719429Z, 6cda8203-a249-e411-b0cc-f8bc1246af59, $GPGGA,211827.00,4035.5529,N,12452.6333,W,2,11,0.8,24.6,M,-27.1,M,,*6F
2023-07-17T21:18:28.5620787Z, 6cda8203-a249-e411-b0cc-f8bc1246af59, $GPGGA,211828.00,4035.5558,N,12452.6329,W,2,11,0.8,24.5,M,-27.1,M,,*6E
2023-07-17T21:18:29.5627655Z, 6cda8203-a249-e411-b0cc-f8bc1246af59, $GPGGA,211829.00,4035.5586,N,12452.6327,W,2,11,0.8,24.2,M,-27.1,M,,*65
2023-07-17T21:18:30.5624755Z, 6cda8203-a249-e411-b0cc-f8bc1246af59, $GPGGA,211830.00,4035.5612,N,12452.6326,W,2,11,0.8,24.1,M,-27.1,M,,*61
2023-07-17T21:18:31.5630776Z, 6cda8203-a249-e411-b0cc-f8bc1246af59, $GPGGA,211831.00,4035.5638,N,12452.6323,W,2,11,0.8,24.5,M,-27.1,M,,*69
2023-07-17T21:18:33.1025554Z, 6cda8203-a249-e411-b0cc-f8bc1246af59, $GPGGA,211832.00,4035.5665,N,12452.6318,W,2,11,0.8,25.0,M,-27.1,M,,*6E
2023-07-17T21:18:33.5625495Z, 6cda8203-a249-e411-b0cc-f8bc1246af59, $GPGGA,211833.00,4035.5694,N,12452.6314,W,2,11,0.8,25.2,M,-27.1,M,,*6F
2023-07-17T21:18:34.5632032Z, 6cda8203-a249-e411-b0cc-f8bc1246af59, $GPGGA,211834.00,4035.5722,N,12452.6312,W,2,10,0.8,25.0,M,-27.1,M,,*61
2023-07-17T21:18:35.5628736Z, 6cda8203-a249-e411-b0cc-f8bc1246af59, $GPGGA,211835.00,4035.5748,N,12452.6309,W,2,10,0.8,24.9,M,-27.1,M,,*6E
2023-07-17T21:18:36.5625466Z, 6cda8203-a249-e411-b0cc-f8bc1246af59, $GPGGA,211836.00,4035.5775,N,12452.6307,W,2,11,0.8,25.3,M,-27.1,M,,*67
2023-07-17T21:18:37.6428608Z, 6cda8203-a249-e411-b0cc-f8bc1246af59, $GPGGA,211837.00,4035.5804,N,12452.6305,W,2,11,0.8,25.3,M,-27.1,M,,*6D
2023-07-17T21:18:38.5628675Z, 6cda8203-a249-e411-b0cc-f8bc1246af59, $GPGGA,211838.00,4035.5833,N,12452.6304,W,2,11,0.8,24.9,M,-27.1,M,,*6C
2023-07-17T21:18:39.5635217Z, 6cda8203-a249-e411-b0cc-f8bc1246af59, $GPGGA,211839.00,4035.5861,N,12452.6302,W,2,11,0.8,24.8,M,-27.1,M,,*6D
2023-07-17T21:18:41.0431272Z, 6cda8203-a249-e411-b0cc-f8bc1246af59, $GPGGA,211840.00,4035.5886,N,12452.6297,W,2,11,0.8,25.3,M,-27.1,M,,*6D
2023-07-17T21:18:41.5629339Z, 6cda8203-a249-e411-b0cc-f8bc1246af59, $GPGGA,211841.00,4035.5912,N,12452.6290,W,2,11,0.8,25.7,M,-27.1,M,,*63
2023-07-17T21:18:42.5636071Z, 6cda8203-a249-e411-b0cc-f8bc1246af59, $GPGGA,211842.00,4035.5941,N,12452.6286,W,2,10,0.8,25.5,M,-27.1,M,,*62
2023-07-17T21:18:44.1039323Z, 6cda8203-a249-e411-b0cc-f8bc1246af59, $GPGGA,211843.00,4035.5971,N,12452.6286,W,2,10,0.8,24.9,M,-27.1,M,,*6D
2023-07-17T21:18:44.5639256Z, 6cda8203-a249-e411-b0cc-f8bc1246af59, $GPGGA,211844.00,4035.5999,N,12452.6287,W,2,11,0.8,24.5,M,-27.1,M,,*60
2023-07-17T21:18:46.1032446Z, 6cda8203-a249-e411-b0cc-f8bc1246af59, $GPGGA,211845.00,4035.6025,N,12452.6286,W,2,11,0.8,24.8,M,-27.1,M,,*60
2023-07-17T21:18:46.5632539Z, 6cda8203-a249-e411-b0cc-f8bc1246af59, $GPGGA,211846.00,4035.6051,N,12452.6281,W,2,11,0.8,25.3,M,-27.1,M,,*6D
2023-07-17T21:18:48.1038456Z, 6cda8203-a249-e411-b0cc-f8bc1246af59, $GPGGA,211847.00,4035.6080,N,12452.6276,W,2,11,0.8,25.5,M,-27.1,M,,*6E
2023-07-17T21:18:48.5638579Z, 6cda8203-a249-e411-b0cc-f8bc1246af59, $GPGGA,211848.00,4035.6109,N,12452.6273,W,2,11,0.8,25.3,M,-27.1,M,,*62
2023-07-17T21:18:49.5635081Z, 6cda8203-a249-e411-b0cc-f8bc1246af59, $GPGGA,211849.00,4035.6137,N,12452.6272,W,2,11,0.8,25.0,M,-27.1,M,,*6C
2023-07-17T21:18:51.1038315Z, 6cda8203-a249-e411-b0cc-f8bc1246af59, $GPGGA,211850.00,4035.6163,N,12452.6272,W,2,11,0.8,25.2,M,-27.1,M,,*67
2023-07-17T21:18:51.5737671Z, 6cda8203-a249-e411-b0cc-f8bc1246af59, $GPGGA,211851.00,4035.6190,N,12452.6269,W,2,11,0.8,25.6,M,-27.1,M,,*64
2023-07-17T21:18:53.1937746Z, 6cda8203-a249-e411-b0cc-f8bc1246af59, $GPGGA,211852.00,4035.6218,N,12452.6267,W,2,11,0.8,25.6,M,-27.1,M,,*6A
2023-07-17T21:18:53.5740953Z, 6cda8203-a249-e411-b0cc-f8bc1246af59, $GPGGA,211853.00,4035.6245,N,12452.6265,W,2,11,0.8,25.3,M,-27.1,M,,*64
2023-07-17T21:18:55.1044929Z, 6cda8203-a249-e411-b0cc-f8bc1246af59, $GPGGA,211854.00,4035.6273,N,12452.6263,W,2,11,0.8,25.0,M,-27.1,M,,*63
2023-07-17T21:18:55.5744192Z, 6cda8203-a249-e411-b0cc-f8bc1246af59, $GPGGA,211855.00,4035.6302,N,12452.6261,W,2,11,0.8,25.0,M,-27.1,M,,*67
2023-07-17T21:18:57.1048150Z, 6cda8203-a249-e411-b0cc-f8bc1246af59, $GPGGA,211856.00,4035.6328,N,12452.6260,W,2,11,0.8,25.3,M,-27.1,M,,*6E
2023-07-17T21:18:57.5747402Z, 6cda8203-a249-e411-b0cc-f8bc1246af59, $GPGGA,211857.00,4035.6354,N,12452.6257,W,2,10,0.8,25.7,M,-27.1,M,,*65
2023-07-17T21:18:59.1044264Z, 6cda8203-a249-e411-b0cc-f8bc1246af59, $GPGGA,211858.00,4035.6383,N,12452.6254,W,2,10,0.8,25.9,M,-27.1,M,,*6D
2023-07-17T21:18:59.5743871Z, 6cda8203-a249-e411-b0cc-f8bc1246af59, $GPGGA,211859.00,4035.6412,N,12452.6250,W,2,10,0.8,25.9,M,-27.1,M,,*67
2023-07-17T21:19:00.5750555Z, 6cda8203-a249-e411-b0cc-f8bc1246af59, $GPGGA,211900.00,4035.6440,N,12452.6250,W,2,10,0.8,25.5,M,-27.1,M,,*61
2023-07-17T21:19:02.1044062Z, 6cda8203-a249-e411-b0cc-f8bc1246af59, $GPGGA,211901.00,4035.6466,N,12452.6249,W,2,10,0.8,25.8,M,-27.1,M,,*61
2023-07-17T21:19:02.5743720Z, 6cda8203-a249-e411-b0cc-f8bc1246af59, $GPGGA,211902.00,4035.6494,N,12452.6248,W,2,10,0.8,26.3,M,-27.1,M,,*66
2023-07-17T21:19:03.5750422Z, 6cda8203-a249-e411-b0cc-f8bc1246af59, $GPGGA,211903.00,4035.6521,N,12452.6246,W,2,10,0.8,26.9,M,-27.1,M,,*6C
2023-07-17T21:19:05.1054067Z, 6cda8203-a249-e411-b0cc-f8bc1246af59, $GPGGA,211904.00,4035.6549,N,12452.6245,W,2,11,0.8,27.1,M,-27.1,M,,*6E
2023-07-17T21:19:05.5753616Z, 6cda8203-a249-e411-b0cc-f8bc1246af59, $GPGGA,211905.00,4035.6577,N,12452.6243,W,2,11,0.8,27.1,M,-27.1,M,,*64
2023-07-17T21:19:07.1047320Z, 6cda8203-a249-e411-b0cc-f8bc1246af59, $GPGGA,211906.00,4035.6605,N,12452.6243,W,2,11,0.8,27.2,M,-27.1,M,,*62
2023-07-17T21:19:07.5757003Z, 6cda8203-a249-e411-b0cc-f8bc1246af59, $GPGGA,211907.00,4035.6633,N,12452.6242,W,2,11,0.8,27.3,M,-27.1,M,,*66
2023-07-17T21:19:09.1050688Z, 6cda8203-a249-e411-b0cc-f8bc1246af59, $GPGGA,211908.00,4035.6661,N,12452.6240,W,2,11,0.8,27.5,M,-27.1,M,,*6A
2023-07-17T21:19:09.5750214Z, 6cda8203-a249-e411-b0cc-f8bc1246af59, $GPGGA,211909.00,4035.6689,N,12452.6237,W,2,10,0.8,27.7,M,-27.1,M,,*6E
2023-07-17T21:19:11.1053941Z, 6cda8203-a249-e411-b0cc-f8bc1246af59, $GPGGA,211910.00,4035.6718,N,12452.6236,W,2,10,0.8,27.7,M,-27.1,M,,*6E
2023-07-17T21:19:11.5753507Z, 6cda8203-a249-e411-b0cc-f8bc1246af59, $GPGGA,211911.00,4035.6748,N,12452.6236,W,2,11,0.8,27.7,M,-27.1,M,,*6B
2023-07-17T21:19:13.1058132Z, 6cda8203-a249-e411-b0cc-f8bc1246af59, $GPGGA,211912.00,4035.6778,N,12452.6235,W,2,11,0.8,27.6,M,-27.1,M,,*69
2023-07-17T21:19:13.5857387Z, 6cda8203-a249-e411-b0cc-f8bc1246af59, $GPGGA,211913.00,4035.6805,N,12452.6234,W,2,11,0.8,27.7,M,-27.1,M,,*6D
2023-07-17T21:19:14.5754673Z, 6cda8203-a249-e411-b0cc-f8bc1246af59, $GPGGA,211914.00,4035.6831,N,12452.6231,W,2,11,0.8,28.1,M,-27.1,M,,*61
2023-07-17T21:19:16.2860201Z, 6cda8203-a249-e411-b0cc-f8bc1246af59, $GPGGA,211915.00,4035.6859,N,12452.6228,W,2,11,0.8,28.5,M,-27.1,M,,*62
2023-07-17T21:19:16.6863110Z, 6cda8203-a249-e411-b0cc-f8bc1246af59, $GPGGA,211916.00,4035.6889,N,12452.6225,W,2,11,0.8,28.3,M,-27.1,M,,*67
2023-07-17T21:19:18.1061525Z, 6cda8203-a249-e411-b0cc-f8bc1246af59, $GPGGA,211917.00,4035.6920,N,12452.6225,W,2,11,0.8,27.9,M,-27.1,M,,*61
2023-07-17T21:19:18.5860758Z, 6cda8203-a249-e411-b0cc-f8bc1246af59, $GPGGA,211918.00,4035.6948,N,12452.6225,W,2,11,0.8,27.4,M,-27.1,M,,*6D
2023-07-17T21:19:20.1064931Z, 6cda8203-a249-e411-b0cc-f8bc1246af59, $GPGGA,211919.00,4035.6975,N,12452.6224,W,2,11,0.8,27.5,M,-27.1,M,,*62
2023-07-17T21:19:20.5863739Z, 6cda8203-a249-e411-b0cc-f8bc1246af59, $GPGGA,211920.00,4035.7003,N,12452.6222,W,2,11,0.8,28.0,M,-27.1,M,,*6D
2023-07-17T21:19:22.1058243Z, 6cda8203-a249-e411-b0cc-f8bc1246af59, $GPGGA,211921.00,4035.7032,N,12452.6219,W,2,11,0.8,28.1,M,-27.1,M,,*67
2023-07-17T21:19:22.5867508Z, 6cda8203-a249-e411-b0cc-f8bc1246af59, $GPGGA,211922.00,4035.7062,N,12452.6216,W,2,11,0.8,27.7,M,-27.1,M,,*67
2023-07-17T21:19:23.6262223Z, 6cda8203-a249-e411-b0cc-f8bc1246af59, $GPGGA,211923.00,4035.7090,N,12452.6215,W,2,11,0.8,27.3,M,-27.1,M,,*6C
2023-07-17T21:19:25.1067971Z, 6cda8203-a249-e411-b0cc-f8bc1246af59, $GPGGA,211924.00,4035.7118,N,12452.6214,W,2,11,0.8,27.3,M,-27.1,M,,*6B
2023-07-17T21:19:25.5867287Z, 6cda8203-a249-e411-b0cc-f8bc1246af59, $GPGGA,211925.00,4035.7144,N,12452.6213,W,2,11,0.8,27.6,M,-27.1,M,,*61
2023-07-17T21:19:27.1061169Z, 6cda8203-a249-e411-b0cc-f8bc1246af59, $GPGGA,211926.00,4035.7172,N,12452.6209,W,2,10,0.8,27.8,M,-27.1,M,,*63
2023-07-17T21:19:27.5870490Z, 6cda8203-a249-e411-b0cc-f8bc1246af59, $GPGGA,211927.00,4035.7199,N,12452.6206,W,2,10,0.8,27.7,M,-27.1,M,,*67
2023-07-17T21:19:29.1064659Z, 6cda8203-a249-e411-b0cc-f8bc1246af59, $GPGGA,211928.00,4035.7227,N,12452.6203,W,2,10,0.8,27.4,M,-27.1,M,,*68
2023-07-17T21:19:29.5864727Z, 6cda8203-a249-e411-b0cc-f8bc1246af59, $GPGGA,211929.00,4035.7255,N,12452.6202,W,2,10,0.8,27.3,M,-27.1,M,,*6A
2023-07-17T21:19:31.1068643Z, 6cda8203-a249-e411-b0cc-f8bc1246af59, $GPGGA,211930.00,4035.7282,N,12452.6199,W,2,11,0.8,27.3,M,-27.1,M,,*68
2023-07-17T21:19:31.5867847Z, 6cda8203-a249-e411-b0cc-f8bc1246af59, $GPGGA,211931.00,4035.7310,N,12452.6196,W,2,10,0.8,27.5,M,-27.1,M,,*6B
2023-07-17T21:19:33.2874191Z, 6cda8203-a249-e411-b0cc-f8bc1246af59, $GPGGA,211932.00,4035.7339,N,12452.6194,W,2,11,0.8,27.3,M,-27.1,M,,*66
2023-07-17T21:19:33.6470000Z, 6cda8203-a249-e411-b0cc-f8bc1246af59, $GPGGA,211933.00,4035.7366,N,12452.6192,W,2,11,0.8,27.1,M,-27.1,M,,*69
2023-07-17T21:19:34.5869469Z, 6cda8203-a249-e411-b0cc-f8bc1246af59, $GPGGA,211934.00,4035.7394,N,12452.6189,W,2,10,0.8,27.1,M,-27.1,M,,*68
2023-07-17T21:19:36.1073644Z, 6cda8203-a249-e411-b0cc-f8bc1246af59, $GPGGA,211935.00,4035.7423,N,12452.6186,W,2,10,0.8,27.0,M,-27.1,M,,*6C
2023-07-17T21:19:36.5872700Z, 6cda8203-a249-e411-b0cc-f8bc1246af59, $GPGGA,211936.00,4035.7452,N,12452.6183,W,2,11,0.8,26.9,M,-27.1,M,,*65
2023-07-17T21:19:38.1076839Z, 6cda8203-a249-e411-b0cc-f8bc1246af59, $GPGGA,211937.00,4035.7478,N,12452.6180,W,2,11,0.8,27.0,M,-27.1,M,,*67
2023-07-17T21:19:38.5975279Z, 6cda8203-a249-e411-b0cc-f8bc1246af59, $GPGGA,211938.00,4035.7504,N,12452.6175,W,2,10,0.8,27.1,M,-27.1,M,,*68
2023-07-17T21:19:40.1070142Z, 6cda8203-a249-e411-b0cc-f8bc1246af59, $GPGGA,211939.00,4035.7533,N,12452.6171,W,2,10,0.8,26.9,M,-27.1,M,,*60
2023-07-17T21:19:40.5978564Z, 6cda8203-a249-e411-b0cc-f8bc1246af59, $GPGGA,211940.00,4035.7563,N,12452.6168,W,2,11,0.8,26.2,M,-27.1,M,,*69
2023-07-17T21:19:41.5975211Z, 6cda8203-a249-e411-b0cc-f8bc1246af59, $GPGGA,211941.00,4035.7592,N,12452.6169,W,2,11,0.8,25.3,M,-27.1,M,,*65
2023-07-17T21:19:43.1081783Z, 6cda8203-a249-e411-b0cc-f8bc1246af59, $GPGGA,211942.00,4035.7617,N,12452.6170,W,2,11,0.8,25.3,M,-27.1,M,,*60
2023-07-17T21:19:43.5880717Z, 6cda8203-a249-e411-b0cc-f8bc1246af59, $GPGGA,211943.00,4035.7643,N,12452.6164,W,2,11,0.8,26.0,M,-27.1,M,,*65
2023-07-17T21:19:44.5977266Z, 6cda8203-a249-e411-b0cc-f8bc1246af59, $GPGGA,211944.00,4035.7670,N,12452.6156,W,2,11,0.8,26.4,M,-27.1,M,,*67
2023-07-17T21:19:46.1082001Z, 6cda8203-a249-e411-b0cc-f8bc1246af59, $GPGGA,211945.00,4035.7699,N,12452.6150,W,2,11,0.8,26.1,M,-27.1,M,,*62
2023-07-17T21:19:46.5980918Z, 6cda8203-a249-e411-b0cc-f8bc1246af59, $GPGGA,211946.00,4035.7726,N,12452.6150,W,2,11,0.8,25.5,M,-27.1,M,,*63
2023-07-17T21:19:48.1075733Z, 6cda8203-a249-e411-b0cc-f8bc1246af59, $GPGGA,211947.00,4035.7753,N,12452.6153,W,2,11,0.8,25.1,M,-27.1,M,,*67
2023-07-17T21:19:48.5984476Z, 6cda8203-a249-e411-b0cc-f8bc1246af59, $GPGGA,211948.00,4035.7780,N,12452.6154,W,2,11,0.8,25.4,M,-27.1,M,,*64
2023-07-17T21:19:50.1081596Z, 6cda8203-a249-e411-b0cc-f8bc1246af59, $GPGGA,211949.00,4035.7807,N,12452.6151,W,2,11,0.8,25.9,M,-27.1,M,,*6D
2023-07-17T21:19:50.8877672Z, 6cda8203-a249-e411-b0cc-f8bc1246af59, $GPGGA,211950.00,4035.7836,N,12452.6145,W,2,11,0.8,26.0,M,-27.1,M,,*68
2023-07-17T21:19:52.1084809Z, 6cda8203-a249-e411-b0cc-f8bc1246af59, $GPGGA,211951.00,4035.7865,N,12452.6141,W,2,11,0.8,25.9,M,-27.1,M,,*61
2023-07-17T21:19:52.5983526Z, 6cda8203-a249-e411-b0cc-f8bc1246af59, $GPGGA,211952.00,4035.7893,N,12452.6139,W,2,11,0.8,25.6,M,-27.1,M,,*6B
2023-07-17T21:19:53.5980083Z, 6cda8203-a249-e411-b0cc-f8bc1246af59, $GPGGA,211953.00,4035.7920,N,12452.6138,W,2,11,0.8,25.6,M,-27.1,M,,*62
2023-07-17T21:19:54.5986778Z, 6cda8203-a249-e411-b0cc-f8bc1246af59, $GPGGA,211954.00,4035.7948,N,12452.6137,W,2,11,0.8,25.9,M,-27.1,M,,*6B
2023-07-17T21:19:56.3281901Z, 6cda8203-a249-e411-b0cc-f8bc1246af59, $GPGGA,211955.00,4035.7976,N,12452.6136,W,2,11,0.8,25.9,M,-27.1,M,,*66
2023-07-17T21:19:56.6587240Z, 6cda8203-a249-e411-b0cc-f8bc1246af59, $GPGGA,211956.00,4035.8004,N,12452.6136,W,2,11,0.8,25.6,M,-27.1,M,,*69
2023-07-17T21:19:57.5986716Z, 6cda8203-a249-e411-b0cc-f8bc1246af59, $GPGGA,211957.00,4035.8032,N,12452.6134,W,2,11,0.8,25.5,M,-27.1,M,,*6C
2023-07-17T21:19:58.5983278Z, 6cda8203-a249-e411-b0cc-f8bc1246af59, $GPGGA,211958.00,4035.8060,N,12452.6132,W,2,11,0.8,25.5,M,-27.1,M,,*62
2023-07-17T21:20:00.1087816Z, 6cda8203-a249-e411-b0cc-f8bc1246af59, $GPGGA,211959.00,4035.8088,N,12452.6131,W,2,11,0.8,25.6,M,-27.1,M,,*65
2023-07-17T21:20:00.5986677Z, 6cda8203-a249-e411-b0cc-f8bc1246af59, $GPGGA,212000.00,4035.8116,N,12452.6131,W,2,11,0.8,25.6,M,-27.1,M,,*65
2023-07-17T21:20:01.5993186Z, 6cda8203-a249-e411-b0cc-f8bc1246af59, $GPGGA,212001.00,4035.8142,N,12452.6130,W,2,11,0.8,25.8,M,-27.1,M,,*6A
2023-07-17T21:20:03.1087809Z, 6cda8203-a249-e411-b0cc-f8bc1246af59, $GPGGA,212002.00,4035.8169,N,12452.6127,W,2,11,0.8,25.9,M,-27.1,M,,*67
2023-07-17T21:20:03.5986628Z, 6cda8203-a249-e411-b0cc-f8bc1246af59, $GPGGA,212003.00,4035.8198,N,12452.6125,W,2,11,0.8,26.1,M,-27.1,M,,*61
2023-07-17T21:20:04.5993220Z, 6cda8203-a249-e411-b0cc-f8bc1246af59, $GPGGA,212004.00,4035.8227,N,12452.6124,W,2,11,0.8,26.0,M,-27.1,M,,*61
2023-07-17T21:20:05.6089808Z, 6cda8203-a249-e411-b0cc-f8bc1246af59, $GPGGA,212005.00,4035.8254,N,12452.6124,W,2,10,0.8,26.0,M,-27.1,M,,*65
2023-07-17T21:20:06.5997026Z, 6cda8203-a249-e411-b0cc-f8bc1246af59, $GPGGA,212006.00,4035.8280,N,12452.6124,W,2,10,0.8,26.1,M,-27.1,M,,*6E
2023-07-17T21:20:07.5997754Z, 6cda8203-a249-e411-b0cc-f8bc1246af59, $GPGGA,212007.00,4035.8308,N,12452.6123,W,2,10,0.8,26.2,M,-27.1,M,,*6A
2023-07-17T21:20:09.1092369Z, 6cda8203-a249-e411-b0cc-f8bc1246af59, $GPGGA,212008.00,4035.8337,N,12452.6122,W,2,10,0.8,26.1,M,-27.1,M,,*6B
2023-07-17T21:20:09.6100636Z, 6cda8203-a249-e411-b0cc-f8bc1246af59, $GPGGA,212009.00,4035.8365,N,12452.6121,W,2,11,0.8,25.8,M,-27.1,M,,*65
2023-07-17T21:20:10.6097002Z, 6cda8203-a249-e411-b0cc-f8bc1246af59, $GPGGA,212010.00,4035.8393,N,12452.6121,W,2,11,0.8,25.5,M,-27.1,M,,*69
2023-07-17T21:20:11.6093648Z, 6cda8203-a249-e411-b0cc-f8bc1246af59, $GPGGA,212011.00,4035.8421,N,12452.6120,W,2,10,0.8,25.5,M,-27.1,M,,*66
2023-07-17T21:20:13.1094368Z, 6cda8203-a249-e411-b0cc-f8bc1246af59, $GPGGA,212012.00,4035.8449,N,12452.6119,W,2,10,0.8,25.5,M,-27.1,M,,*61
2023-07-17T21:20:13.6102619Z, 6cda8203-a249-e411-b0cc-f8bc1246af59, $GPGGA,212013.00,4035.8477,N,12452.6116,W,2,11,0.8,25.5,M,-27.1,M,,*63
2023-07-17T21:20:14.6099519Z, 6cda8203-a249-e411-b0cc-f8bc1246af59, $GPGGA,212014.00,4035.8504,N,12452.6113,W,2,11,0.8,25.5,M,-27.1,M,,*64
2023-07-17T21:20:15.8904018Z, 6cda8203-a249-e411-b0cc-f8bc1246af59, $GPGGA,212015.00,4035.8532,N,12452.6112,W,2,11,0.8,25.3,M,-27.1,M,,*67
2023-07-17T21:20:17.1124463Z, 6cda8203-a249-e411-b0cc-f8bc1246af59, $GPGGA,212016.00,4035.8562,N,12452.6113,W,2,11,0.8,25.3,M,-27.1,M,,*60
2023-07-17T21:20:17.6099536Z, 6cda8203-a249-e411-b0cc-f8bc1246af59, $GPGGA,212017.00,4035.8590,N,12452.6113,W,2,11,0.8,25.3,M,-27.1,M,,*6C
2023-07-17T21:20:18.6106016Z, 6cda8203-a249-e411-b0cc-f8bc1246af59, $GPGGA,212018.00,4035.8618,N,12452.6111,W,2,11,0.8,25.6,M,-27.1,M,,*67
2023-07-17T21:20:19.6202115Z, 6cda8203-a249-e411-b0cc-f8bc1246af59, $GPGGA,212019.00,4035.8646,N,12452.6109,W,2,11,0.8,25.9,M,-27.1,M,,*6B
2023-07-17T21:20:20.6099324Z, 6cda8203-a249-e411-b0cc-f8bc1246af59, $GPGGA,212020.00,4035.8673,N,12452.6107,W,2,11,0.8,26.0,M,-27.1,M,,*63
2023-07-17T21:20:21.9302216Z, 6cda8203-a249-e411-b0cc-f8bc1246af59, $GPGGA,212021.00,4035.8703,N,12452.6106,W,2,11,0.8,25.8,M,-27.1,M,,*6E
2023-07-17T21:20:23.1101751Z, 6cda8203-a249-e411-b0cc-f8bc1246af59, $GPGGA,212022.00,4035.8734,N,12452.6105,W,2,11,0.8,25.3,M,-27.1,M,,*61
2023-07-17T21:20:23.6110087Z, 6cda8203-a249-e411-b0cc-f8bc1246af59, $GPGGA,212023.00,4035.8762,N,12452.6103,W,2,11,0.8,24.9,M,-27.1,M,,*6E
2023-07-17T21:20:24.6106687Z, 6cda8203-a249-e411-b0cc-f8bc1246af59, $GPGGA,212024.00,4035.8787,N,12452.6101,W,2,11,0.8,25.2,M,-27.1,M,,*6A
2023-07-17T21:20:25.6103254Z, 6cda8203-a249-e411-b0cc-f8bc1246af59, $GPGGA,212025.00,4035.8813,N,12452.6097,W,2,11,0.8,25.6,M,-27.1,M,,*63
2023-07-17T21:20:26.6209273Z, 6cda8203-a249-e411-b0cc-f8bc1246af59, $GPGGA,212026.00,4035.8844,N,12452.6092,W,2,11,0.8,25.5,M,-27.1,M,,*64
2023-07-17T21:20:28.6710451Z, 6cda8203-a249-e411-b0cc-f8bc1246af59, $GPGGA,212028.00,4035.8900,N,12452.6089,W,2,10,0.8,24.9,M,-27.1,M,,*6D
2023-07-17T21:20:29.6209222Z, 6cda8203-a249-e411-b0cc-f8bc1246af59, $GPGGA,212029.00,4035.8926,N,12452.6088,W,2,10,0.8,25.1,M,-27.1,M,,*60
2023-07-17T21:20:30.6913036Z, 6cda8203-a249-e411-b0cc-f8bc1246af59, $GPGGA,212030.00,4035.8952,N,12452.6084,W,2,11,0.8,25.6,M,-27.1,M,,*61
2023-07-17T21:20:31.6115307Z, 6cda8203-a249-e411-b0cc-f8bc1246af59, $GPGGA,212031.00,4035.8981,N,12452.6077,W,2,11,0.8,25.7,M,-27.1,M,,*63
2023-07-17T21:20:33.1110117Z, 6cda8203-a249-e411-b0cc-f8bc1246af59, $GPGGA,212032.00,4035.9009,N,12452.6074,W,2,11,0.8,25.3,M,-27.1,M,,*6F
2023-07-17T21:20:33.6208258Z, 6cda8203-a249-e411-b0cc-f8bc1246af59, $GPGGA,212033.00,4035.9037,N,12452.6075,W,2,11,0.8,25.0,M,-27.1,M,,*61
2023-07-17T21:20:34.6115301Z, 6cda8203-a249-e411-b0cc-f8bc1246af59, $GPGGA,212034.00,4035.9064,N,12452.6075,W,2,11,0.8,25.0,M,-27.1,M,,*60
2023-07-17T21:20:35.6818808Z, 6cda8203-a249-e411-b0cc-f8bc1246af59, $GPGGA,212035.00,4035.9091,N,12452.6069,W,2,11,0.8,25.5,M,-27.1,M,,*63
2023-07-17T21:20:36.6217834Z, 6cda8203-a249-e411-b0cc-f8bc1246af59, $GPGGA,212036.00,4035.9118,N,12452.6063,W,2,11,0.8,25.6,M,-27.1,M,,*69
2023-07-17T21:20:37.6214802Z, 6cda8203-a249-e411-b0cc-f8bc1246af59, $GPGGA,212037.00,4035.9147,N,12452.6060,W,2,11,0.8,25.3,M,-27.1,M,,*64
2023-07-17T21:20:38.6211339Z, 6cda8203-a249-e411-b0cc-f8bc1246af59, $GPGGA,212038.00,4035.9175,N,12452.6059,W,2,11,0.8,25.2,M,-27.1,M,,*61
2023-07-17T21:20:39.6218043Z, 6cda8203-a249-e411-b0cc-f8bc1246af59, $GPGGA,212039.00,4035.9203,N,12452.6056,W,2,11,0.8,25.3,M,-27.1,M,,*6C
2023-07-17T21:20:40.8914675Z, 6cda8203-a249-e411-b0cc-f8bc1246af59, $GPGGA,212040.00,4035.9232,N,12452.6052,W,2,11,0.8,25.4,M,-27.1,M,,*63
2023-07-17T21:20:42.0314883Z, 6cda8203-a249-e411-b0cc-f8bc1246af59, $GPGGA,212041.00,4035.9261,N,12452.6049,W,2,11,0.8,25.3,M,-27.1,M,,*69
2023-07-17T21:20:42.6816754Z, 6cda8203-a249-e411-b0cc-f8bc1246af59, $GPGGA,212042.00,4035.9288,N,12452.6048,W,2,11,0.8,25.3,M,-27.1,M,,*6C
2023-07-17T21:20:43.6216181Z, 6cda8203-a249-e411-b0cc-f8bc1246af59, $GPGGA,212043.00,4035.9315,N,12452.6045,W,2,11,0.8,25.5,M,-27.1,M,,*63
2023-07-17T21:20:44.6222920Z, 6cda8203-a249-e411-b0cc-f8bc1246af59, $GPGGA,212044.00,4035.9345,N,12452.6042,W,2,11,0.8,25.6,M,-27.1,M,,*65
2023-07-17T21:20:45.6219511Z, 6cda8203-a249-e411-b0cc-f8bc1246af59, $GPGGA,212045.00,4035.9376,N,12452.6040,W,2,11,0.8,25.5,M,-27.1,M,,*65
2023-07-17T21:20:46.6220917Z, 6cda8203-a249-e411-b0cc-f8bc1246af59, $GPGGA,212046.00,4035.9404,N,12452.6038,W,2,10,0.8,25.4,M,-27.1,M,,*6B
2023-07-17T21:20:47.6227481Z, 6cda8203-a249-e411-b0cc-f8bc1246af59, $GPGGA,212047.00,4035.9430,N,12452.6035,W,2,10,0.8,25.4,M,-27.1,M,,*60
2023-07-17T21:20:48.6225272Z, 6cda8203-a249-e411-b0cc-f8bc1246af59, $GPGGA,212048.00,4035.9456,N,12452.6030,W,2,10,0.8,25.6,M,-27.1,M,,*68
2023-07-17T21:20:49.6355676Z, 6cda8203-a249-e411-b0cc-f8bc1246af59, $GPGGA,212049.00,4035.9483,N,12452.6027,W,2,10,0.8,25.5,M,-27.1,M,,*64
2023-07-17T21:20:51.1122750Z, 6cda8203-a249-e411-b0cc-f8bc1246af59, $GPGGA,212050.00,4035.9511,N,12452.6026,W,2,11,0.8,25.3,M,-27.1,M,,*60
2023-07-17T21:20:51.6220708Z, 6cda8203-a249-e411-b0cc-f8bc1246af59, $GPGGA,212051.00,4035.9539,N,12452.6025,W,2,11,0.8,25.2,M,-27.1,M,,*69
2023-07-17T21:20:53.1127432Z, 6cda8203-a249-e411-b0cc-f8bc1246af59, $GPGGA,212052.00,4035.9567,N,12452.6024,W,2,10,0.8,25.3,M,-27.1,M,,*60
2023-07-17T21:20:53.6623803Z, 6cda8203-a249-e411-b0cc-f8bc1246af59, $GPGGA,212053.00,4035.9594,N,12452.6022,W,2,09,0.8,25.4,M,-27.1,M,,*64
2023-07-17T21:20:55.1131115Z, 6cda8203-a249-e411-b0cc-f8bc1246af59, $GPGGA,212054.00,4035.9620,N,12452.6017,W,2,09,0.8,25.8,M,-27.1,M,,*65
2023-07-17T21:20:55.6229282Z, 6cda8203-a249-e411-b0cc-f8bc1246af59, $GPGGA,212055.00,4035.9647,N,12452.6013,W,2,09,0.8,25.9,M,-27.1,M,,*60
2023-07-17T21:20:56.6227499Z, 6cda8203-a249-e411-b0cc-f8bc1246af59, $GPGGA,212056.00,4035.9677,N,12452.6011,W,2,11,0.8,25.5,M,-27.1,M,,*67
2023-07-17T21:20:58.1132595Z, 6cda8203-a249-e411-b0cc-f8bc1246af59, $GPGGA,212057.00,4035.9707,N,12452.6011,W,2,11,0.8,25.0,M,-27.1,M,,*65
2023-07-17T21:20:58.6330819Z, 6cda8203-a249-e411-b0cc-f8bc1246af59, $GPGGA,212058.00,4035.9736,N,12452.6010,W,2,11,0.8,24.7,M,-27.1,M,,*6F
2023-07-17T21:20:59.6228231Z, 6cda8203-a249-e411-b0cc-f8bc1246af59, $GPGGA,212059.00,4035.9764,N,12452.6009,W,2,11,0.8,24.8,M,-27.1,M,,*6E
2023-07-17T21:21:01.1133612Z, 6cda8203-a249-e411-b0cc-f8bc1246af59, $GPGGA,212100.00,4035.9791,N,12452.6008,W,2,11,0.8,25.1,M,-27.1,M,,*60
2023-07-17T21:21:01.6330786Z, 6cda8203-a249-e411-b0cc-f8bc1246af59, $GPGGA,212101.00,4035.9819,N,12452.6005,W,2,10,0.8,25.3,M,-27.1,M,,*60
2023-07-17T21:21:03.1136525Z, 6cda8203-a249-e411-b0cc-f8bc1246af59, $GPGGA,212102.00,4035.9846,N,12452.6001,W,2,10,0.8,25.4,M,-27.1,M,,*6A
2023-07-17T21:21:03.6334012Z, 6cda8203-a249-e411-b0cc-f8bc1246af59, $GPGGA,212103.00,4035.9873,N,12452.5998,W,2,10,0.8,25.4,M,-27.1,M,,*67
2023-07-17T21:21:05.1131089Z, 6cda8203-a249-e411-b0cc-f8bc1246af59, $GPGGA,212104.00,4035.9901,N,12452.5995,W,2,11,0.8,25.4,M,-27.1,M,,*68
2023-07-17T21:21:05.6338477Z, 6cda8203-a249-e411-b0cc-f8bc1246af59, $GPGGA,212105.00,4035.9929,N,12452.5995,W,2,11,0.8,25.0,M,-27.1,M,,*67
2023-07-17T21:21:07.1134370Z, 6cda8203-a249-e411-b0cc-f8bc1246af59, $GPGGA,212106.00,4035.9958,N,12452.5995,W,2,11,0.8,24.8,M,-27.1,M,,*6B
2023-07-17T21:21:07.6332070Z, 6cda8203-a249-e411-b0cc-f8bc1246af59, $GPGGA,212107.00,4035.9987,N,12452.5993,W,2,11,0.8,24.7,M,-27.1,M,,*61
2023-07-17T21:21:09.1137686Z, 6cda8203-a249-e411-b0cc-f8bc1246af59, $GPGGA,212108.00,4036.0016,N,12452.5992,W,2,10,0.8,24.5,M,-27.1,M,,*67
2023-07-17T21:21:09.6335433Z, 6cda8203-a249-e411-b0cc-f8bc1246af59, $GPGGA,212109.00,4036.0043,N,12452.5990,W,2,10,0.8,24.4,M,-27.1,M,,*65
2023-07-17T21:21:10.6334744Z, 6cda8203-a249-e411-b0cc-f8bc1246af59, $GPGGA,212110.00,4036.0070,N,12452.5988,W,2,10,0.8,24.3,M,-27.1,M,,*63
2023-07-17T21:21:12.2942522Z, 6cda8203-a249-e411-b0cc-f8bc1246af59, $GPGGA,212111.00,4036.0098,N,12452.5986,W,2,11,0.8,24.1,M,-27.1,M,,*69
2023-07-17T21:21:12.6935251Z, 6cda8203-a249-e411-b0cc-f8bc1246af59, $GPGGA,212112.00,4036.0126,N,12452.5985,W,2,11,0.8,24.0,M,-27.1,M,,*6C
2023-07-17T21:21:14.1039779Z, 6cda8203-a249-e411-b0cc-f8bc1246af59, $GPGGA,212113.00,4036.0154,N,12452.5986,W,2,11,0.8,23.7,M,-27.1,M,,*6B
2023-07-17T21:21:14.6197030Z, 6cda8203-a249-e411-b0cc-f8bc1246af59, $GPGGA,212114.00,4036.0182,N,12452.5986,W,2,11,0.8,23.8,M,-27.1,M,,*68
2023-07-17T21:21:16.0991354Z, 6cda8203-a249-e411-b0cc-f8bc1246af59, $GPGGA,212115.00,4036.0209,N,12452.5983,W,2,11,0.8,24.2,M,-27.1,M,,*61
2023-07-17T21:21:16.6189053Z, 6cda8203-a249-e411-b0cc-f8bc1246af59, $GPGGA,212116.00,4036.0237,N,12452.5979,W,2,11,0.8,24.7,M,-27.1,M,,*6F
2023-07-17T21:21:18.0986848Z, 6cda8203-a249-e411-b0cc-f8bc1246af59, $GPGGA,212117.00,4036.0265,N,12452.5975,W,2,11,0.8,25.0,M,-27.1,M,,*63
2023-07-17T21:21:18.6184160Z, 6cda8203-a249-e411-b0cc-f8bc1246af59, $GPGGA,212118.00,4036.0294,N,12452.5972,W,2,11,0.8,24.8,M,-27.1,M,,*6C
2023-07-17T21:21:19.6190929Z, 6cda8203-a249-e411-b0cc-f8bc1246af59, $GPGGA,212119.00,4036.0323,N,12452.5972,W,2,11,0.8,24.4,M,-27.1,M,,*6C
2023-07-17T21:21:21.0986462Z, 6cda8203-a249-e411-b0cc-f8bc1246af59, $GPGGA,212120.00,4036.0350,N,12452.5973,W,2,11,0.8,24.1,M,-27.1,M,,*66
2023-07-17T21:21:21.6194713Z, 6cda8203-a249-e411-b0cc-f8bc1246af59, $GPGGA,212121.00,4036.0377,N,12452.5972,W,2,11,0.8,24.3,M,-27.1,M,,*61
2023-07-17T21:21:22.6191592Z, 6cda8203-a249-e411-b0cc-f8bc1246af59, $GPGGA,212122.00,4036.0406,N,12452.5968,W,2,11,0.8,24.9,M,-27.1,M,,*62
2023-07-17T21:21:24.0997420Z, 6cda8203-a249-e411-b0cc-f8bc1246af59, $GPGGA,212123.00,4036.0435,N,12452.5964,W,2,11,0.8,25.3,M,-27.1,M,,*64
2023-07-17T21:21:24.6294265Z, 6cda8203-a249-e411-b0cc-f8bc1246af59, $GPGGA,212124.00,4036.0465,N,12452.5960,W,2,11,0.8,25.3,M,-27.1,M,,*62
2023-07-17T21:21:26.0991654Z, 6cda8203-a249-e411-b0cc-f8bc1246af59, $GPGGA,212125.00,4036.0494,N,12452.5957,W,2,11,0.8,25.1,M,-27.1,M,,*6B
2023-07-17T21:21:26.6299018Z, 6cda8203-a249-e411-b0cc-f8bc1246af59, $GPGGA,212126.00,4036.0523,N,12452.5957,W,2,11,0.8,24.9,M,-27.1,M,,*6C
2023-07-17T21:21:27.6295547Z, 6cda8203-a249-e411-b0cc-f8bc1246af59, $GPGGA,212127.00,4036.0551,N,12452.5956,W,2,11,0.8,25.2,M,-27.1,M,,*63
2023-07-17T21:21:29.0991487Z, 6cda8203-a249-e411-b0cc-f8bc1246af59, $GPGGA,212128.00,4036.0581,N,12452.5954,W,2,11,0.8,25.5,M,-27.1,M,,*64
2023-07-17T21:21:29.6298847Z, 6cda8203-a249-e411-b0cc-f8bc1246af59, $GPGGA,212129.00,4036.0610,N,12452.5950,W,2,11,0.8,25.5,M,-27.1,M,,*6A
2023-07-17T21:21:30.6892457Z, 6cda8203-a249-e411-b0cc-f8bc1246af59, $GPGGA,212130.00,4036.0639,N,12452.5947,W,2,11,0.8,25.4,M,-27.1,M,,*6E
2023-07-17T21:21:32.1001334Z, 6cda8203-a249-e411-b0cc-f8bc1246af59, $GPGGA,212131.00,4036.0667,N,12452.5945,W,2,11,0.8,25.3,M,-27.1,M,,*61
2023-07-17T21:21:32.6298734Z, 6cda8203-a249-e411-b0cc-f8bc1246af59, $GPGGA,212132.00,4036.0695,N,12452.5943,W,2,11,0.8,25.3,M,-27.1,M,,*69
2023-07-17T21:21:33.6295333Z, 6cda8203-a249-e411-b0cc-f8bc1246af59, $GPGGA,212133.00,4036.0724,N,12452.5943,W,2,11,0.8,25.3,M,-27.1,M,,*63
2023-07-17T21:21:35.1001439Z, 6cda8203-a249-e411-b0cc-f8bc1246af59, $GPGGA,212134.00,4036.0753,N,12452.5941,W,2,11,0.8,25.1,M,-27.1,M,,*64
2023-07-17T21:21:35.6298711Z, 6cda8203-a249-e411-b0cc-f8bc1246af59, $GPGGA,212135.00,4036.0782,N,12452.5939,W,2,11,0.8,24.9,M,-27.1,M,,*6F
2023-07-17T21:21:36.6305205Z, 6cda8203-a249-e411-b0cc-f8bc1246af59, $GPGGA,212136.00,4036.0810,N,12452.5935,W,2,11,0.8,25.1,M,-27.1,M,,*6D
2023-07-17T21:21:37.6301974Z, 6cda8203-a249-e411-b0cc-f8bc1246af59, $GPGGA,212137.00,4036.0838,N,12452.5930,W,2,10,0.8,25.4,M,-27.1,M,,*67
2023-07-17T21:21:39.0997981Z, 6cda8203-a249-e411-b0cc-f8bc1246af59, $GPGGA,212138.00,4036.0866,N,12452.5925,W,2,10,0.8,25.5,M,-27.1,M,,*66
2023-07-17T21:21:39.6307030Z, 6cda8203-a249-e411-b0cc-f8bc1246af59, $GPGGA,212139.00,4036.0896,N,12452.5924,W,2,10,0.8,25.4,M,-27.1,M,,*68
2023-07-17T21:21:40.6303759Z, 6cda8203-a249-e411-b0cc-f8bc1246af59, $GPGGA,212140.00,4036.0924,N,12452.5925,W,2,11,0.8,25.1,M,-27.1,M,,*6B
2023-07-17T21:21:42.2617905Z, 6cda8203-a249-e411-b0cc-f8bc1246af59, $GPGGA,212141.00,4036.0952,N,12452.5924,W,2,11,0.8,25.2,M,-27.1,M,,*69
2023-07-17T21:21:42.6904194Z, 6cda8203-a249-e411-b0cc-f8bc1246af59, $GPGGA,212142.00,4036.0979,N,12452.5921,W,2,11,0.8,25.4,M,-27.1,M,,*60
2023-07-17T21:21:44.1002936Z, 6cda8203-a249-e411-b0cc-f8bc1246af59, $GPGGA,212143.00,4036.1007,N,12452.5917,W,2,11,0.8,25.5,M,-27.1,M,,*64
2023-07-17T21:21:44.6310154Z, 6cda8203-a249-e411-b0cc-f8bc1246af59, $GPGGA,212144.00,4036.1037,N,12452.5914,W,2,11,0.8,25.2,M,-27.1,M,,*64
