ACQ Timestamp (Server Time in UTC), MessageID, Data Value For: GNSS-6452-$GPGGA
2023-07-05T15:48:44.2480825Z, 6cda8203-a249-e411-b0cc-f8bc1246af59, $GPGGA,154844.00,3747.2002,N,12223.0612,W,2,12,0.8,16.9,M,-27.6,M,,*6C
2023-07-05T15:48:46.0884246Z, 6cda8203-a249-e411-b0cc-f8bc1246af59, $GPGGA,154845.00,3747.2002,N,12223.0612,W,2,12,0.8,16.9,M,-27.6,M,,*6D
2023-07-05T15:48:46.4180074Z, 6cda8203-a249-e411-b0cc-f8bc1246af59, $GPGGA,154846.00,3747.2002,N,12223.0612,W,2,12,0.8,16.9,M,-27.6,M,,*6E
2023-07-05T15:48:47.6984096Z, 6cda8203-a249-e411-b0cc-f8bc1246af59, $GPGGA,154847.00,3747.2001,N,12223.0612,W,2,12,0.8,16.9,M,-27.6,M,,*6C
2023-07-05T15:48:48.4085943Z, 6cda8203-a249-e411-b0cc-f8bc1246af59, $GPGGA,154848.00,3747.2001,N,12223.0611,W,2,12,0.8,16.9,M,-27.6,M,,*60
2023-07-05T15:48:49.2485286Z, 6cda8203-a249-e411-b0cc-f8bc1246af59, $GPGGA,154849.00,3747.2001,N,12223.0611,W,2,12,0.8,16.9,M,-27.6,M,,*61
2023-07-05T15:48:51.0883266Z, 6cda8203-a249-e411-b0cc-f8bc1246af59, $GPGGA,154850.00,3747.2001,N,12223.0611,W,2,12,0.8,16.9,M,-27.6,M,,*69
2023-07-05T15:48:51.4188847Z, 6cda8203-a249-e411-b0cc-f8bc1246af59, $GPGGA,154851.00,3747.2001,N,12223.0611,W,2,12,0.8,16.9,M,-27.6,M,,*68
2023-07-05T15:48:52.2491735Z, 6cda8203-a249-e411-b0cc-f8bc1246af59, $GPGGA,154852.00,3747.2001,N,12223.0611,W,2,12,0.8,17.0,M,-27.6,M,,*63
2023-07-05T15:48:54.0892134Z, 6cda8203-a249-e411-b0cc-f8bc1246af59, $GPGGA,154853.00,3747.2002,N,12223.0611,W,2,12,0.8,17.0,M,-27.6,M,,*61
2023-07-05T15:48:54.4187578Z, 6cda8203-a249-e411-b0cc-f8bc1246af59, $GPGGA,154854.00,3747.2002,N,12223.0611,W,2,12,0.8,17.0,M,-27.6,M,,*66
2023-07-05T15:48:55.2493969Z, 6cda8203-a249-e411-b0cc-f8bc1246af59, $GPGGA,154855.00,3747.2001,N,12223.0611,W,2,12,0.8,17.0,M,-27.6,M,,*64
2023-07-05T15:48:56.4093578Z, 6cda8203-a249-e411-b0cc-f8bc1246af59, $GPGGA,154856.00,3747.2002,N,12223.0610,W,2,12,0.8,17.0,M,-27.6,M,,*65
2023-07-05T15:48:58.0890664Z, 6cda8203-a249-e411-b0cc-f8bc1246af59, $GPGGA,154857.00,3747.2001,N,12223.0610,W,2,12,0.8,17.0,M,-27.6,M,,*67
2023-07-05T15:48:58.4196447Z, 6cda8203-a249-e411-b0cc-f8bc1246af59, $GPGGA,154858.00,3747.2001,N,12223.0610,W,2,12,0.8,17.0,M,-27.6,M,,*68
2023-07-05T15:48:59.2490386Z, 6cda8203-a249-e411-b0cc-f8bc1246af59, $GPGGA,154859.00,3747.2001,N,12223.0610,W,2,12,0.8,17.0,M,-27.6,M,,*69
2023-07-05T15:49:00.2497045Z, 6cda8203-a249-e411-b0cc-f8bc1246af59, $GPGGA,154900.00,3747.2001,N,12223.0610,W,2,12,0.8,17.0,M,-27.6,M,,*64
2023-07-05T15:49:01.4191767Z, 6cda8203-a249-e411-b0cc-f8bc1246af59, $GPGGA,154901.00,3747.2001,N,12223.0610,W,2,12,0.8,17.0,M,-27.6,M,,*65
2023-07-05T15:49:03.0898779Z, 6cda8203-a249-e411-b0cc-f8bc1246af59, $GPGGA,154902.00,3747.2000,N,12223.0610,W,2,12,0.8,17.1,M,-27.6,M,,*66
2023-07-05T15:49:03.4194473Z, 6cda8203-a249-e411-b0cc-f8bc1246af59, $GPGGA,154903.00,3747.2000,N,12223.0609,W,2,12,0.8,17.1,M,-27.6,M,,*6F
2023-07-05T15:49:04.2498499Z, 6cda8203-a249-e411-b0cc-f8bc1246af59, $GPGGA,154904.00,3747.1999,N,12223.0609,W,2,12,0.8,17.1,M,-27.6,M,,*62
2023-07-05T15:49:05.2495224Z, 6cda8203-a249-e411-b0cc-f8bc1246af59, $GPGGA,154905.00,3747.1999,N,12223.0608,W,2,12,0.8,17.1,M,-27.6,M,,*62
2023-07-05T15:49:06.8196924Z, 6cda8203-a249-e411-b0cc-f8bc1246af59, $GPGGA,154906.00,3747.1998,N,12223.0608,W,2,12,0.8,17.2,M,-27.6,M,,*63
2023-07-05T15:49:07.2498371Z, 6cda8203-a249-e411-b0cc-f8bc1246af59, $GPGGA,154907.00,3747.1998,N,12223.0608,W,2,12,0.8,17.2,M,-27.6,M,,*62
2023-07-05T15:49:08.4195817Z, 6cda8203-a249-e411-b0cc-f8bc1246af59, $GPGGA,154908.00,3747.1998,N,12223.0608,W,2,12,0.8,17.2,M,-27.6,M,,*6D
2023-07-05T15:49:09.2798272Z, 6cda8203-a249-e411-b0cc-f8bc1246af59, $GPGGA,154909.00,3747.1997,N,12223.0607,W,2,12,0.8,17.1,M,-27.6,M,,*6F
2023-07-05T15:49:11.0900118Z, 6cda8203-a249-e411-b0cc-f8bc1246af59, $GPGGA,154910.00,3747.1997,N,12223.0608,W,2,12,0.8,17.2,M,-27.6,M,,*6B
2023-07-05T15:49:11.4205739Z, 6cda8203-a249-e411-b0cc-f8bc1246af59, $GPGGA,154911.00,3747.1997,N,12223.0607,W,2,12,0.8,17.2,M,-27.6,M,,*65
2023-07-05T15:49:12.2599048Z, 6cda8203-a249-e411-b0cc-f8bc1246af59, $GPGGA,154912.00,3747.1997,N,12223.0607,W,2,12,0.8,17.1,M,-27.6,M,,*65
2023-07-05T15:49:13.6800198Z, 6cda8203-a249-e411-b0cc-f8bc1246af59, $GPGGA,154913.00,3747.1997,N,12223.0607,W,2,12,0.8,17.2,M,-27.6,M,,*67
2023-07-05T15:49:14.2704875Z, 6cda8203-a249-e411-b0cc-f8bc1246af59, $GPGGA,154914.00,3747.1996,N,12223.0607,W,2,12,0.8,17.2,M,-27.6,M,,*61
2023-07-05T15:49:15.2601861Z, 6cda8203-a249-e411-b0cc-f8bc1246af59, $GPGGA,154915.00,3747.1997,N,12223.0607,W,2,12,0.8,17.2,M,-27.6,M,,*61
2023-07-05T15:49:16.4201543Z, 6cda8203-a249-e411-b0cc-f8bc1246af59, $GPGGA,154916.00,3747.1996,N,12223.0606,W,2,12,0.8,17.2,M,-27.6,M,,*62
2023-07-05T15:49:17.2601390Z, 6cda8203-a249-e411-b0cc-f8bc1246af59, $GPGGA,154917.00,3747.1997,N,12223.0606,W,2,12,0.8,17.2,M,-27.6,M,,*62
2023-07-05T15:49:18.2609362Z, 6cda8203-a249-e411-b0cc-f8bc1246af59, $GPGGA,154918.00,3747.1996,N,12223.0606,W,2,12,0.8,17.2,M,-27.6,M,,*6C
2023-07-05T15:49:19.4211236Z, 6cda8203-a249-e411-b0cc-f8bc1246af59, $GPGGA,154919.00,3747.1996,N,12223.0605,W,2,12,0.8,17.2,M,-27.6,M,,*6E
2023-07-05T15:49:20.2606741Z, 6cda8203-a249-e411-b0cc-f8bc1246af59, $GPGGA,154920.00,3747.1996,N,12223.0605,W,2,12,0.8,17.3,M,-27.6,M,,*65
2023-07-05T15:49:22.0910211Z, 6cda8203-a249-e411-b0cc-f8bc1246af59, $GPGGA,154921.00,3747.1996,N,12223.0605,W,2,12,0.8,17.3,M,-27.6,M,,*64
2023-07-05T15:49:22.4206907Z, 6cda8203-a249-e411-b0cc-f8bc1246af59, $GPGGA,154922.00,3747.1996,N,12223.0605,W,2,12,0.8,17.3,M,-27.6,M,,*67
2023-07-05T15:49:24.0906397Z, 6cda8203-a249-e411-b0cc-f8bc1246af59, $GPGGA,154923.00,3747.1996,N,12223.0605,W,2,12,0.8,17.3,M,-27.6,M,,*66
2023-07-05T15:49:24.4207543Z, 6cda8203-a249-e411-b0cc-f8bc1246af59, $GPGGA,154924.00,3747.1996,N,12223.0605,W,2,12,0.8,17.3,M,-27.6,M,,*61
2023-07-05T15:49:25.7212641Z, 6cda8203-a249-e411-b0cc-f8bc1246af59, $GPGGA,154925.00,3747.1996,N,12223.0605,W,2,12,0.8,17.4,M,-27.6,M,,*67
2023-07-05T15:49:27.0913225Z, 6cda8203-a249-e411-b0cc-f8bc1246af59, $GPGGA,154926.00,3747.1996,N,12223.0605,W,2,12,0.8,17.4,M,-27.6,M,,*64
2023-07-05T15:49:27.4210013Z, 6cda8203-a249-e411-b0cc-f8bc1246af59, $GPGGA,154927.00,3747.1996,N,12223.0605,W,2,12,0.8,17.4,M,-27.6,M,,*65
2023-07-05T15:49:29.0917638Z, 6cda8203-a249-e411-b0cc-f8bc1246af59, $GPGGA,154928.00,3747.1996,N,12223.0605,W,2,12,0.8,17.5,M,-27.6,M,,*6B
2023-07-05T15:49:29.4213413Z, 6cda8203-a249-e411-b0cc-f8bc1246af59, $GPGGA,154929.00,3747.1996,N,12223.0605,W,2,12,0.8,17.5,M,-27.6,M,,*6A
2023-07-05T15:49:31.2719860Z, 6cda8203-a249-e411-b0cc-f8bc1246af59, $GPGGA,154930.00,3747.1996,N,12223.0605,W,2,12,0.8,17.5,M,-27.6,M,,*62
2023-07-05T15:49:31.6712269Z, 6cda8203-a249-e411-b0cc-f8bc1246af59, $GPGGA,154931.00,3747.1996,N,12223.0605,W,2,12,0.8,17.6,M,-27.6,M,,*60
2023-07-05T15:49:33.0921024Z, 6cda8203-a249-e411-b0cc-f8bc1246af59, $GPGGA,154932.00,3747.1996,N,12223.0605,W,2,12,0.8,17.6,M,-27.6,M,,*63
2023-07-05T15:49:33.4216851Z, 6cda8203-a249-e411-b0cc-f8bc1246af59, $GPGGA,154933.00,3747.1996,N,12223.0605,W,2,12,0.8,17.6,M,-27.6,M,,*62
2023-07-05T15:49:35.0914354Z, 6cda8203-a249-e411-b0cc-f8bc1246af59, $GPGGA,154934.00,3747.1996,N,12223.0605,W,2,12,0.8,17.7,M,-27.6,M,,*64
2023-07-05T15:49:35.4219887Z, 6cda8203-a249-e411-b0cc-f8bc1246af59, $GPGGA,154935.00,3747.1997,N,12223.0605,W,2,12,0.8,17.7,M,-27.6,M,,*64
2023-07-05T15:49:36.2214971Z, 6cda8203-a249-e411-b0cc-f8bc1246af59, $GPGGA,154936.00,3747.1997,N,12223.0605,W,2,12,0.8,17.8,M,-27.6,M,,*68
2023-07-05T15:49:38.0924071Z, 6cda8203-a249-e411-b0cc-f8bc1246af59, $GPGGA,154937.00,3747.1997,N,12223.0606,W,2,12,0.8,17.8,M,-27.6,M,,*6A
2023-07-05T15:49:38.4222028Z, 6cda8203-a249-e411-b0cc-f8bc1246af59, $GPGGA,154938.00,3747.1998,N,12223.0606,W,2,12,0.8,17.8,M,-27.6,M,,*6A
2023-07-05T15:49:39.2217039Z, 6cda8203-a249-e411-b0cc-f8bc1246af59, $GPGGA,154939.00,3747.1998,N,12223.0607,W,2,12,0.8,17.9,M,-27.6,M,,*6B
2023-07-05T15:49:41.0920659Z, 6cda8203-a249-e411-b0cc-f8bc1246af59, $GPGGA,154940.00,3747.1999,N,12223.0607,W,2,12,0.8,17.9,M,-27.6,M,,*64
2023-07-05T15:49:41.4221523Z, 6cda8203-a249-e411-b0cc-f8bc1246af59, $GPGGA,154941.00,3747.1999,N,12223.0607,W,2,12,0.8,18.0,M,-27.6,M,,*63
2023-07-05T15:49:43.1828556Z, 6cda8203-a249-e411-b0cc-f8bc1246af59, $GPGGA,154942.00,3747.1999,N,12223.0607,W,2,12,0.8,18.0,M,-27.6,M,,*60
2023-07-05T15:49:43.7225663Z, 6cda8203-a249-e411-b0cc-f8bc1246af59, $GPGGA,154943.00,3747.2000,N,12223.0608,W,2,12,0.8,18.1,M,-27.6,M,,*65
2023-07-05T15:49:45.0926479Z, 6cda8203-a249-e411-b0cc-f8bc1246af59, $GPGGA,154944.00,3747.2000,N,12223.0609,W,2,12,0.8,18.1,M,-27.6,M,,*63
2023-07-05T15:49:45.4222120Z, 6cda8203-a249-e411-b0cc-f8bc1246af59, $GPGGA,154945.00,3747.2000,N,12223.0608,W,2,12,0.8,18.2,M,-27.6,M,,*60
2023-07-05T15:49:47.0929742Z, 6cda8203-a249-e411-b0cc-f8bc1246af59, $GPGGA,154946.00,3747.2000,N,12223.0609,W,2,12,0.8,18.2,M,-27.6,M,,*62
2023-07-05T15:49:47.4223532Z, 6cda8203-a249-e411-b0cc-f8bc1246af59, $GPGGA,154947.00,3747.2000,N,12223.0609,W,2,12,0.8,18.2,M,-27.6,M,,*63
2023-07-05T15:49:49.0933024Z, 6cda8203-a249-e411-b0cc-f8bc1246af59, $GPGGA,154948.00,3747.2000,N,12223.0609,W,2,12,0.8,18.3,M,-27.6,M,,*6D
2023-07-05T15:49:49.4228607Z, 6cda8203-a249-e411-b0cc-f8bc1246af59, $GPGGA,154949.00,3747.2001,N,12223.0609,W,2,12,0.8,18.3,M,-27.6,M,,*6D
2023-07-05T15:49:50.3727400Z, 6cda8203-a249-e411-b0cc-f8bc1246af59, $GPGGA,154950.00,3747.2001,N,12223.0609,W,2,12,0.8,18.4,M,-27.6,M,,*62
2023-07-05T15:49:51.2628844Z, 6cda8203-a249-e411-b0cc-f8bc1246af59, $GPGGA,154951.00,3747.2001,N,12223.0610,W,2,12,0.8,18.4,M,-27.6,M,,*6B
2023-07-05T15:49:53.0929248Z, 6cda8203-a249-e411-b0cc-f8bc1246af59, $GPGGA,154952.00,3747.2002,N,12223.0610,W,2,12,0.8,18.5,M,-27.6,M,,*6A
2023-07-05T15:49:53.4235048Z, 6cda8203-a249-e411-b0cc-f8bc1246af59, $GPGGA,154953.00,3747.2002,N,12223.0610,W,2,12,0.8,18.5,M,-27.6,M,,*6B
2023-07-05T15:49:55.0935119Z, 6cda8203-a249-e411-b0cc-f8bc1246af59, $GPGGA,154954.00,3747.2002,N,12223.0610,W,2,12,0.8,18.6,M,-27.6,M,,*6F
2023-07-05T15:49:55.4230792Z, 6cda8203-a249-e411-b0cc-f8bc1246af59, $GPGGA,154955.00,3747.2002,N,12223.0610,W,2,12,0.8,18.6,M,-27.6,M,,*6E
2023-07-05T15:49:57.0938552Z, 6cda8203-a249-e411-b0cc-f8bc1246af59, $GPGGA,154956.00,3747.2003,N,12223.0610,W,2,12,0.8,18.7,M,-27.6,M,,*6D
2023-07-05T15:49:57.4234242Z, 6cda8203-a249-e411-b0cc-f8bc1246af59, $GPGGA,154957.00,3747.2003,N,12223.0610,W,2,12,0.8,18.8,M,-27.6,M,,*63
2023-07-05T15:49:59.0931695Z, 6cda8203-a249-e411-b0cc-f8bc1246af59, $GPGGA,154958.00,3747.2003,N,12223.0610,W,2,12,0.8,18.8,M,-27.6,M,,*6C
2023-07-05T15:49:59.4237503Z, 6cda8203-a249-e411-b0cc-f8bc1246af59, $GPGGA,154959.00,3747.2003,N,12223.0611,W,2,12,0.8,18.9,M,-27.6,M,,*6D
2023-07-05T15:50:00.7440222Z, 6cda8203-a249-e411-b0cc-f8bc1246af59, $GPGGA,155000.00,3747.2003,N,12223.0610,W,2,12,0.8,18.9,M,-27.6,M,,*68
2023-07-05T15:50:01.2239364Z, 6cda8203-a249-e411-b0cc-f8bc1246af59, $GPGGA,155001.00,3747.2003,N,12223.0611,W,2,12,0.8,18.9,M,-27.6,M,,*68
2023-07-05T15:50:03.0934072Z, 6cda8203-a249-e411-b0cc-f8bc1246af59, $GPGGA,155002.00,3747.2003,N,12223.0610,W,2,12,0.8,19.0,M,-27.6,M,,*62
2023-07-05T15:50:03.4239832Z, 6cda8203-a249-e411-b0cc-f8bc1246af59, $GPGGA,155003.00,3747.2004,N,12223.0611,W,2,12,0.8,19.0,M,-27.6,M,,*65
2023-07-05T15:50:04.2334582Z, 6cda8203-a249-e411-b0cc-f8bc1246af59, $GPGGA,155004.00,3747.2004,N,12223.0611,W,2,12,0.8,19.0,M,-27.6,M,,*62
2023-07-05T15:50:06.0943990Z, 6cda8203-a249-e411-b0cc-f8bc1246af59, $GPGGA,155005.00,3747.2004,N,12223.0611,W,2,12,0.8,19.1,M,-27.6,M,,*62
2023-07-05T15:50:06.4241744Z, 6cda8203-a249-e411-b0cc-f8bc1246af59, $GPGGA,155006.00,3747.2005,N,12223.0611,W,2,12,0.8,19.1,M,-27.6,M,,*60
2023-07-05T15:50:08.0941244Z, 6cda8203-a249-e411-b0cc-f8bc1246af59, $GPGGA,155007.00,3747.2005,N,12223.0612,W,2,12,0.8,19.2,M,-27.6,M,,*61
2023-07-05T15:50:08.4237119Z, 6cda8203-a249-e411-b0cc-f8bc1246af59, $GPGGA,155008.00,3747.2005,N,12223.0612,W,2,12,0.8,19.2,M,-27.6,M,,*6E
2023-07-05T15:50:10.0938127Z, 6cda8203-a249-e411-b0cc-f8bc1246af59, $GPGGA,155009.00,3747.2005,N,12223.0612,W,2,12,0.8,19.3,M,-27.6,M,,*6E
2023-07-05T15:50:10.4243700Z, 6cda8203-a249-e411-b0cc-f8bc1246af59, $GPGGA,155010.00,3747.2005,N,12223.0612,W,2,12,0.8,19.3,M,-27.6,M,,*66
2023-07-05T15:50:12.0941236Z, 6cda8203-a249-e411-b0cc-f8bc1246af59, $GPGGA,155011.00,3747.2005,N,12223.0612,W,2,12,0.8,19.4,M,-27.6,M,,*60
2023-07-05T15:50:12.8648036Z, 6cda8203-a249-e411-b0cc-f8bc1246af59, $GPGGA,155012.00,3747.2006,N,12223.0612,W,2,12,0.8,19.4,M,-27.6,M,,*60
2023-07-05T15:50:13.3745768Z, 6cda8203-a249-e411-b0cc-f8bc1246af59, $GPGGA,155013.00,3747.2005,N,12223.0612,W,2,12,0.8,19.5,M,-27.6,M,,*63
2023-07-05T15:50:15.0951355Z, 6cda8203-a249-e411-b0cc-f8bc1246af59, $GPGGA,155014.00,3747.2006,N,12223.0612,W,2,12,0.8,19.5,M,-27.6,M,,*67
2023-07-05T15:50:15.4246885Z, 6cda8203-a249-e411-b0cc-f8bc1246af59, $GPGGA,155015.00,3747.2006,N,12223.0612,W,2,12,0.8,19.6,M,-27.6,M,,*65
2023-07-05T15:50:17.0945597Z, 6cda8203-a249-e411-b0cc-f8bc1246af59, $GPGGA,155016.00,3747.2006,N,12223.0612,W,2,12,0.8,19.7,M,-27.6,M,,*67
2023-07-05T15:50:17.4251386Z, 6cda8203-a249-e411-b0cc-f8bc1246af59, $GPGGA,155017.00,3747.2006,N,12223.0612,W,2,12,0.8,19.7,M,-27.6,M,,*66
2023-07-05T15:50:18.7352014Z, 6cda8203-a249-e411-b0cc-f8bc1246af59, $GPGGA,155018.00,3747.2006,N,12223.0612,W,2,12,0.8,19.8,M,-27.6,M,,*66
2023-07-05T15:50:20.0954807Z, 6cda8203-a249-e411-b0cc-f8bc1246af59, $GPGGA,155019.00,3747.2006,N,12223.0612,W,2,12,0.8,19.8,M,-27.6,M,,*67
2023-07-05T15:50:20.4250349Z, 6cda8203-a249-e411-b0cc-f8bc1246af59, $GPGGA,155020.00,3747.2007,N,12223.0612,W,2,12,0.8,19.9,M,-27.6,M,,*6D
2023-07-05T15:50:22.0953523Z, 6cda8203-a249-e411-b0cc-f8bc1246af59, $GPGGA,155021.00,3747.2006,N,12223.0612,W,2,12,0.8,19.9,M,-27.6,M,,*6D
2023-07-05T15:50:22.4249285Z, 6cda8203-a249-e411-b0cc-f8bc1246af59, $GPGGA,155022.00,3747.2007,N,12223.0612,W,2,12,0.8,20.0,M,-27.6,M,,*6C
2023-07-05T15:50:24.0150390Z, 6cda8203-a249-e411-b0cc-f8bc1246af59, $GPGGA,155023.00,3747.2007,N,12223.0612,W,2,12,0.8,20.0,M,-27.6,M,,*6D
2023-07-05T15:50:25.0953445Z, 6cda8203-a249-e411-b0cc-f8bc1246af59, $GPGGA,155024.00,3747.2007,N,12223.0612,W,2,12,0.8,20.0,M,-27.6,M,,*6A
2023-07-05T15:50:25.4249364Z, 6cda8203-a249-e411-b0cc-f8bc1246af59, $GPGGA,155025.00,3747.2007,N,12223.0612,W,2,12,0.8,20.1,M,-27.6,M,,*6A
2023-07-05T15:50:27.0958702Z, 6cda8203-a249-e411-b0cc-f8bc1246af59, $GPGGA,155026.00,3747.2007,N,12223.0612,W,2,12,0.8,20.1,M,-27.6,M,,*69
2023-07-05T15:50:27.4257031Z, 6cda8203-a249-e411-b0cc-f8bc1246af59, $GPGGA,155027.00,3747.2007,N,12223.0612,W,2,12,0.8,20.2,M,-27.6,M,,*6B
2023-07-05T15:50:28.3755821Z, 6cda8203-a249-e411-b0cc-f8bc1246af59, $GPGGA,155028.00,3747.2007,N,12223.0612,W,2,12,0.8,20.2,M,-27.6,M,,*64
2023-07-05T15:50:30.1858671Z, 6cda8203-a249-e411-b0cc-f8bc1246af59, $GPGGA,155029.00,3747.2007,N,12223.0612,W,2,12,0.8,20.3,M,-27.6,M,,*64
2023-07-05T15:50:30.6956492Z, 6cda8203-a249-e411-b0cc-f8bc1246af59, $GPGGA,155030.00,3747.2007,N,12223.0612,W,2,12,0.8,20.3,M,-27.6,M,,*6C
2023-07-05T15:50:32.0958997Z, 6cda8203-a249-e411-b0cc-f8bc1246af59, $GPGGA,155031.00,3747.2007,N,12223.0612,W,2,12,0.8,20.3,M,-27.6,M,,*6D
2023-07-05T15:50:32.4256808Z, 6cda8203-a249-e411-b0cc-f8bc1246af59, $GPGGA,155032.00,3747.2007,N,12223.0612,W,2,12,0.8,20.3,M,-27.6,M,,*6E
2023-07-05T15:50:33.4064277Z, 6cda8203-a249-e411-b0cc-f8bc1246af59, $GPGGA,155033.00,3747.2008,N,12223.0611,W,2,12,0.8,20.4,M,-27.6,M,,*64
2023-07-05T15:50:35.0961386Z, 6cda8203-a249-e411-b0cc-f8bc1246af59, $GPGGA,155034.00,3747.2007,N,12223.0612,W,2,12,0.8,20.4,M,-27.6,M,,*6F
2023-07-05T15:50:35.4257077Z, 6cda8203-a249-e411-b0cc-f8bc1246af59, $GPGGA,155035.00,3747.2008,N,12223.0611,W,2,12,0.8,20.4,M,-27.6,M,,*62
2023-07-05T15:50:36.7360439Z, 6cda8203-a249-e411-b0cc-f8bc1246af59, $GPGGA,155036.00,3747.2008,N,12223.0612,W,2,12,0.8,20.5,M,-27.6,M,,*63
2023-07-05T15:50:37.2458161Z, 6cda8203-a249-e411-b0cc-f8bc1246af59, $GPGGA,155037.00,3747.2008,N,12223.0612,W,2,12,0.8,20.5,M,-27.6,M,,*62
2023-07-05T15:50:38.4060047Z, 6cda8203-a249-e411-b0cc-f8bc1246af59, $GPGGA,155038.00,3747.2008,N,12223.0612,W,2,12,0.8,20.5,M,-27.6,M,,*6D
2023-07-05T15:50:40.0966789Z, 6cda8203-a249-e411-b0cc-f8bc1246af59, $GPGGA,155039.00,3747.2008,N,12223.0612,W,2,12,0.8,20.5,M,-27.6,M,,*6C
2023-07-05T15:50:40.4263017Z, 6cda8203-a249-e411-b0cc-f8bc1246af59, $GPGGA,155040.00,3747.2008,N,12223.0612,W,2,12,0.8,20.5,M,-27.6,M,,*62
2023-07-05T15:50:41.2467468Z, 6cda8203-a249-e411-b0cc-f8bc1246af59, $GPGGA,155041.00,3747.2008,N,12223.0612,W,2,12,0.8,20.5,M,-27.6,M,,*63
2023-07-05T15:50:42.2465518Z, 6cda8203-a249-e411-b0cc-f8bc1246af59, $GPGGA,155042.00,3747.2008,N,12223.0612,W,2,12,0.8,20.5,M,-27.6,M,,*60
2023-07-05T15:50:44.0965271Z, 6cda8203-a249-e411-b0cc-f8bc1246af59, $GPGGA,155043.00,3747.2009,N,12223.0611,W,2,12,0.8,20.5,M,-27.6,M,,*63
2023-07-05T15:50:44.4306959Z, 6cda8203-a249-e411-b0cc-f8bc1246af59, $GPGGA,155044.00,3747.2008,N,12223.0611,W,2,12,0.8,20.5,M,-27.6,M,,*65
2023-07-05T15:50:46.0971168Z, 6cda8203-a249-e411-b0cc-f8bc1246af59, $GPGGA,155045.00,3747.2009,N,12223.0611,W,2,12,0.8,20.6,M,-27.6,M,,*66
2023-07-05T15:50:46.4268186Z, 6cda8203-a249-e411-b0cc-f8bc1246af59, $GPGGA,155046.00,3747.2009,N,12223.0612,W,2,12,0.8,20.6,M,-27.6,M,,*66
2023-07-05T15:50:47.2472583Z, 6cda8203-a249-e411-b0cc-f8bc1246af59, $GPGGA,155047.00,3747.2009,N,12223.0612,W,2,12,0.8,20.6,M,-27.6,M,,*67
2023-07-05T15:50:48.9167680Z, 6cda8203-a249-e411-b0cc-f8bc1246af59, $GPGGA,155048.00,3747.2009,N,12223.0612,W,2,12,0.8,20.6,M,-27.6,M,,*68
2023-07-05T15:50:49.2473395Z, 6cda8203-a249-e411-b0cc-f8bc1246af59, $GPGGA,155049.00,3747.2009,N,12223.0611,W,2,12,0.8,20.6,M,-27.6,M,,*6A
2023-07-05T15:50:51.0973898Z, 6cda8203-a249-e411-b0cc-f8bc1246af59, $GPGGA,155050.00,3747.2009,N,12223.0612,W,2,12,0.8,20.6,M,-27.6,M,,*61
2023-07-05T15:50:51.4667648Z, 6cda8203-a249-e411-b0cc-f8bc1246af59, $GPGGA,155051.00,3747.2009,N,12223.0611,W,2,12,0.8,20.6,M,-27.6,M,,*63
2023-07-05T15:50:52.2473825Z, 6cda8203-a249-e411-b0cc-f8bc1246af59, $GPGGA,155052.00,3747.2009,N,12223.0611,W,2,12,0.8,20.6,M,-27.6,M,,*60
2023-07-05T15:50:54.0969376Z, 6cda8203-a249-e411-b0cc-f8bc1246af59, $GPGGA,155053.00,3747.2009,N,12223.0611,W,2,12,0.8,20.6,M,-27.6,M,,*61
2023-07-05T15:50:54.4274843Z, 6cda8203-a249-e411-b0cc-f8bc1246af59, $GPGGA,155054.00,3747.2009,N,12223.0611,W,2,12,0.8,20.6,M,-27.6,M,,*66
2023-07-05T15:50:56.0974350Z, 6cda8203-a249-e411-b0cc-f8bc1246af59, $GPGGA,155055.00,3747.2009,N,12223.0611,W,2,12,0.8,20.6,M,-27.6,M,,*67
2023-07-05T15:50:56.4280127Z, 6cda8203-a249-e411-b0cc-f8bc1246af59, $GPGGA,155056.00,3747.2009,N,12223.0610,W,2,12,0.8,20.6,M,-27.6,M,,*65
2023-07-05T15:50:57.2578232Z, 6cda8203-a249-e411-b0cc-f8bc1246af59, $GPGGA,155057.00,3747.2009,N,12223.0610,W,2,12,0.8,20.6,M,-27.6,M,,*64
2023-07-05T15:50:58.4178222Z, 6cda8203-a249-e411-b0cc-f8bc1246af59, $GPGGA,155058.00,3747.2009,N,12223.0610,W,2,12,0.8,20.6,M,-27.6,M,,*6B
2023-07-05T15:50:59.2581500Z, 6cda8203-a249-e411-b0cc-f8bc1246af59, $GPGGA,155059.00,3747.2009,N,12223.0610,W,2,12,0.8,20.6,M,-27.6,M,,*6A
2023-07-05T15:51:01.2574981Z, 6cda8203-a249-e411-b0cc-f8bc1246af59, $GPGGA,155100.00,3747.2009,N,12223.0610,W,2,12,0.8,20.6,M,-27.6,M,,*67
2023-07-05T15:51:01.6577450Z, 6cda8203-a249-e411-b0cc-f8bc1246af59, $GPGGA,155101.00,3747.2009,N,12223.0610,W,2,12,0.8,20.6,M,-27.6,M,,*66
2023-07-05T15:51:02.2581735Z, 6cda8203-a249-e411-b0cc-f8bc1246af59, $GPGGA,155102.00,3747.2009,N,12223.0610,W,2,12,0.8,20.6,M,-27.6,M,,*65
2023-07-05T15:51:03.4181393Z, 6cda8203-a249-e411-b0cc-f8bc1246af59, $GPGGA,155103.00,3747.2009,N,12223.0610,W,2,12,0.8,20.6,M,-27.6,M,,*64
2023-07-05T15:51:04.2585021Z, 6cda8203-a249-e411-b0cc-f8bc1246af59, $GPGGA,155104.00,3747.2010,N,12223.0610,W,2,12,0.8,20.6,M,-27.6,M,,*6B
2023-07-05T15:51:05.2581667Z, 6cda8203-a249-e411-b0cc-f8bc1246af59, $GPGGA,155105.00,3747.2009,N,12223.0609,W,2,12,0.8,20.6,M,-27.6,M,,*6A
2023-07-05T15:51:06.2787462Z, 6cda8203-a249-e411-b0cc-f8bc1246af59, $GPGGA,155106.00,3747.2010,N,12223.0609,W,2,12,0.8,20.6,M,-27.6,M,,*61
2023-07-05T15:51:08.0980498Z, 6cda8203-a249-e411-b0cc-f8bc1246af59, $GPGGA,155107.00,3747.2009,N,12223.0609,W,2,12,0.8,20.6,M,-27.6,M,,*68
2023-07-05T15:51:08.4286233Z, 6cda8203-a249-e411-b0cc-f8bc1246af59, $GPGGA,155108.00,3747.2010,N,12223.0609,W,2,12,0.8,20.6,M,-27.6,M,,*6F
2023-07-05T15:51:09.4282534Z, 6cda8203-a249-e411-b0cc-f8bc1246af59, $GPGGA,155109.00,3747.2010,N,12223.0609,W,2,12,0.8,20.6,M,-27.6,M,,*6E
2023-07-05T15:51:10.2586831Z, 6cda8203-a249-e411-b0cc-f8bc1246af59, $GPGGA,155110.00,3747.2010,N,12223.0609,W,2,12,0.8,20.6,M,-27.6,M,,*66
2023-07-05T15:51:11.2882139Z, 6cda8203-a249-e411-b0cc-f8bc1246af59, $GPGGA,155111.00,3747.2010,N,12223.0609,W,2,12,0.8,20.6,M,-27.6,M,,*67
2023-07-05T15:51:12.2585434Z, 6cda8203-a249-e411-b0cc-f8bc1246af59, $GPGGA,155112.00,3747.2010,N,12223.0609,W,2,12,0.8,20.6,M,-27.6,M,,*64
2023-07-05T15:51:13.2583964Z, 6cda8203-a249-e411-b0cc-f8bc1246af59, $GPGGA,155113.00,3747.2010,N,12223.0609,W,2,12,0.8,20.5,M,-27.6,M,,*66
2023-07-05T15:51:14.9293353Z, 6cda8203-a249-e411-b0cc-f8bc1246af59, $GPGGA,155114.00,3747.2010,N,12223.0609,W,2,12,0.8,20.5,M,-27.6,M,,*61
2023-07-05T15:51:16.0992508Z, 6cda8203-a249-e411-b0cc-f8bc1246af59, $GPGGA,155115.00,3747.2011,N,12223.0609,W,2,12,0.8,20.5,M,-27.6,M,,*61
2023-07-05T15:51:16.4288058Z, 6cda8203-a249-e411-b0cc-f8bc1246af59, $GPGGA,155116.00,3747.2011,N,12223.0609,W,2,12,0.8,20.5,M,-27.6,M,,*62
2023-07-05T15:51:17.2592119Z, 6cda8203-a249-e411-b0cc-f8bc1246af59, $GPGGA,155117.00,3747.2011,N,12223.0609,W,2,12,0.8,20.5,M,-27.6,M,,*63
2023-07-05T15:51:18.2588871Z, 6cda8203-a249-e411-b0cc-f8bc1246af59, $GPGGA,155118.00,3747.2011,N,12223.0609,W,2,12,0.8,20.5,M,-27.6,M,,*6C
2023-07-05T15:51:19.4288770Z, 6cda8203-a249-e411-b0cc-f8bc1246af59, $GPGGA,155119.00,3747.2012,N,12223.0609,W,2,12,0.8,20.5,M,-27.6,M,,*6E
2023-07-05T15:51:21.2395312Z, 6cda8203-a249-e411-b0cc-f8bc1246af59, $GPGGA,155120.00,3747.2011,N,12223.0609,W,2,12,0.8,20.5,M,-27.6,M,,*67
2023-07-05T15:51:21.4695127Z, 6cda8203-a249-e411-b0cc-f8bc1246af59, $GPGGA,155121.00,3747.2012,N,12223.0609,W,2,12,0.8,20.5,M,-27.6,M,,*65
2023-07-05T15:51:22.2790215Z, 6cda8203-a249-e411-b0cc-f8bc1246af59, $GPGGA,155122.00,3747.2012,N,12223.0609,W,2,12,0.8,20.5,M,-27.6,M,,*66
2023-07-05T15:51:23.2697057Z, 6cda8203-a249-e411-b0cc-f8bc1246af59, $GPGGA,155123.00,3747.2012,N,12223.0609,W,2,12,0.8,20.5,M,-27.6,M,,*67
2023-07-05T15:51:24.4794845Z, 6cda8203-a249-e411-b0cc-f8bc1246af59, $GPGGA,155124.00,3747.2012,N,12223.0609,W,2,12,0.8,20.5,M,-27.6,M,,*60
2023-07-05T15:51:25.2803233Z, 6cda8203-a249-e411-b0cc-f8bc1246af59, $GPGGA,155125.00,3747.2012,N,12223.0609,W,2,12,0.8,20.5,M,-27.6,M,,*61
2023-07-05T15:51:27.0993873Z, 6cda8203-a249-e411-b0cc-f8bc1246af59, $GPGGA,155126.00,3747.2012,N,12223.0610,W,2,12,0.8,20.5,M,-27.6,M,,*6A
2023-07-05T15:51:29.0999756Z, 6cda8203-a249-e411-b0cc-f8bc1246af59, $GPGGA,155128.00,3747.2012,N,12223.0609,W,2,12,0.8,20.5,M,-27.6,M,,*6C
2023-07-05T15:51:29.4295409Z, 6cda8203-a249-e411-b0cc-f8bc1246af59, $GPGGA,155129.00,3747.2012,N,12223.0609,W,2,12,0.8,20.5,M,-27.6,M,,*6D
2023-07-05T15:51:31.1002999Z, 6cda8203-a249-e411-b0cc-f8bc1246af59, $GPGGA,155130.00,3747.2012,N,12223.0609,W,2,12,0.8,20.4,M,-27.6,M,,*64
2023-07-05T15:51:31.4298659Z, 6cda8203-a249-e411-b0cc-f8bc1246af59, $GPGGA,155131.00,3747.2012,N,12223.0609,W,2,12,0.8,20.4,M,-27.6,M,,*65
2023-07-05T15:51:33.1897144Z, 6cda8203-a249-e411-b0cc-f8bc1246af59, $GPGGA,155132.00,3747.2012,N,12223.0609,W,2,12,0.8,20.4,M,-27.6,M,,*66
2023-07-05T15:51:33.6797870Z, 6cda8203-a249-e411-b0cc-f8bc1246af59, $GPGGA,155133.00,3747.2012,N,12223.0609,W,2,12,0.8,20.4,M,-27.6,M,,*67
2023-07-05T15:51:35.1001251Z, 6cda8203-a249-e411-b0cc-f8bc1246af59, $GPGGA,155134.00,3747.2012,N,12223.0609,W,2,12,0.8,20.4,M,-27.6,M,,*60
2023-07-05T15:51:35.4306917Z, 6cda8203-a249-e411-b0cc-f8bc1246af59, $GPGGA,155135.00,3747.2012,N,12223.0609,W,2,12,0.8,20.4,M,-27.6,M,,*61
2023-07-05T15:51:37.1001791Z, 6cda8203-a249-e411-b0cc-f8bc1246af59, $GPGGA,155136.00,3747.2012,N,12223.0609,W,2,12,0.8,20.3,M,-27.6,M,,*65
2023-07-05T15:51:37.4307225Z, 6cda8203-a249-e411-b0cc-f8bc1246af59, $GPGGA,155137.00,3747.2012,N,12223.0609,W,2,12,0.8,20.3,M,-27.6,M,,*64
2023-07-05T15:51:39.1010139Z, 6cda8203-a249-e411-b0cc-f8bc1246af59, $GPGGA,155138.00,3747.2012,N,12223.0609,W,2,12,0.8,20.3,M,-27.6,M,,*6B
2023-07-05T15:51:39.4305746Z, 6cda8203-a249-e411-b0cc-f8bc1246af59, $GPGGA,155139.00,3747.2012,N,12223.0610,W,2,12,0.8,20.3,M,-27.6,M,,*62
2023-07-05T15:51:40.7707645Z, 6cda8203-a249-e411-b0cc-f8bc1246af59, $GPGGA,155140.00,3747.2012,N,12223.0609,W,2,12,0.8,20.3,M,-27.6,M,,*64
2023-07-05T15:51:42.1009961Z, 6cda8203-a249-e411-b0cc-f8bc1246af59, $GPGGA,155141.00,3747.2012,N,12223.0610,W,2,12,0.8,20.2,M,-27.6,M,,*6C
2023-07-05T15:51:42.4305752Z, 6cda8203-a249-e411-b0cc-f8bc1246af59, $GPGGA,155142.00,3747.2012,N,12223.0609,W,2,12,0.8,20.2,M,-27.6,M,,*67
2023-07-05T15:51:44.1013402Z, 6cda8203-a249-e411-b0cc-f8bc1246af59, $GPGGA,155143.00,3747.2012,N,12223.0609,W,2,12,0.8,20.2,M,-27.6,M,,*66
2023-07-05T15:51:44.4308671Z, 6cda8203-a249-e411-b0cc-f8bc1246af59, $GPGGA,155144.00,3747.2012,N,12223.0609,W,2,12,0.8,20.1,M,-27.6,M,,*62
2023-07-05T15:51:46.1012968Z, 6cda8203-a249-e411-b0cc-f8bc1246af59, $GPGGA,155145.00,3747.2012,N,12223.0610,W,2,12,0.8,20.1,M,-27.6,M,,*6B
2023-07-05T15:51:46.4308569Z, 6cda8203-a249-e411-b0cc-f8bc1246af59, $GPGGA,155146.00,3747.2013,N,12223.0610,W,2,12,0.8,20.1,M,-27.6,M,,*69
2023-07-05T15:51:48.1016189Z, 6cda8203-a249-e411-b0cc-f8bc1246af59, $GPGGA,155147.00,3747.2013,N,12223.0610,W,2,12,0.8,20.0,M,-27.6,M,,*69
2023-07-05T15:51:48.4311707Z, 6cda8203-a249-e411-b0cc-f8bc1246af59, $GPGGA,155148.00,3747.2013,N,12223.0610,W,2,12,0.8,20.0,M,-27.6,M,,*66
2023-07-05T15:51:50.0921040Z, 6cda8203-a249-e411-b0cc-f8bc1246af59, $GPGGA,155149.00,3747.2013,N,12223.0610,W,2,12,0.8,20.0,M,-27.6,M,,*67
2023-07-05T15:51:50.8079963Z, 6cda8203-a249-e411-b0cc-f8bc1246af59, $GPGGA,155150.00,3747.2013,N,12223.0610,W,2,12,0.8,20.0,M,-27.6,M,,*6F
2023-07-05T15:51:52.0875961Z, 6cda8203-a249-e411-b0cc-f8bc1246af59, $GPGGA,155151.00,3747.2013,N,12223.0610,W,2,12,0.8,20.0,M,-27.6,M,,*6E
2023-07-05T15:51:52.4171685Z, 6cda8203-a249-e411-b0cc-f8bc1246af59, $GPGGA,155152.00,3747.2013,N,12223.0610,W,2,12,0.8,20.0,M,-27.6,M,,*6D
2023-07-05T15:51:54.0881790Z, 6cda8203-a249-e411-b0cc-f8bc1246af59, $GPGGA,155153.00,3747.2014,N,12223.0610,W,2,12,0.8,19.9,M,-27.6,M,,*68
2023-07-05T15:51:54.4176988Z, 6cda8203-a249-e411-b0cc-f8bc1246af59, $GPGGA,155154.00,3747.2013,N,12223.0610,W,2,12,0.8,19.9,M,-27.6,M,,*68
2023-07-05T15:51:55.7675011Z, 6cda8203-a249-e411-b0cc-f8bc1246af59, $GPGGA,155155.00,3747.2014,N,12223.0610,W,2,12,0.8,19.9,M,-27.6,M,,*6E
2023-07-05T15:51:57.0878112Z, 6cda8203-a249-e411-b0cc-f8bc1246af59, $GPGGA,155156.00,3747.2014,N,12223.0610,W,2,12,0.8,19.9,M,-27.6,M,,*6D
2023-07-05T15:51:57.4183580Z, 6cda8203-a249-e411-b0cc-f8bc1246af59, $GPGGA,155157.00,3747.2014,N,12223.0610,W,2,12,0.8,19.9,M,-27.6,M,,*6C
2023-07-05T15:51:59.0881349Z, 6cda8203-a249-e411-b0cc-f8bc1246af59, $GPGGA,155158.00,3747.2014,N,12223.0610,W,2,12,0.8,19.8,M,-27.6,M,,*62
2023-07-05T15:51:59.4176950Z, 6cda8203-a249-e411-b0cc-f8bc1246af59, $GPGGA,155159.00,3747.2014,N,12223.0610,W,2,12,0.8,19.8,M,-27.6,M,,*63
2023-07-05T15:52:01.0885770Z, 6cda8203-a249-e411-b0cc-f8bc1246af59, $GPGGA,155200.00,3747.2014,N,12223.0610,W,2,12,0.8,19.8,M,-27.6,M,,*6C
2023-07-05T15:52:01.4181243Z, 6cda8203-a249-e411-b0cc-f8bc1246af59, $GPGGA,155201.00,3747.2014,N,12223.0611,W,2,12,0.8,19.8,M,-27.6,M,,*6C
2023-07-05T15:52:03.0879258Z, 6cda8203-a249-e411-b0cc-f8bc1246af59, $GPGGA,155202.00,3747.2015,N,12223.0611,W,2,12,0.8,19.8,M,-27.6,M,,*6E
2023-07-05T15:52:03.4184529Z, 6cda8203-a249-e411-b0cc-f8bc1246af59, $GPGGA,155203.00,3747.2015,N,12223.0611,W,2,12,0.8,19.8,M,-27.6,M,,*6F
2023-07-05T15:52:04.3683589Z, 6cda8203-a249-e411-b0cc-f8bc1246af59, $GPGGA,155204.00,3747.2015,N,12223.0611,W,2,12,0.8,19.8,M,-27.6,M,,*68
2023-07-05T15:52:06.1187689Z, 6cda8203-a249-e411-b0cc-f8bc1246af59, $GPGGA,155205.00,3747.2016,N,12223.0611,W,2,12,0.8,19.8,M,-27.6,M,,*6A
2023-07-05T15:52:06.4483453Z, 6cda8203-a249-e411-b0cc-f8bc1246af59, $GPGGA,155206.00,3747.2016,N,12223.0611,W,2,12,0.8,19.8,M,-27.6,M,,*69
2023-07-05T15:52:07.8891142Z, 6cda8203-a249-e411-b0cc-f8bc1246af59, $GPGGA,155207.00,3747.2016,N,12223.0612,W,2,12,0.8,19.8,M,-27.6,M,,*6B
2023-07-05T15:52:09.1188871Z, 6cda8203-a249-e411-b0cc-f8bc1246af59, $GPGGA,155208.00,3747.2017,N,12223.0611,W,2,12,0.8,19.8,M,-27.6,M,,*66
2023-07-05T15:52:09.4484422Z, 6cda8203-a249-e411-b0cc-f8bc1246af59, $GPGGA,155209.00,3747.2017,N,12223.0612,W,2,12,0.8,19.8,M,-27.6,M,,*64
2023-07-05T15:52:10.7687265Z, 6cda8203-a249-e411-b0cc-f8bc1246af59, $GPGGA,155210.00,3747.2017,N,12223.0612,W,2,12,0.8,19.8,M,-27.6,M,,*6C
2023-07-05T15:52:12.0890010Z, 6cda8203-a249-e411-b0cc-f8bc1246af59, $GPGGA,155211.00,3747.2017,N,12223.0612,W,2,12,0.8,19.8,M,-27.6,M,,*6D
2023-07-05T15:52:12.4185783Z, 6cda8203-a249-e411-b0cc-f8bc1246af59, $GPGGA,155212.00,3747.2018,N,12223.0612,W,2,12,0.8,19.8,M,-27.6,M,,*61
2023-07-05T15:52:14.0893412Z, 6cda8203-a249-e411-b0cc-f8bc1246af59, $GPGGA,155213.00,3747.2018,N,12223.0612,W,2,12,0.8,19.8,M,-27.6,M,,*60
2023-07-05T15:52:14.4188635Z, 6cda8203-a249-e411-b0cc-f8bc1246af59, $GPGGA,155214.00,3747.2018,N,12223.0612,W,2,12,0.8,19.8,M,-27.6,M,,*67
2023-07-05T15:52:16.0887898Z, 6cda8203-a249-e411-b0cc-f8bc1246af59, $GPGGA,155215.00,3747.2018,N,12223.0612,W,2,12,0.8,19.7,M,-27.6,M,,*69
2023-07-05T15:52:16.4193170Z, 6cda8203-a249-e411-b0cc-f8bc1246af59, $GPGGA,155216.00,3747.2019,N,12223.0612,W,2,12,0.8,19.7,M,-27.6,M,,*6B
2023-07-05T15:52:17.7694991Z, 6cda8203-a249-e411-b0cc-f8bc1246af59, $GPGGA,155217.00,3747.2019,N,12223.0612,W,2,12,0.8,19.7,M,-27.6,M,,*6A
2023-07-05T15:52:19.0893759Z, 6cda8203-a249-e411-b0cc-f8bc1246af59, $GPGGA,155218.00,3747.2019,N,12223.0612,W,2,12,0.8,19.6,M,-27.6,M,,*64
2023-07-05T15:52:19.4195075Z, 6cda8203-a249-e411-b0cc-f8bc1246af59, $GPGGA,155219.00,3747.2019,N,12223.0612,W,2,12,0.8,19.6,M,-27.6,M,,*65
2023-07-05T15:52:20.7798574Z, 6cda8203-a249-e411-b0cc-f8bc1246af59, $GPGGA,155220.00,3747.2020,N,12223.0612,W,2,12,0.8,19.6,M,-27.6,M,,*65
2023-07-05T15:52:22.0892881Z, 6cda8203-a249-e411-b0cc-f8bc1246af59, $GPGGA,155221.00,3747.2020,N,12223.0612,W,2,12,0.8,19.6,M,-27.6,M,,*64
2023-07-05T15:52:22.4214298Z, 6cda8203-a249-e411-b0cc-f8bc1246af59, $GPGGA,155222.00,3747.2020,N,12223.0612,W,2,12,0.8,19.5,M,-27.6,M,,*64
2023-07-05T15:52:23.7801400Z, 6cda8203-a249-e411-b0cc-f8bc1246af59, $GPGGA,155223.00,3747.2020,N,12223.0612,W,2,12,0.8,19.5,M,-27.6,M,,*65
2023-07-05T15:52:25.0894761Z, 6cda8203-a249-e411-b0cc-f8bc1246af59, $GPGGA,155224.00,3747.2020,N,12223.0612,W,2,12,0.8,19.5,M,-27.6,M,,*62
2023-07-05T15:52:25.4200205Z, 6cda8203-a249-e411-b0cc-f8bc1246af59, $GPGGA,155225.00,3747.2020,N,12223.0612,W,2,12,0.8,19.5,M,-27.6,M,,*63
2023-07-05T15:52:27.0897992Z, 6cda8203-a249-e411-b0cc-f8bc1246af59, $GPGGA,155226.00,3747.2021,N,12223.0612,W,2,12,0.8,19.5,M,-27.6,M,,*61
2023-07-05T15:52:27.4203479Z, 6cda8203-a249-e411-b0cc-f8bc1246af59, $GPGGA,155227.00,3747.2021,N,12223.0612,W,2,12,0.8,19.4,M,-27.6,M,,*61
2023-07-05T15:52:29.0901491Z, 6cda8203-a249-e411-b0cc-f8bc1246af59, $GPGGA,155228.00,3747.2021,N,12223.0612,W,2,12,0.8,19.4,M,-27.6,M,,*6E
2023-07-05T15:52:29.4196876Z, 6cda8203-a249-e411-b0cc-f8bc1246af59, $GPGGA,155229.00,3747.2021,N,12223.0611,W,2,12,0.8,19.4,M,-27.6,M,,*6C
2023-07-05T15:52:30.7301401Z, 6cda8203-a249-e411-b0cc-f8bc1246af59, $GPGGA,155230.00,3747.2021,N,12223.0612,W,2,12,0.8,19.4,M,-27.6,M,,*67
2023-07-05T15:52:31.3305111Z, 6cda8203-a249-e411-b0cc-f8bc1246af59, $GPGGA,155231.00,3747.2021,N,12223.0612,W,2,12,0.8,19.4,M,-27.6,M,,*66
2023-07-05T15:52:32.3700806Z, 6cda8203-a249-e411-b0cc-f8bc1246af59, $GPGGA,155232.00,3747.2021,N,12223.0612,W,2,12,0.8,19.3,M,-27.6,M,,*62
2023-07-05T15:52:33.7303131Z, 6cda8203-a249-e411-b0cc-f8bc1246af59, $GPGGA,155233.00,3747.2022,N,12223.0612,W,2,12,0.8,19.3,M,-27.6,M,,*60
2023-07-05T15:52:35.0904146Z, 6cda8203-a249-e411-b0cc-f8bc1246af59, $GPGGA,155234.00,3747.2022,N,12223.0612,W,2,12,0.8,19.3,M,-27.6,M,,*67
2023-07-05T15:52:35.4209649Z, 6cda8203-a249-e411-b0cc-f8bc1246af59, $GPGGA,155235.00,3747.2022,N,12223.0612,W,2,12,0.8,19.3,M,-27.6,M,,*66
2023-07-05T15:52:36.7810983Z, 6cda8203-a249-e411-b0cc-f8bc1246af59, $GPGGA,155236.00,3747.2022,N,12223.0612,W,2,12,0.8,19.2,M,-27.6,M,,*64
2023-07-05T15:52:38.2510926Z, 6cda8203-a249-e411-b0cc-f8bc1246af59, $GPGGA,155237.00,3747.2022,N,12223.0612,W,2,12,0.8,19.2,M,-27.6,M,,*65
2023-07-05T15:52:38.6406239Z, 6cda8203-a249-e411-b0cc-f8bc1246af59, $GPGGA,155238.00,3747.2022,N,12223.0612,W,2,12,0.8,19.2,M,-27.6,M,,*6A
2023-07-05T15:52:39.7807013Z, 6cda8203-a249-e411-b0cc-f8bc1246af59, $GPGGA,155239.00,3747.2023,N,12223.0612,W,2,12,0.8,19.2,M,-27.6,M,,*6A
2023-07-05T15:52:40.4612637Z, 6cda8203-a249-e411-b0cc-f8bc1246af59, $GPGGA,155240.00,3747.2022,N,12223.0612,W,2,12,0.8,19.2,M,-27.6,M,,*65
2023-07-05T15:52:42.1411071Z, 6cda8203-a249-e411-b0cc-f8bc1246af59, $GPGGA,155241.00,3747.2023,N,12223.0612,W,2,12,0.8,19.1,M,-27.6,M,,*66
2023-07-05T15:52:42.4706795Z, 6cda8203-a249-e411-b0cc-f8bc1246af59, $GPGGA,155242.00,3747.2022,N,12223.0612,W,2,12,0.8,19.1,M,-27.6,M,,*64
2023-07-05T15:52:43.4016605Z, 6cda8203-a249-e411-b0cc-f8bc1246af59, $GPGGA,155243.00,3747.2023,N,12223.0611,W,2,12,0.8,19.1,M,-27.6,M,,*67
2023-07-05T15:52:45.1413008Z, 6cda8203-a249-e411-b0cc-f8bc1246af59, $GPGGA,155244.00,3747.2023,N,12223.0612,W,2,12,0.8,19.1,M,-27.6,M,,*63
2023-07-05T15:52:45.4708845Z, 6cda8203-a249-e411-b0cc-f8bc1246af59, $GPGGA,155245.00,3747.2023,N,12223.0611,W,2,12,0.8,19.1,M,-27.6,M,,*61
2023-07-05T15:52:46.7813135Z, 6cda8203-a249-e411-b0cc-f8bc1246af59, $GPGGA,155246.00,3747.2023,N,12223.0612,W,2,12,0.8,19.0,M,-27.6,M,,*60
2023-07-05T15:52:48.0915908Z, 6cda8203-a249-e411-b0cc-f8bc1246af59, $GPGGA,155247.00,3747.2023,N,12223.0612,W,2,11,0.8,19.0,M,-27.6,M,,*62
2023-07-05T15:52:48.4211567Z, 6cda8203-a249-e411-b0cc-f8bc1246af59, $GPGGA,155248.00,3747.2023,N,12223.0612,W,2,12,0.8,19.0,M,-27.6,M,,*6E
2023-07-05T15:52:49.7912164Z, 6cda8203-a249-e411-b0cc-f8bc1246af59, $GPGGA,155249.00,3747.2023,N,12223.0612,W,2,12,0.8,19.0,M,-27.6,M,,*6F
2023-07-05T15:52:50.7819602Z, 6cda8203-a249-e411-b0cc-f8bc1246af59, $GPGGA,155250.00,3747.2023,N,12223.0612,W,2,11,0.8,19.0,M,-27.6,M,,*64
2023-07-05T15:52:51.2818803Z, 6cda8203-a249-e411-b0cc-f8bc1246af59, $GPGGA,155251.00,3747.2023,N,12223.0611,W,2,12,0.8,19.0,M,-27.6,M,,*65
2023-07-05T15:52:52.7913419Z, 6cda8203-a249-e411-b0cc-f8bc1246af59, $GPGGA,155252.00,3747.2025,N,12223.0611,W,2,12,0.8,19.0,M,-27.6,M,,*60
2023-07-05T15:52:53.4714375Z, 6cda8203-a249-e411-b0cc-f8bc1246af59, $GPGGA,155253.00,3747.2026,N,12223.0612,W,2,12,0.8,19.0,M,-27.6,M,,*61
2023-07-05T15:52:55.1419801Z, 6cda8203-a249-e411-b0cc-f8bc1246af59, $GPGGA,155254.00,3747.2026,N,12223.0611,W,2,12,0.8,19.0,M,-27.6,M,,*65
2023-07-05T15:52:55.4715425Z, 6cda8203-a249-e411-b0cc-f8bc1246af59, $GPGGA,155255.00,3747.2027,N,12223.0611,W,2,12,0.8,19.0,M,-27.6,M,,*65
2023-07-05T15:52:56.2621085Z, 6cda8203-a249-e411-b0cc-f8bc1246af59, $GPGGA,155256.00,3747.2028,N,12223.0612,W,2,12,0.8,19.0,M,-27.6,M,,*6A
2023-07-05T15:52:57.7924825Z, 6cda8203-a249-e411-b0cc-f8bc1246af59, $GPGGA,155257.00,3747.2028,N,12223.0612,W,2,12,0.8,19.0,M,-27.6,M,,*6B
2023-07-05T15:52:59.0925619Z, 6cda8203-a249-e411-b0cc-f8bc1246af59, $GPGGA,155258.00,3747.2029,N,12223.0612,W,2,12,0.8,19.0,M,-27.6,M,,*65
2023-07-05T15:52:59.4221016Z, 6cda8203-a249-e411-b0cc-f8bc1246af59, $GPGGA,155259.00,3747.2029,N,12223.0613,W,2,12,0.8,19.0,M,-27.6,M,,*65
2023-07-05T15:53:00.7921847Z, 6cda8203-a249-e411-b0cc-f8bc1246af59, $GPGGA,155300.00,3747.2030,N,12223.0614,W,2,12,0.8,19.0,M,-27.6,M,,*67
2023-07-05T15:53:01.4722428Z, 6cda8203-a249-e411-b0cc-f8bc1246af59, $GPGGA,155301.00,3747.2030,N,12223.0615,W,2,12,0.8,19.0,M,-27.6,M,,*67
2023-07-05T15:53:03.3222182Z, 6cda8203-a249-e411-b0cc-f8bc1246af59, $GPGGA,155302.00,3747.2031,N,12223.0616,W,2,12,0.8,18.9,M,-27.6,M,,*6E
2023-07-05T15:53:03.7025550Z, 6cda8203-a249-e411-b0cc-f8bc1246af59, $GPGGA,155303.00,3747.2032,N,12223.0616,W,2,12,0.8,18.9,M,-27.6,M,,*6C
2023-07-05T15:53:04.4124999Z, 6cda8203-a249-e411-b0cc-f8bc1246af59, $GPGGA,155304.00,3747.2032,N,12223.0617,W,2,12,0.8,18.9,M,-27.6,M,,*6A
2023-07-05T15:53:06.1527632Z, 6cda8203-a249-e411-b0cc-f8bc1246af59, $GPGGA,155305.00,3747.2032,N,12223.0618,W,2,12,0.8,18.8,M,-27.6,M,,*65
2023-07-05T15:53:06.4823608Z, 6cda8203-a249-e411-b0cc-f8bc1246af59, $GPGGA,155306.00,3747.2033,N,12223.0619,W,2,12,0.8,18.8,M,-27.6,M,,*66
2023-07-05T15:53:07.7926655Z, 6cda8203-a249-e411-b0cc-f8bc1246af59, $GPGGA,155307.00,3747.2033,N,12223.0620,W,2,12,0.8,18.8,M,-27.6,M,,*6D
2023-07-05T15:53:08.4830067Z, 6cda8203-a249-e411-b0cc-f8bc1246af59, $GPGGA,155308.00,3747.2034,N,12223.0621,W,2,12,0.8,18.8,M,-27.6,M,,*64
2023-07-05T15:53:09.9226396Z, 6cda8203-a249-e411-b0cc-f8bc1246af59, $GPGGA,155309.00,3747.2034,N,12223.0622,W,2,12,0.8,18.7,M,-27.6,M,,*69
2023-07-05T15:53:11.0928081Z, 6cda8203-a249-e411-b0cc-f8bc1246af59, $GPGGA,155310.00,3747.2035,N,12223.0623,W,2,12,0.8,18.7,M,-27.6,M,,*61
2023-07-05T15:53:11.4233820Z, 6cda8203-a249-e411-b0cc-f8bc1246af59, $GPGGA,155311.00,3747.2034,N,12223.0623,W,2,12,0.8,18.7,M,-27.6,M,,*61
2023-07-05T15:53:12.7935715Z, 6cda8203-a249-e411-b0cc-f8bc1246af59, $GPGGA,155312.00,3747.2034,N,12223.0624,W,2,12,0.8,18.7,M,-27.6,M,,*65
2023-07-05T15:53:13.4837349Z, 6cda8203-a249-e411-b0cc-f8bc1246af59, $GPGGA,155313.00,3747.2034,N,12223.0624,W,2,12,0.8,18.7,M,-27.6,M,,*64
2023-07-05T15:53:14.7531739Z, 6cda8203-a249-e411-b0cc-f8bc1246af59, $GPGGA,155314.00,3747.2035,N,12223.0624,W,2,12,0.8,18.7,M,-27.6,M,,*62
2023-07-05T15:53:15.9537012Z, 6cda8203-a249-e411-b0cc-f8bc1246af59, $GPGGA,155315.00,3747.2035,N,12223.0625,W,2,12,0.8,18.6,M,-27.6,M,,*63
2023-07-05T15:53:16.6536398Z, 6cda8203-a249-e411-b0cc-f8bc1246af59, $GPGGA,155316.00,3747.2035,N,12223.0625,W,2,12,0.8,18.6,M,-27.6,M,,*60
2023-07-05T15:53:18.1531681Z, 6cda8203-a249-e411-b0cc-f8bc1246af59, $GPGGA,155317.00,3747.2035,N,12223.0625,W,2,12,0.8,18.6,M,-27.6,M,,*61
2023-07-05T15:53:18.4837269Z, 6cda8203-a249-e411-b0cc-f8bc1246af59, $GPGGA,155318.00,3747.2036,N,12223.0625,W,2,12,0.8,18.6,M,-27.6,M,,*6D
2023-07-05T15:53:19.7540563Z, 6cda8203-a249-e411-b0cc-f8bc1246af59, $GPGGA,155319.00,3747.2036,N,12223.0625,W,2,12,0.8,18.6,M,-27.6,M,,*6C
2023-07-05T15:53:20.3534217Z, 6cda8203-a249-e411-b0cc-f8bc1246af59, $GPGGA,155320.00,3747.2036,N,12223.0625,W,2,12,0.8,18.6,M,-27.6,M,,*66
2023-07-05T15:53:21.4536865Z, 6cda8203-a249-e411-b0cc-f8bc1246af59, $GPGGA,155321.00,3747.2036,N,12223.0624,W,2,12,0.8,18.6,M,-27.6,M,,*66
2023-07-05T15:53:23.1536642Z, 6cda8203-a249-e411-b0cc-f8bc1246af59, $GPGGA,155322.00,3747.2036,N,12223.0624,W,2,12,0.8,18.6,M,-27.6,M,,*65
2023-07-05T15:53:23.4842338Z, 6cda8203-a249-e411-b0cc-f8bc1246af59, $GPGGA,155323.00,3747.2035,N,12223.0624,W,2,12,0.8,18.6,M,-27.6,M,,*67
2023-07-05T15:53:24.7541629Z, 6cda8203-a249-e411-b0cc-f8bc1246af59, $GPGGA,155324.00,3747.2036,N,12223.0624,W,2,12,0.8,18.7,M,-27.6,M,,*62
2023-07-05T15:53:25.3545394Z, 6cda8203-a249-e411-b0cc-f8bc1246af59, $GPGGA,155325.00,3747.2035,N,12223.0624,W,2,12,0.8,18.7,M,-27.6,M,,*60
2023-07-05T15:53:26.4240207Z, 6cda8203-a249-e411-b0cc-f8bc1246af59, $GPGGA,155326.00,3747.2036,N,12223.0623,W,2,12,0.8,18.7,M,-27.6,M,,*67
2023-07-05T15:53:28.1644595Z, 6cda8203-a249-e411-b0cc-f8bc1246af59, $GPGGA,155327.00,3747.2035,N,12223.0623,W,2,12,0.8,18.7,M,-27.6,M,,*65
2023-07-05T15:53:28.4940189Z, 6cda8203-a249-e411-b0cc-f8bc1246af59, $GPGGA,155328.00,3747.2035,N,12223.0623,W,2,12,0.8,18.7,M,-27.6,M,,*6A
2023-07-05T15:53:29.8542783Z, 6cda8203-a249-e411-b0cc-f8bc1246af59, $GPGGA,155329.00,3747.2035,N,12223.0623,W,2,12,0.8,18.7,M,-27.6,M,,*6B
2023-07-05T15:53:30.3543842Z, 6cda8203-a249-e411-b0cc-f8bc1246af59, $GPGGA,155330.00,3747.2034,N,12223.0622,W,2,12,0.8,18.7,M,-27.6,M,,*63
2023-07-05T15:53:31.3343425Z, 6cda8203-a249-e411-b0cc-f8bc1246af59, $GPGGA,155331.00,3747.2034,N,12223.0622,W,2,12,0.8,18.7,M,-27.6,M,,*62
2023-07-05T15:53:33.0941800Z, 6cda8203-a249-e411-b0cc-f8bc1246af59, $GPGGA,155332.00,3747.2034,N,12223.0621,W,2,12,0.8,18.7,M,-27.6,M,,*62
2023-07-05T15:53:33.4242931Z, 6cda8203-a249-e411-b0cc-f8bc1246af59, $GPGGA,155333.00,3747.2033,N,12223.0620,W,2,12,0.8,18.7,M,-27.6,M,,*65
2023-07-05T15:53:35.0948262Z, 6cda8203-a249-e411-b0cc-f8bc1246af59, $GPGGA,155334.00,3747.2033,N,12223.0620,W,2,12,0.8,18.7,M,-27.6,M,,*62
2023-07-05T15:53:35.7948217Z, 6cda8203-a249-e411-b0cc-f8bc1246af59, $GPGGA,155335.00,3747.2032,N,12223.0620,W,2,12,0.8,18.7,M,-27.6,M,,*62
2023-07-05T15:53:36.2649767Z, 6cda8203-a249-e411-b0cc-f8bc1246af59, $GPGGA,155336.00,3747.2032,N,12223.0620,W,2,12,0.8,18.7,M,-27.6,M,,*61
2023-07-05T15:53:38.0950166Z, 6cda8203-a249-e411-b0cc-f8bc1246af59, $GPGGA,155337.00,3747.2032,N,12223.0620,W,2,12,0.8,18.7,M,-27.6,M,,*60
2023-07-05T15:53:38.4245975Z, 6cda8203-a249-e411-b0cc-f8bc1246af59, $GPGGA,155338.00,3747.2032,N,12223.0620,W,2,12,0.8,18.7,M,-27.6,M,,*6F
2023-07-05T15:53:40.0953432Z, 6cda8203-a249-e411-b0cc-f8bc1246af59, $GPGGA,155339.00,3747.2031,N,12223.0619,W,2,12,0.8,18.7,M,-27.6,M,,*67
2023-07-05T15:53:40.4249088Z, 6cda8203-a249-e411-b0cc-f8bc1246af59, $GPGGA,155340.00,3747.2031,N,12223.0620,W,2,12,0.8,18.8,M,-27.6,M,,*6C
2023-07-05T15:53:42.0956704Z, 6cda8203-a249-e411-b0cc-f8bc1246af59, $GPGGA,155341.00,3747.2031,N,12223.0619,W,2,12,0.8,18.8,M,-27.6,M,,*67
2023-07-05T15:53:42.4252404Z, 6cda8203-a249-e411-b0cc-f8bc1246af59, $GPGGA,155342.00,3747.2031,N,12223.0620,W,2,12,0.8,18.8,M,-27.6,M,,*6E
2023-07-05T15:53:44.0950088Z, 6cda8203-a249-e411-b0cc-f8bc1246af59, $GPGGA,155343.00,3747.2031,N,12223.0620,W,2,12,0.8,18.8,M,-27.6,M,,*6F
2023-07-05T15:53:44.4255725Z, 6cda8203-a249-e411-b0cc-f8bc1246af59, $GPGGA,155344.00,3747.2031,N,12223.0619,W,2,12,0.8,18.8,M,-27.6,M,,*62
2023-07-05T15:53:46.0950867Z, 6cda8203-a249-e411-b0cc-f8bc1246af59, $GPGGA,155345.00,3747.2031,N,12223.0620,W,2,12,0.8,18.8,M,-27.6,M,,*69
2023-07-05T15:53:46.4252485Z, 6cda8203-a249-e411-b0cc-f8bc1246af59, $GPGGA,155346.00,3747.2030,N,12223.0620,W,2,12,0.8,18.8,M,-27.6,M,,*6B
2023-07-05T15:53:48.0955514Z, 6cda8203-a249-e411-b0cc-f8bc1246af59, $GPGGA,155347.00,3747.2030,N,12223.0619,W,2,12,0.8,18.8,M,-27.6,M,,*60
2023-07-05T15:53:48.4161967Z, 6cda8203-a249-e411-b0cc-f8bc1246af59, $GPGGA,155348.00,3747.2029,N,12223.0618,W,2,12,0.8,18.8,M,-27.6,M,,*66
2023-07-05T15:53:49.3760284Z, 6cda8203-a249-e411-b0cc-f8bc1246af59, $GPGGA,155349.00,3747.2029,N,12223.0616,W,2,12,0.8,18.8,M,-27.6,M,,*69
2023-07-05T15:53:51.0962038Z, 6cda8203-a249-e411-b0cc-f8bc1246af59, $GPGGA,155350.00,3747.2028,N,12223.0616,W,2,12,0.8,18.9,M,-27.6,M,,*61
2023-07-05T15:53:51.4556598Z, 6cda8203-a249-e411-b0cc-f8bc1246af59, $GPGGA,155351.00,3747.2028,N,12223.0616,W,2,12,0.8,18.9,M,-27.6,M,,*60
2023-07-05T15:53:53.0956620Z, 6cda8203-a249-e411-b0cc-f8bc1246af59, $GPGGA,155352.00,3747.2027,N,12223.0615,W,2,12,0.8,18.9,M,-27.6,M,,*6F
2023-07-05T15:53:53.4263083Z, 6cda8203-a249-e411-b0cc-f8bc1246af59, $GPGGA,155353.00,3747.2027,N,12223.0615,W,2,12,0.8,18.9,M,-27.6,M,,*6E
2023-07-05T15:53:55.0960702Z, 6cda8203-a249-e411-b0cc-f8bc1246af59, $GPGGA,155354.00,3747.2026,N,12223.0614,W,2,12,0.8,18.9,M,-27.6,M,,*69
2023-07-05T15:53:55.4167174Z, 6cda8203-a249-e411-b0cc-f8bc1246af59, $GPGGA,155355.00,3747.2026,N,12223.0613,W,2,12,0.8,18.9,M,-27.6,M,,*6F
2023-07-05T15:53:57.0959398Z, 6cda8203-a249-e411-b0cc-f8bc1246af59, $GPGGA,155356.00,3747.2025,N,12223.0613,W,2,12,0.8,18.9,M,-27.6,M,,*6F
2023-07-05T15:53:57.4265104Z, 6cda8203-a249-e411-b0cc-f8bc1246af59, $GPGGA,155357.00,3747.2025,N,12223.0613,W,2,12,0.8,18.9,M,-27.6,M,,*6E
2023-07-05T15:53:59.0960010Z, 6cda8203-a249-e411-b0cc-f8bc1246af59, $GPGGA,155358.00,3747.2025,N,12223.0612,W,2,12,0.8,18.9,M,-27.6,M,,*60
2023-07-05T15:53:59.4265474Z, 6cda8203-a249-e411-b0cc-f8bc1246af59, $GPGGA,155359.00,3747.2024,N,12223.0612,W,2,12,0.8,18.9,M,-27.6,M,,*60
2023-07-05T15:54:00.2768672Z, 6cda8203-a249-e411-b0cc-f8bc1246af59, $GPGGA,155400.00,3747.2024,N,12223.0612,W,2,12,0.8,19.0,M,-27.6,M,,*63
2023-07-05T15:54:02.0969750Z, 6cda8203-a249-e411-b0cc-f8bc1246af59, $GPGGA,155401.00,3747.2023,N,12223.0611,W,2,12,0.8,19.0,M,-27.6,M,,*66
2023-07-05T15:54:02.4168714Z, 6cda8203-a249-e411-b0cc-f8bc1246af59, $GPGGA,155402.00,3747.2023,N,12223.0611,W,2,12,0.8,19.0,M,-27.6,M,,*65
2023-07-05T15:54:04.0965395Z, 6cda8203-a249-e411-b0cc-f8bc1246af59, $GPGGA,155403.00,3747.2023,N,12223.0610,W,2,12,0.8,19.0,M,-27.6,M,,*65
2023-07-05T15:54:04.8771921Z, 6cda8203-a249-e411-b0cc-f8bc1246af59, $GPGGA,155404.00,3747.2022,N,12223.0610,W,2,12,0.8,19.0,M,-27.6,M,,*63
2023-07-05T15:54:06.0968683Z, 6cda8203-a249-e411-b0cc-f8bc1246af59, $GPGGA,155405.00,3747.2022,N,12223.0611,W,2,12,0.8,19.0,M,-27.6,M,,*63
2023-07-05T15:54:06.4210211Z, 6cda8203-a249-e411-b0cc-f8bc1246af59, $GPGGA,155406.00,3747.2022,N,12223.0611,W,2,12,0.8,19.0,M,-27.6,M,,*60
2023-07-05T15:54:08.0975856Z, 6cda8203-a249-e411-b0cc-f8bc1246af59, $GPGGA,155407.00,3747.2021,N,12223.0612,W,2,12,0.8,19.0,M,-27.6,M,,*61
2023-07-05T15:54:08.4271420Z, 6cda8203-a249-e411-b0cc-f8bc1246af59, $GPGGA,155408.00,3747.2021,N,12223.0611,W,2,12,0.8,19.0,M,-27.6,M,,*6D
2023-07-05T15:54:09.9969915Z, 6cda8203-a249-e411-b0cc-f8bc1246af59, $GPGGA,155409.00,3747.2021,N,12223.0612,W,2,12,0.8,19.0,M,-27.6,M,,*6F
2023-07-05T15:54:11.0968454Z, 6cda8203-a249-e411-b0cc-f8bc1246af59, $GPGGA,155410.00,3747.2021,N,12223.0611,W,2,12,0.8,19.0,M,-27.6,M,,*64
2023-07-05T15:54:11.4174897Z, 6cda8203-a249-e411-b0cc-f8bc1246af59, $GPGGA,155411.00,3747.2021,N,12223.0611,W,2,12,0.8,19.1,M,-27.6,M,,*64
2023-07-05T15:54:13.0971296Z, 6cda8203-a249-e411-b0cc-f8bc1246af59, $GPGGA,155412.00,3747.2021,N,12223.0611,W,2,12,0.8,19.1,M,-27.6,M,,*67
2023-07-05T15:54:13.4177797Z, 6cda8203-a249-e411-b0cc-f8bc1246af59, $GPGGA,155413.00,3747.2021,N,12223.0611,W,2,12,0.8,19.1,M,-27.6,M,,*66
2023-07-05T15:54:15.0972001Z, 6cda8203-a249-e411-b0cc-f8bc1246af59, $GPGGA,155414.00,3747.2021,N,12223.0611,W,2,12,0.8,19.1,M,-27.6,M,,*61
2023-07-05T15:54:15.4178369Z, 6cda8203-a249-e411-b0cc-f8bc1246af59, $GPGGA,155415.00,3747.2021,N,12223.0611,W,2,12,0.8,19.1,M,-27.6,M,,*60
2023-07-05T15:54:17.0975264Z, 6cda8203-a249-e411-b0cc-f8bc1246af59, $GPGGA,155416.00,3747.2021,N,12223.0611,W,2,12,0.8,19.2,M,-27.6,M,,*60
2023-07-05T15:54:17.4181660Z, 6cda8203-a249-e411-b0cc-f8bc1246af59, $GPGGA,155417.00,3747.2020,N,12223.0612,W,2,12,0.8,19.2,M,-27.6,M,,*63
2023-07-05T15:54:19.0978596Z, 6cda8203-a249-e411-b0cc-f8bc1246af59, $GPGGA,155418.00,3747.2020,N,12223.0612,W,2,12,0.8,19.2,M,-27.6,M,,*6C
2023-07-05T15:54:19.4274982Z, 6cda8203-a249-e411-b0cc-f8bc1246af59, $GPGGA,155419.00,3747.2020,N,12223.0612,W,2,12,0.8,19.2,M,-27.6,M,,*6D
2023-07-05T15:54:21.3197977Z, 6cda8203-a249-e411-b0cc-f8bc1246af59, $GPGGA,155420.00,3747.2020,N,12223.0613,W,2,12,0.8,19.2,M,-27.6,M,,*66
2023-07-05T15:54:21.4577155Z, 6cda8203-a249-e411-b0cc-f8bc1246af59, $GPGGA,155421.00,3747.2020,N,12223.0613,W,2,12,0.8,19.2,M,-27.6,M,,*67
2023-07-05T15:54:23.0977655Z, 6cda8203-a249-e411-b0cc-f8bc1246af59, $GPGGA,155422.00,3747.2020,N,12223.0612,W,2,12,0.8,19.2,M,-27.6,M,,*65
2023-07-05T15:54:23.4184084Z, 6cda8203-a249-e411-b0cc-f8bc1246af59, $GPGGA,155423.00,3747.2020,N,12223.0612,W,2,12,0.8,19.2,M,-27.6,M,,*64
2023-07-05T15:54:25.0985353Z, 6cda8203-a249-e411-b0cc-f8bc1246af59, $GPGGA,155424.00,3747.2019,N,12223.0612,W,2,12,0.8,19.2,M,-27.6,M,,*69
2023-07-05T15:54:25.4281018Z, 6cda8203-a249-e411-b0cc-f8bc1246af59, $GPGGA,155425.00,3747.2019,N,12223.0612,W,2,12,0.8,19.3,M,-27.6,M,,*69
2023-07-05T15:54:27.0986223Z, 6cda8203-a249-e411-b0cc-f8bc1246af59, $GPGGA,155426.00,3747.2019,N,12223.0612,W,2,12,0.8,19.3,M,-27.6,M,,*6A
2023-07-05T15:54:27.4188262Z, 6cda8203-a249-e411-b0cc-f8bc1246af59, $GPGGA,155427.00,3747.2019,N,12223.0612,W,2,12,0.8,19.3,M,-27.6,M,,*6B
2023-07-05T15:54:29.0980973Z, 6cda8203-a249-e411-b0cc-f8bc1246af59, $GPGGA,155428.00,3747.2018,N,12223.0612,W,2,12,0.8,19.3,M,-27.6,M,,*65
2023-07-05T15:54:29.4286420Z, 6cda8203-a249-e411-b0cc-f8bc1246af59, $GPGGA,155429.00,3747.2018,N,12223.0612,W,2,12,0.8,19.3,M,-27.6,M,,*64
2023-07-05T15:54:30.2789810Z, 6cda8203-a249-e411-b0cc-f8bc1246af59, $GPGGA,155430.00,3747.2018,N,12223.0612,W,2,12,0.8,19.3,M,-27.6,M,,*6C
2023-07-05T15:54:32.0983790Z, 6cda8203-a249-e411-b0cc-f8bc1246af59, $GPGGA,155431.00,3747.2018,N,12223.0612,W,2,12,0.8,19.3,M,-27.6,M,,*6D
2023-07-05T15:54:32.8889739Z, 6cda8203-a249-e411-b0cc-f8bc1246af59, $GPGGA,155432.00,3747.2018,N,12223.0612,W,2,12,0.8,19.3,M,-27.6,M,,*6E
2023-07-05T15:54:34.0989965Z, 6cda8203-a249-e411-b0cc-f8bc1246af59, $GPGGA,155433.00,3747.2017,N,12223.0612,W,2,12,0.8,19.3,M,-27.6,M,,*60
2023-07-05T15:54:34.4285571Z, 6cda8203-a249-e411-b0cc-f8bc1246af59, $GPGGA,155434.00,3747.2017,N,12223.0612,W,2,12,0.8,19.4,M,-27.6,M,,*60
2023-07-05T15:54:35.2888318Z, 6cda8203-a249-e411-b0cc-f8bc1246af59, $GPGGA,155435.00,3747.2017,N,12223.0612,W,2,12,0.8,19.4,M,-27.6,M,,*61
2023-07-05T15:54:36.3794978Z, 6cda8203-a249-e411-b0cc-f8bc1246af59, $GPGGA,155436.00,3747.2017,N,12223.0612,W,2,12,0.8,19.4,M,-27.6,M,,*62
2023-07-05T15:54:37.2895392Z, 6cda8203-a249-e411-b0cc-f8bc1246af59, $GPGGA,155437.00,3747.2016,N,12223.0611,W,2,12,0.8,19.4,M,-27.6,M,,*61
2023-07-05T15:54:39.0988533Z, 6cda8203-a249-e411-b0cc-f8bc1246af59, $GPGGA,155438.00,3747.2016,N,12223.0611,W,2,12,0.8,19.4,M,-27.6,M,,*6E
2023-07-05T15:54:39.4194567Z, 6cda8203-a249-e411-b0cc-f8bc1246af59, $GPGGA,155439.00,3747.2016,N,12223.0611,W,2,12,0.8,19.4,M,-27.6,M,,*6F
2023-07-05T15:54:40.2896931Z, 6cda8203-a249-e411-b0cc-f8bc1246af59, $GPGGA,155440.00,3747.2016,N,12223.0611,W,2,12,0.8,19.4,M,-27.6,M,,*61
2023-07-05T15:54:41.2896194Z, 6cda8203-a249-e411-b0cc-f8bc1246af59, $GPGGA,155441.00,3747.2015,N,12223.0611,W,2,12,0.8,19.4,M,-27.6,M,,*63
2023-07-05T15:54:42.4099504Z, 6cda8203-a249-e411-b0cc-f8bc1246af59, $GPGGA,155442.00,3747.2015,N,12223.0611,W,2,12,0.8,19.4,M,-27.6,M,,*60
2023-07-05T15:54:44.0998212Z, 6cda8203-a249-e411-b0cc-f8bc1246af59, $GPGGA,155443.00,3747.2015,N,12223.0611,W,2,12,0.8,19.4,M,-27.6,M,,*61
2023-07-05T15:54:44.4194380Z, 6cda8203-a249-e411-b0cc-f8bc1246af59, $GPGGA,155444.00,3747.2015,N,12223.0611,W,2,12,0.8,19.4,M,-27.6,M,,*66
2023-07-05T15:54:45.7394396Z, 6cda8203-a249-e411-b0cc-f8bc1246af59, $GPGGA,155445.00,3747.2015,N,12223.0611,W,2,12,0.8,19.4,M,-27.6,M,,*67
2023-07-05T15:54:46.2900622Z, 6cda8203-a249-e411-b0cc-f8bc1246af59, $GPGGA,155446.00,3747.2015,N,12223.0611,W,2,12,0.8,19.4,M,-27.6,M,,*64
2023-07-05T15:54:48.1001833Z, 6cda8203-a249-e411-b0cc-f8bc1246af59, $GPGGA,155447.00,3747.2015,N,12223.0611,W,2,12,0.8,19.4,M,-27.6,M,,*65
2023-07-05T15:54:48.4198227Z, 6cda8203-a249-e411-b0cc-f8bc1246af59, $GPGGA,155448.00,3747.2014,N,12223.0611,W,2,12,0.8,19.5,M,-27.6,M,,*6A
2023-07-05T15:54:49.2900555Z, 6cda8203-a249-e411-b0cc-f8bc1246af59, $GPGGA,155449.00,3747.2014,N,12223.0610,W,2,12,0.8,19.5,M,-27.6,M,,*6A
2023-07-05T15:54:50.4104950Z, 6cda8203-a249-e411-b0cc-f8bc1246af59, $GPGGA,155450.00,3747.2014,N,12223.0610,W,2,12,0.8,19.5,M,-27.6,M,,*62
2023-07-05T15:54:51.8900860Z, 6cda8203-a249-e411-b0cc-f8bc1246af59, $GPGGA,155451.00,3747.2014,N,12223.0610,W,2,12,0.8,19.5,M,-27.6,M,,*63
2023-07-05T15:54:53.0998760Z, 6cda8203-a249-e411-b0cc-f8bc1246af59, $GPGGA,155452.00,3747.2014,N,12223.0610,W,2,12,0.8,19.5,M,-27.6,M,,*60
2023-07-05T15:54:53.4204965Z, 6cda8203-a249-e411-b0cc-f8bc1246af59, $GPGGA,155453.00,3747.2013,N,12223.0609,W,2,12,0.8,19.5,M,-27.6,M,,*6E
2023-07-05T15:54:54.2907244Z, 6cda8203-a249-e411-b0cc-f8bc1246af59, $GPGGA,155454.00,3747.2013,N,12223.0609,W,2,12,0.8,19.5,M,-27.6,M,,*69
2023-07-05T15:54:55.4108652Z, 6cda8203-a249-e411-b0cc-f8bc1246af59, $GPGGA,155455.00,3747.2013,N,12223.0609,W,2,12,0.8,19.5,M,-27.6,M,,*68
2023-07-05T15:54:57.1006681Z, 6cda8203-a249-e411-b0cc-f8bc1246af59, $GPGGA,155456.00,3747.2013,N,12223.0609,W,2,12,0.8,19.5,M,-27.6,M,,*6B
2023-07-05T15:54:57.8305310Z, 6cda8203-a249-e411-b0cc-f8bc1246af59, $GPGGA,155457.00,3747.2013,N,12223.0609,W,2,12,0.8,19.5,M,-27.6,M,,*6A
2023-07-05T15:54:58.3004601Z, 6cda8203-a249-e411-b0cc-f8bc1246af59, $GPGGA,155458.00,3747.2013,N,12223.0609,W,2,12,0.8,19.5,M,-27.6,M,,*65
2023-07-05T15:54:59.3010700Z, 6cda8203-a249-e411-b0cc-f8bc1246af59, $GPGGA,155459.00,3747.2013,N,12223.0609,W,2,12,0.8,19.5,M,-27.6,M,,*64
2023-07-05T15:55:01.1010310Z, 6cda8203-a249-e411-b0cc-f8bc1246af59, $GPGGA,155500.00,3747.2013,N,12223.0609,W,2,12,0.8,19.5,M,-27.6,M,,*69
2023-07-05T15:55:01.4206662Z, 6cda8203-a249-e411-b0cc-f8bc1246af59, $GPGGA,155501.00,3747.2013,N,12223.0609,W,2,12,0.8,19.5,M,-27.6,M,,*68
2023-07-05T15:55:02.4213077Z, 6cda8203-a249-e411-b0cc-f8bc1246af59, $GPGGA,155502.00,3747.2012,N,12223.0609,W,2,12,0.8,19.6,M,-27.6,M,,*69
2023-07-05T15:55:03.9208223Z, 6cda8203-a249-e411-b0cc-f8bc1246af59, $GPGGA,155503.00,3747.2013,N,12223.0609,W,2,12,0.8,19.6,M,-27.6,M,,*69
2023-07-05T15:55:05.1007001Z, 6cda8203-a249-e411-b0cc-f8bc1246af59, $GPGGA,155504.00,3747.2012,N,12223.0609,W,2,12,0.8,19.6,M,-27.6,M,,*6F
2023-07-05T15:55:05.4213229Z, 6cda8203-a249-e411-b0cc-f8bc1246af59, $GPGGA,155505.00,3747.2012,N,12223.0610,W,2,12,0.8,19.6,M,-27.6,M,,*66
2023-07-05T15:55:06.3015066Z, 6cda8203-a249-e411-b0cc-f8bc1246af59, $GPGGA,155506.00,3747.2012,N,12223.0610,W,2,12,0.8,19.6,M,-27.6,M,,*65
2023-07-05T15:55:07.3010353Z, 6cda8203-a249-e411-b0cc-f8bc1246af59, $GPGGA,155507.00,3747.2012,N,12223.0610,W,2,12,0.8,19.6,M,-27.6,M,,*64
2023-07-05T15:55:08.4211789Z, 6cda8203-a249-e411-b0cc-f8bc1246af59, $GPGGA,155508.00,3747.2012,N,12223.0610,W,2,12,0.8,19.6,M,-27.6,M,,*6B
2023-07-05T15:55:10.2711607Z, 6cda8203-a249-e411-b0cc-f8bc1246af59, $GPGGA,155509.00,3747.2012,N,12223.0610,W,2,12,0.8,19.6,M,-27.6,M,,*6A
2023-07-05T15:55:10.7112268Z, 6cda8203-a249-e411-b0cc-f8bc1246af59, $GPGGA,155510.00,3747.2012,N,12223.0610,W,2,12,0.8,19.6,M,-27.6,M,,*62
2023-07-05T15:55:11.4212165Z, 6cda8203-a249-e411-b0cc-f8bc1246af59, $GPGGA,155511.00,3747.2012,N,12223.0610,W,2,12,0.8,19.6,M,-27.6,M,,*63
2023-07-05T15:55:13.0919284Z, 6cda8203-a249-e411-b0cc-f8bc1246af59, $GPGGA,155512.00,3747.2012,N,12223.0610,W,2,12,0.8,19.6,M,-27.6,M,,*60
2023-07-05T15:55:13.4214967Z, 6cda8203-a249-e411-b0cc-f8bc1246af59, $GPGGA,155513.00,3747.2012,N,12223.0610,W,2,12,0.8,19.6,M,-27.6,M,,*61
2023-07-05T15:55:14.3016835Z, 6cda8203-a249-e411-b0cc-f8bc1246af59, $GPGGA,155514.00,3747.2012,N,12223.0610,W,2,12,0.8,19.6,M,-27.6,M,,*66
2023-07-05T15:55:15.4218680Z, 6cda8203-a249-e411-b0cc-f8bc1246af59, $GPGGA,155515.00,3747.2012,N,12223.0610,W,2,12,0.8,19.7,M,-27.6,M,,*66
2023-07-05T15:55:16.8417043Z, 6cda8203-a249-e411-b0cc-f8bc1246af59, $GPGGA,155516.00,3747.2012,N,12223.0610,W,2,12,0.8,19.7,M,-27.6,M,,*65
2023-07-05T15:55:18.0921950Z, 6cda8203-a249-e411-b0cc-f8bc1246af59, $GPGGA,155517.00,3747.2011,N,12223.0610,W,2,12,0.8,19.7,M,-27.6,M,,*67
2023-07-05T15:55:18.4217634Z, 6cda8203-a249-e411-b0cc-f8bc1246af59, $GPGGA,155518.00,3747.2012,N,12223.0610,W,2,12,0.8,19.7,M,-27.6,M,,*6B
2023-07-05T15:55:19.3019623Z, 6cda8203-a249-e411-b0cc-f8bc1246af59, $GPGGA,155519.00,3747.2011,N,12223.0610,W,2,12,0.8,19.7,M,-27.6,M,,*69
2023-07-05T15:55:20.4222106Z, 6cda8203-a249-e411-b0cc-f8bc1246af59, $GPGGA,155520.00,3747.2011,N,12223.0609,W,2,12,0.8,19.8,M,-27.6,M,,*64
2023-07-05T15:55:21.3023954Z, 6cda8203-a249-e411-b0cc-f8bc1246af59, $GPGGA,155521.00,3747.2011,N,12223.0610,W,2,12,0.8,19.8,M,-27.6,M,,*6D
2023-07-05T15:55:22.3119850Z, 6cda8203-a249-e411-b0cc-f8bc1246af59, $GPGGA,155522.00,3747.2011,N,12223.0609,W,2,12,0.8,19.8,M,-27.6,M,,*66
2023-07-05T15:55:23.4223990Z, 6cda8203-a249-e411-b0cc-f8bc1246af59, $GPGGA,155523.00,3747.2011,N,12223.0609,W,2,12,0.8,19.8,M,-27.6,M,,*67
2023-07-05T15:55:24.3125146Z, 6cda8203-a249-e411-b0cc-f8bc1246af59, $GPGGA,155524.00,3747.2011,N,12223.0609,W,2,12,0.8,19.8,M,-27.6,M,,*60
2023-07-05T15:55:25.3123106Z, 6cda8203-a249-e411-b0cc-f8bc1246af59, $GPGGA,155525.00,3747.2010,N,12223.0609,W,2,12,0.8,19.8,M,-27.6,M,,*60
2023-07-05T15:55:26.3128097Z, 6cda8203-a249-e411-b0cc-f8bc1246af59, $GPGGA,155526.00,3747.2010,N,12223.0609,W,2,12,0.8,19.8,M,-27.6,M,,*63
2023-07-05T15:55:28.1027683Z, 6cda8203-a249-e411-b0cc-f8bc1246af59, $GPGGA,155527.00,3747.2010,N,12223.0609,W,2,12,0.8,19.8,M,-27.6,M,,*62
2023-07-05T15:55:28.4323675Z, 6cda8203-a249-e411-b0cc-f8bc1246af59, $GPGGA,155528.00,3747.2010,N,12223.0609,W,2,12,0.8,19.8,M,-27.6,M,,*6D
2023-07-05T15:55:29.8233491Z, 6cda8203-a249-e411-b0cc-f8bc1246af59, $GPGGA,155529.00,3747.2010,N,12223.0608,W,2,12,0.8,19.8,M,-27.6,M,,*6D
2023-07-05T15:55:31.1027518Z, 6cda8203-a249-e411-b0cc-f8bc1246af59, $GPGGA,155530.00,3747.2010,N,12223.0609,W,2,12,0.8,19.8,M,-27.6,M,,*64
2023-07-05T15:55:31.4233968Z, 6cda8203-a249-e411-b0cc-f8bc1246af59, $GPGGA,155531.00,3747.2009,N,12223.0608,W,2,12,0.8,19.8,M,-27.6,M,,*6C
2023-07-05T15:55:32.3135460Z, 6cda8203-a249-e411-b0cc-f8bc1246af59, $GPGGA,155532.00,3747.2009,N,12223.0608,W,2,12,0.8,19.9,M,-27.6,M,,*6E
2023-07-05T15:55:33.3128784Z, 6cda8203-a249-e411-b0cc-f8bc1246af59, $GPGGA,155533.00,3747.2009,N,12223.0608,W,2,12,0.8,19.9,M,-27.6,M,,*6F
2023-07-05T15:55:34.5833771Z, 6cda8203-a249-e411-b0cc-f8bc1246af59, $GPGGA,155534.00,3747.2009,N,12223.0609,W,2,12,0.8,19.9,M,-27.6,M,,*69
2023-07-05T15:55:35.4237433Z, 6cda8203-a249-e411-b0cc-f8bc1246af59, $GPGGA,155535.00,3747.2009,N,12223.0608,W,2,12,0.8,19.9,M,-27.6,M,,*69
2023-07-05T15:55:36.3128855Z, 6cda8203-a249-e411-b0cc-f8bc1246af59, $GPGGA,155536.00,3747.2009,N,12223.0608,W,2,12,0.8,20.0,M,-27.6,M,,*69
2023-07-05T15:55:38.1030873Z, 6cda8203-a249-e411-b0cc-f8bc1246af59, $GPGGA,155537.00,3747.2009,N,12223.0608,W,2,12,0.8,20.0,M,-27.6,M,,*68
2023-07-05T15:55:38.4237343Z, 6cda8203-a249-e411-b0cc-f8bc1246af59, $GPGGA,155538.00,3747.2009,N,12223.0608,W,2,12,0.8,20.0,M,-27.6,M,,*67
2023-07-05T15:55:39.3835620Z, 6cda8203-a249-e411-b0cc-f8bc1246af59, $GPGGA,155539.00,3747.2008,N,12223.0608,W,2,12,0.8,20.0,M,-27.6,M,,*67
2023-07-05T15:55:41.0934455Z, 6cda8203-a249-e411-b0cc-f8bc1246af59, $GPGGA,155540.00,3747.2009,N,12223.0608,W,2,12,0.8,20.0,M,-27.6,M,,*68
2023-07-05T15:55:41.4240132Z, 6cda8203-a249-e411-b0cc-f8bc1246af59, $GPGGA,155541.00,3747.2008,N,12223.0608,W,2,12,0.8,20.0,M,-27.6,M,,*68
2023-07-05T15:55:43.0936814Z, 6cda8203-a249-e411-b0cc-f8bc1246af59, $GPGGA,155542.00,3747.2008,N,12223.0608,W,2,12,0.8,20.0,M,-27.6,M,,*6B
2023-07-05T15:55:43.4242419Z, 6cda8203-a249-e411-b0cc-f8bc1246af59, $GPGGA,155543.00,3747.2008,N,12223.0608,W,2,12,0.8,20.1,M,-27.6,M,,*6B
2023-07-05T15:55:45.0939950Z, 6cda8203-a249-e411-b0cc-f8bc1246af59, $GPGGA,155544.00,3747.2008,N,12223.0608,W,2,12,0.8,20.1,M,-27.6,M,,*6C
2023-07-05T15:55:45.4236136Z, 6cda8203-a249-e411-b0cc-f8bc1246af59, $GPGGA,155545.00,3747.2008,N,12223.0608,W,2,12,0.8,20.1,M,-27.6,M,,*6D
2023-07-05T15:55:47.0943219Z, 6cda8203-a249-e411-b0cc-f8bc1246af59, $GPGGA,155546.00,3747.2008,N,12223.0608,W,2,12,0.8,20.1,M,-27.6,M,,*6E
2023-07-05T15:55:47.9038095Z, 6cda8203-a249-e411-b0cc-f8bc1246af59, $GPGGA,155547.00,3747.2007,N,12223.0608,W,2,12,0.8,20.1,M,-27.6,M,,*60
2023-07-05T15:55:49.0946529Z, 6cda8203-a249-e411-b0cc-f8bc1246af59, $GPGGA,155548.00,3747.2007,N,12223.0608,W,2,12,0.8,20.1,M,-27.6,M,,*6F
2023-07-05T15:55:49.4242592Z, 6cda8203-a249-e411-b0cc-f8bc1246af59, $GPGGA,155549.00,3747.2007,N,12223.0607,W,2,12,0.8,20.2,M,-27.6,M,,*62
2023-07-05T15:55:51.0940105Z, 6cda8203-a249-e411-b0cc-f8bc1246af59, $GPGGA,155550.00,3747.2007,N,12223.0607,W,2,12,0.8,20.2,M,-27.6,M,,*6A
2023-07-05T15:55:51.4644170Z, 6cda8203-a249-e411-b0cc-f8bc1246af59, $GPGGA,155551.00,3747.2007,N,12223.0607,W,2,12,0.8,20.2,M,-27.6,M,,*6B
2023-07-05T15:55:52.9245912Z, 6cda8203-a249-e411-b0cc-f8bc1246af59, $GPGGA,155552.00,3747.2007,N,12223.0607,W,2,12,0.8,20.2,M,-27.6,M,,*68
2023-07-05T15:55:54.0948250Z, 6cda8203-a249-e411-b0cc-f8bc1246af59, $GPGGA,155553.00,3747.2007,N,12223.0607,W,2,12,0.8,20.2,M,-27.6,M,,*69
2023-07-05T15:55:54.4221464Z, 6cda8203-a249-e411-b0cc-f8bc1246af59, $GPGGA,155554.00,3747.2006,N,12223.0607,W,2,12,0.8,20.2,M,-27.6,M,,*6F
2023-07-05T15:55:55.3752968Z, 6cda8203-a249-e411-b0cc-f8bc1246af59, $GPGGA,155555.00,3747.2007,N,12223.0607,W,2,12,0.8,20.3,M,-27.6,M,,*6E
