ACQ Timestamp (Server Time in UTC), MessageID, Data Value For: GNSS-6452-$GPGGA
2023-06-24T17:00:04.6506793Z, 6cda8203-a249-e411-b0cc-f8bc1246af59, $GPGGA,170004.00,4213.1414,N,12451.7749,W,2,11,0.8,24.1,M,-25.3,M,,*63
2023-06-24T17:00:05.2506048Z, 6cda8203-a249-e411-b0cc-f8bc1246af59, $GPGGA,170005.00,4213.1424,N,12451.7751,W,2,11,0.8,24.3,M,-25.3,M,,*6A
2023-06-24T17:00:06.4105486Z, 6cda8203-a249-e411-b0cc-f8bc1246af59, $GPGGA,170006.00,4213.1434,N,12451.7752,W,2,11,0.8,24.4,M,-25.3,M,,*6C
2023-06-24T17:00:07.2509208Z, 6cda8203-a249-e411-b0cc-f8bc1246af59, $GPGGA,170007.00,4213.1443,N,12451.7751,W,2,11,0.8,24.4,M,-25.3,M,,*6E
2023-06-24T17:00:08.2505858Z, 6cda8203-a249-e411-b0cc-f8bc1246af59, $GPGGA,170008.00,4213.1454,N,12451.7751,W,2,11,0.8,24.4,M,-25.3,M,,*67
2023-06-24T17:00:09.4105290Z, 6cda8203-a249-e411-b0cc-f8bc1246af59, $GPGGA,170009.00,4213.1464,N,12451.7751,W,2,11,0.8,24.4,M,-25.3,M,,*65
2023-06-24T17:00:10.9309512Z, 6cda8203-a249-e411-b0cc-f8bc1246af59, $GPGGA,170010.00,4213.1473,N,12451.7752,W,2,11,0.8,24.2,M,-25.3,M,,*6E
2023-06-24T17:00:11.4108913Z, 6cda8203-a249-e411-b0cc-f8bc1246af59, $GPGGA,170011.00,4213.1483,N,12451.7753,W,2,11,0.8,24.0,M,-25.3,M,,*63
2023-06-24T17:00:12.2612319Z, 6cda8203-a249-e411-b0cc-f8bc1246af59, $GPGGA,170012.00,4213.1492,N,12451.7753,W,2,11,0.8,23.9,M,-25.3,M,,*6E
2023-06-24T17:00:13.2509176Z, 6cda8203-a249-e411-b0cc-f8bc1246af59, $GPGGA,170013.00,4213.1501,N,12451.7753,W,2,11,0.8,24.0,M,-25.3,M,,*6A
2023-06-24T17:00:15.0908757Z, 6cda8203-a249-e411-b0cc-f8bc1246af59, $GPGGA,170014.00,4213.1511,N,12451.7752,W,2,11,0.8,24.0,M,-25.3,M,,*6D
2023-06-24T17:00:15.4105135Z, 6cda8203-a249-e411-b0cc-f8bc1246af59, $GPGGA,170015.00,4213.1520,N,12451.7753,W,2,11,0.8,24.0,M,-25.3,M,,*6F
2023-06-24T17:00:16.2509164Z, 6cda8203-a249-e411-b0cc-f8bc1246af59, $GPGGA,170016.00,4213.1530,N,12451.7754,W,2,11,0.8,24.0,M,-25.3,M,,*6A
2023-06-24T17:00:17.4207681Z, 6cda8203-a249-e411-b0cc-f8bc1246af59, $GPGGA,170017.00,4213.1540,N,12451.7755,W,2,11,0.8,24.1,M,-25.3,M,,*6C
2023-06-24T17:00:18.2512067Z, 6cda8203-a249-e411-b0cc-f8bc1246af59, $GPGGA,170018.00,4213.1549,N,12451.7755,W,2,11,0.8,24.4,M,-25.3,M,,*6F
2023-06-24T17:00:19.2509002Z, 6cda8203-a249-e411-b0cc-f8bc1246af59, $GPGGA,170019.00,4213.1559,N,12451.7756,W,2,11,0.8,24.5,M,-25.3,M,,*6D
2023-06-24T17:00:20.4217958Z, 6cda8203-a249-e411-b0cc-f8bc1246af59, $GPGGA,170020.00,4213.1570,N,12451.7757,W,2,11,0.8,24.3,M,-25.3,M,,*6B
2023-06-24T17:00:21.2710746Z, 6cda8203-a249-e411-b0cc-f8bc1246af59, $GPGGA,170021.00,4213.1580,N,12451.7759,W,2,11,0.8,24.1,M,-25.3,M,,*69
2023-06-24T17:00:22.2519103Z, 6cda8203-a249-e411-b0cc-f8bc1246af59, $GPGGA,170022.00,4213.1590,N,12451.7762,W,2,11,0.8,24.0,M,-25.3,M,,*62
2023-06-24T17:00:23.2614484Z, 6cda8203-a249-e411-b0cc-f8bc1246af59, $GPGGA,170023.00,4213.1600,N,12451.7763,W,2,11,0.8,24.1,M,-25.3,M,,*69
2023-06-24T17:00:24.4214385Z, 6cda8203-a249-e411-b0cc-f8bc1246af59, $GPGGA,170024.00,4213.1609,N,12451.7762,W,2,11,0.8,24.3,M,-25.3,M,,*64
2023-06-24T17:00:25.2518999Z, 6cda8203-a249-e411-b0cc-f8bc1246af59, $GPGGA,170025.00,4213.1619,N,12451.7760,W,2,11,0.8,24.6,M,-25.3,M,,*63
2023-06-24T17:00:26.2515105Z, 6cda8203-a249-e411-b0cc-f8bc1246af59, $GPGGA,170026.00,4213.1629,N,12451.7760,W,2,11,0.8,24.5,M,-25.3,M,,*60
2023-06-24T17:00:28.0914973Z, 6cda8203-a249-e411-b0cc-f8bc1246af59, $GPGGA,170027.00,4213.1641,N,12451.7761,W,2,11,0.8,24.1,M,-25.3,M,,*6A
2023-06-24T17:00:28.4121778Z, 6cda8203-a249-e411-b0cc-f8bc1246af59, $GPGGA,170028.00,4213.1651,N,12451.7762,W,2,11,0.8,23.9,M,-25.3,M,,*68
2023-06-24T17:00:30.0819297Z, 6cda8203-a249-e411-b0cc-f8bc1246af59, $GPGGA,170029.00,4213.1661,N,12451.7764,W,2,11,0.8,23.8,M,-25.3,M,,*6D
2023-06-24T17:00:30.4124878Z, 6cda8203-a249-e411-b0cc-f8bc1246af59, $GPGGA,170030.00,4213.1671,N,12451.7765,W,2,11,0.8,23.7,M,-25.3,M,,*6A
2023-06-24T17:00:32.0822281Z, 6cda8203-a249-e411-b0cc-f8bc1246af59, $GPGGA1700,31.00,4213.1680,N,12451.7766,W,2,11,0.8,23.7,M,-25.3,M,,*66
2023-06-24T17:00:32.4118053Z, 6cda8203-a249-e411-b0cc-f8bc1246af59, $GPGGA,170032.00,4213.1690,N,12451.7767,W,2,11,0.8,23.8,M,-25.3,M,,*6A
2023-06-24T17:00:34.0825508Z, 6cda8203-a249-e411-b0cc-f8bc1246af59, $GPGGA,170033.00,4213.1700,N,12451.7768,W,2,11,0.8,24.0,M,-25.3,M,,*63
2023-06-24T17:00:34.4121433Z, 6cda8203-a249-e411-b0cc-f8bc1246af59, $GPGGA,170034.00,4213.1710,N,12451.7768,W,2,11,0.8,24.2,M,-25.3,M,,*67
2023-06-24T17:00:36.0829138Z, 6cda8203-a249-e411-b0cc-f8bc1246af59, $GPGGA,170035.00,4213.1720,N,12451.7768,W,2,11,0.8,24.5,M,-25.3,M,,*62
2023-06-24T17:00:36.4124701Z, 6cda8203-a249-e411-b0cc-f8bc1246af59, $GPGGA,170036.00,4213.1730,N,12451.7768,W,2,11,0.8,24.5,M,-25.3,M,,*60
2023-06-24T17:00:38.0822126Z, 6cda8203-a249-e411-b0cc-f8bc1246af59, $GPGGA,170037.00,4213.1740,N,12451.7767,W,2,11,0.8,24.5,M,-25.3,M,,*69
2023-06-24T17:00:38.4127888Z, 6cda8203-a249-e411-b0cc-f8bc1246af59, $GPGGA,170038.00,4213.1751,N,12451.7768,W,2,11,0.8,24.4,M,-25.3,M,,*68
2023-06-24T17:00:39.2123296Z, 6cda8203-a249-e411-b0cc-f8bc1246af59, $GPGGA,170039.00,4213.1761,N,12451.7771,W,2,11,0.8,24.3,M,-25.3,M,,*65
2023-06-24T17:00:41.0931486Z, 6cda8203-a249-e411-b0cc-f8bc1246af59, $GPGGA,170040.00,4213.1772,N,12451.7773,W,2,11,0.8,24.3,M,-25.3,M,,*6B
2023-06-24T17:00:41.4127593Z, 6cda8203-a249-e411-b0cc-f8bc1246af59, $GPGGA,170041.00,4213.1782,N,12451.7774,W,2,11,0.8,24.4,M,-25.3,M,,*65
2023-06-24T17:00:42.3726013Z, 6cda8203-a249-e411-b0cc-f8bc1246af59, $GPGGA,170042.00,4213.1793,N,12451.7772,W,2,11,0.8,24.4,M,-25.3,M,,*60
2023-06-24T17:00:43.2129580Z, 6cda8203-a249-e411-b0cc-f8bc1246af59, $GPGGA,170043.00,4213.1804,N,12451.7770,W,2,11,0.8,24.3,M,-25.3,M,,*65
2023-06-24T17:00:45.0828492Z, 6cda8203-a249-e411-b0cc-f8bc1246af59, $GPGGA,170044.00,4213.1814,N,12451.7770,W,2,11,0.8,24.3,M,-25.3,M,,*63
2023-06-24T17:00:45.4134301Z, 6cda8203-a249-e411-b0cc-f8bc1246af59, $GPGGA,170045.00,4213.1825,N,12451.7769,W,2,11,0.8,24.2,M,-25.3,M,,*69
2023-06-24T17:00:46.2129864Z, 6cda8203-a249-e411-b0cc-f8bc1246af59, $GPGGA,170046.00,4213.1835,N,12451.7769,W,2,11,0.8,24.3,M,-25.3,M,,*6A
2023-06-24T17:00:48.0828632Z, 6cda8203-a249-e411-b0cc-f8bc1246af59, $GPGGA,170047.00,4213.1845,N,12451.7770,W,2,11,0.8,24.5,M,-25.3,M,,*62
2023-06-24T17:00:48.4134351Z, 6cda8203-a249-e411-b0cc-f8bc1246af59, $GPGGA,170048.00,4213.1856,N,12451.7772,W,2,11,0.8,24.3,M,-25.3,M,,*6B
2023-06-24T17:00:50.0831661Z, 6cda8203-a249-e411-b0cc-f8bc1246af59, $GPGGA,170049.00,4213.1866,N,12451.7773,W,2,11,0.8,24.2,M,-25.3,M,,*69
2023-06-24T17:00:50.4137486Z, 6cda8203-a249-e411-b0cc-f8bc1246af59, $GPGGA,170050.00,4213.1876,N,12451.7774,W,2,11,0.8,24.3,M,-25.3,M,,*66
2023-06-24T17:00:52.0835155Z, 6cda8203-a249-e411-b0cc-f8bc1246af59, $GPGGA,170051.00,4213.1887,N,12451.7775,W,2,11,0.8,24.5,M,-25.3,M,,*6E
2023-06-24T17:00:52.4140897Z, 6cda8203-a249-e411-b0cc-f8bc1246af59, $GPGGA,170052.00,4213.1897,N,12451.7775,W,2,11,0.8,24.6,M,-25.3,M,,*6F
2023-06-24T17:00:54.0838434Z, 6cda8203-a249-e411-b0cc-f8bc1246af59, $GPGGA,170053.00,4213.1907,N,12451.7776,W,2,11,0.8,24.6,M,-25.3,M,,*65
2023-06-24T17:00:54.4133897Z, 6cda8203-a249-e411-b0cc-f8bc1246af59, $GPGGA,170054.00,4213.1918,N,12451.7779,W,2,11,0.8,24.7,M,-25.3,M,,*62
2023-06-24T17:00:56.0841572Z, 6cda8203-a249-e411-b0cc-f8bc1246af59, $GPGGA,170055.00,4213.1929,N,12451.7781,W,2,11,0.8,24.8,M,-25.3,M,,*69
2023-06-24T17:00:56.4137212Z, 6cda8203-a249-e411-b0cc-f8bc1246af59, $GPGGA,170056.00,4213.1938,N,12451.7782,W,2,11,0.8,24.9,M,-25.3,M,,*68
2023-06-24T17:00:58.0845273Z, 6cda8203-a249-e411-b0cc-f8bc1246af59, $GPGGA,170057.00,4213.1948,N,12451.7782,W,2,11,0.8,25.0,M,-25.3,M,,*66
2023-06-24T17:00:58.8541549Z, 6cda8203-a249-e411-b0cc-f8bc1246af59, $GPGGA,170058.00,4213.1959,N,12451.7783,W,2,11,0.8,25.2,M,-25.3,M,,*6A
2023-06-24T17:01:00.0838150Z, 6cda8203-a249-e411-b0cc-f8bc1246af59, $GPGGA,170059.00,4213.1970,N,12451.7785,W,2,11,0.8,25.1,M,-25.3,M,,*65
2023-06-24T17:01:00.4143904Z, 6cda8203-a249-e411-b0cc-f8bc1246af59, $GPGGA,170100.00,4213.1980,N,12451.7787,W,2,11,0.8,24.9,M,-25.3,M,,*6C
2023-06-24T17:01:02.0841309Z, 6cda8203-a249-e411-b0cc-f8bc1246af59, $GPGGA,170101.00,4213.1990,N,12451.7789,W,2,11,0.8,24.8,M,-25.3,M,,*63
2023-06-24T17:01:02.4147249Z, 6cda8203-a249-e411-b0cc-f8bc1246af59, $GPGGA,170102.00,4213.2000,N,12451.7790,W,2,11,0.8,24.8,M,-25.3,M,,*6B
2023-06-24T17:01:04.0943960Z, 6cda8203-a249-e411-b0cc-f8bc1246af59, $GPGGA,170103.00,4213.2010,N,12451.7791,W,2,11,0.8,24.8,M,-25.3,M,,*6A
2023-06-24T17:01:04.4140578Z, 6cda8203-a249-e411-b0cc-f8bc1246af59, $GPGGA,170104.00,4213.2021,N,12451.7792,W,2,11,0.8,24.9,M,-25.3,M,,*6D
2023-06-24T17:01:06.0847845Z, 6cda8203-a249-e411-b0cc-f8bc1246af59, $GPGGA,170105.00,4213.2032,N,12451.7792,W,2,11,0.8,25.0,M,-25.3,M,,*66
2023-06-24T17:01:06.4143601Z, 6cda8203-a249-e411-b0cc-f8bc1246af59, $GPGGA,170106.00,4213.2043,N,12451.7794,W,2,11,0.8,25.2,M,-25.3,M,,*67
2023-06-24T17:01:07.3741966Z, 6cda8203-a249-e411-b0cc-f8bc1246af59, $GPGGA,170107.00,4213.2054,N,12451.7795,W,2,11,0.8,25.0,M,-25.3,M,,*63
2023-06-24T17:01:08.2245372Z, 6cda8203-a249-e411-b0cc-f8bc1246af59, $GPGGA,170108.00,4213.2065,N,12451.7796,W,2,11,0.8,25.0,M,-25.3,M,,*6D
2023-06-24T17:01:10.0844419Z, 6cda8203-a249-e411-b0cc-f8bc1246af59, $GPGGA,170109.00,4213.2076,N,12451.7797,W,2,11,0.8,25.1,M,-25.3,M,,*6E
2023-06-24T17:01:10.4150243Z, 6cda8203-a249-e411-b0cc-f8bc1246af59, $GPGGA,170110.00,4213.2086,N,12451.7797,W,2,11,0.8,25.1,M,-25.3,M,,*69
2023-06-24T17:01:12.0847808Z, 6cda8203-a249-e411-b0cc-f8bc1246af59, $GPGGA,170111.00,4213.2097,N,12451.7797,W,2,11,0.8,24.9,M,-25.3,M,,*61
2023-06-24T17:01:12.4153469Z, 6cda8203-a249-e411-b0cc-f8bc1246af59, $GPGGA,170112.00,4213.2108,N,12451.7797,W,2,11,0.8,24.6,M,-25.3,M,,*6A
2023-06-24T17:01:13.3751877Z, 6cda8203-a249-e411-b0cc-f8bc1246af59, $GPGGA,170113.00,4213.2118,N,12451.7798,W,2,11,0.8,24.5,M,-25.3,M,,*66
2023-06-24T17:01:14.2255257Z, 6cda8203-a249-e411-b0cc-f8bc1246af59, $GPGGA,170114.00,4213.2128,N,12451.7798,W,2,11,0.8,24.4,M,-25.3,M,,*63
2023-06-24T17:01:16.0854369Z, 6cda8203-a249-e411-b0cc-f8bc1246af59, $GPGGA,170115.00,4213.2138,N,12451.7799,W,2,11,0.8,24.5,M,-25.3,M,,*63
2023-06-24T17:01:16.4149971Z, 6cda8203-a249-e411-b0cc-f8bc1246af59, $GPGGA,170116.00,4213.2149,N,12451.7799,W,2,11,0.8,24.5,M,-25.3,M,,*66
2023-06-24T17:01:17.3758620Z, 6cda8203-a249-e411-b0cc-f8bc1246af59, $GPGGA,170117.00,4213.2160,N,12451.7799,W,2,11,0.8,24.5,M,-25.3,M,,*6C
2023-06-24T17:01:18.2251499Z, 6cda8203-a249-e411-b0cc-f8bc1246af59, $GPGGA,170118.00,4213.2170,N,12451.7800,W,2,11,0.8,24.4,M,-25.3,M,,*6C
2023-06-24T17:01:20.0850911Z, 6cda8203-a249-e411-b0cc-f8bc1246af59, $GPGGA,170119.00,4213.2180,N,12451.7800,W,2,11,0.8,24.4,M,-25.3,M,,*62
2023-06-24T17:01:20.4156870Z, 6cda8203-a249-e411-b0cc-f8bc1246af59, $GPGGA,170120.00,4213.2191,N,12451.7800,W,2,11,0.8,24.5,M,-25.3,M,,*69
2023-06-24T17:01:21.2261858Z, 6cda8203-a249-e411-b0cc-f8bc1246af59, $GPGGA,170121.00,4213.2202,N,12451.7801,W,2,11,0.8,24.6,M,-25.3,M,,*63
2023-06-24T17:01:23.0860905Z, 6cda8203-a249-e411-b0cc-f8bc1246af59, $GPGGA,170122.00,4213.2213,N,12451.7802,W,2,11,0.8,24.4,M,-25.3,M,,*61
2023-06-24T17:01:23.4156376Z, 6cda8203-a249-e411-b0cc-f8bc1246af59, $GPGGA,170123.00,4213.2224,N,12451.7802,W,2,11,0.8,24.4,M,-25.3,M,,*64
2023-06-24T17:01:24.3754814Z, 6cda8203-a249-e411-b0cc-f8bc1246af59, $GPGGA,170124.00,4213.2234,N,12451.7803,W,2,11,0.8,24.3,M,-25.3,M,,*64
2023-06-24T17:01:25.2357589Z, 6cda8203-a249-e411-b0cc-f8bc1246af59, $GPGGA,170125.00,4213.2244,N,12451.7803,W,2,11,0.8,24.3,M,-25.3,M,,*62
2023-06-24T17:01:27.0956511Z, 6cda8203-a249-e411-b0cc-f8bc1246af59, $GPGGA,170126.00,4213.2255,N,12451.7802,W,2,11,0.8,24.2,M,-25.3,M,,*61
2023-06-24T17:01:27.4162935Z, 6cda8203-a249-e411-b0cc-f8bc1246af59, $GPGGA,170127.00,4213.2265,N,12451.7803,W,2,11,0.8,24.1,M,-25.3,M,,*61
2023-06-24T17:01:28.2357745Z, 6cda8203-a249-e411-b0cc-f8bc1246af59, $GPGGA,170128.00,4213.2276,N,12451.7803,W,2,11,0.8,24.2,M,-25.3,M,,*6F
2023-06-24T17:01:30.0867394Z, 6cda8203-a249-e411-b0cc-f8bc1246af59, $GPGGA,170129.00,4213.2286,N,12451.7803,W,2,11,0.8,24.2,M,-25.3,M,,*61
2023-06-24T17:01:30.4162811Z, 6cda8203-a249-e411-b0cc-f8bc1246af59, $GPGGA,170130.00,4213.2297,N,12451.7803,W,2,11,0.8,24.4,M,-25.3,M,,*6F
2023-06-24T17:01:31.2367793Z, 6cda8203-a249-e411-b0cc-f8bc1246af59, $GPGGA,170131.00,4213.2307,N,12451.7803,W,2,11,0.8,24.4,M,-25.3,M,,*66
2023-06-24T17:01:33.0867035Z, 6cda8203-a249-e411-b0cc-f8bc1246af59, $GPGGA,170132.00,4213.2319,N,12451.7803,W,2,11,0.8,24.5,M,-25.3,M,,*6B
2023-06-24T17:01:33.8663391Z, 6cda8203-a249-e411-b0cc-f8bc1246af59, $GPGGA,170133.00,4213.2331,N,12451.7803,W,2,11,0.8,24.4,M,-25.3,M,,*61
2023-06-24T17:01:34.2367655Z, 6cda8203-a249-e411-b0cc-f8bc1246af59, $GPGGA,170134.00,4213.2342,N,12451.7804,W,2,11,0.8,24.3,M,-25.3,M,,*62
2023-06-24T17:01:36.0866993Z, 6cda8203-a249-e411-b0cc-f8bc1246af59, $GPGGA,170135.00,4213.2352,N,12451.7806,W,2,11,0.8,24.3,M,-25.3,M,,*60
2023-06-24T17:01:36.4162661Z, 6cda8203-a249-e411-b0cc-f8bc1246af59, $GPGGA,170136.00,4213.2362,N,12451.7807,W,2,11,0.8,24.2,M,-25.3,M,,*60
2023-06-24T17:01:37.2367401Z, 6cda8203-a249-e411-b0cc-f8bc1246af59, $GPGGA,170137.00,4213.2373,N,12451.7806,W,2,11,0.8,24.2,M,-25.3,M,,*60
2023-06-24T17:01:38.2364015Z, 6cda8203-a249-e411-b0cc-f8bc1246af59, $GPGGA,170138.00,4213.2384,N,12451.7805,W,2,11,0.8,24.1,M,-25.3,M,,*67
2023-06-24T17:01:40.0873692Z, 6cda8203-a249-e411-b0cc-f8bc1246af59, $GPGGA,170139.00,4213.2395,N,12451.7803,W,2,11,0.8,23.9,M,-25.3,M,,*6F
2023-06-24T17:01:40.4169164Z, 6cda8203-a249-e411-b0cc-f8bc1246af59, $GPGGA,170140.00,4213.2406,N,12451.7803,W,2,11,0.8,23.7,M,-25.3,M,,*62
2023-06-24T17:01:41.2374033Z, 6cda8203-a249-e411-b0cc-f8bc1246af59, $GPGGA,170141.00,4213.2417,N,12451.7804,W,2,11,0.8,23.5,M,-25.3,M,,*66
2023-06-24T17:01:43.0873472Z, 6cda8203-a249-e411-b0cc-f8bc1246af59, $GPGGA,170142.00,4213.2427,N,12451.7805,W,2,11,0.8,23.4,M,-25.3,M,,*66
2023-06-24T17:01:43.4169181Z, 6cda8203-a249-e411-b0cc-f8bc1246af59, $GPGGA,170143.00,4213.2438,N,12451.7805,W,2,11,0.8,23.3,M,-25.3,M,,*6E
2023-06-24T17:01:44.2373872Z, 6cda8203-a249-e411-b0cc-f8bc1246af59, $GPGGA,170144.00,4213.2449,N,12451.7806,W,2,11,0.8,23.2,M,-25.3,M,,*6D
2023-06-24T17:01:46.0972655Z, 6cda8203-a249-e411-b0cc-f8bc1246af59, $GPGGA,170145.00,4213.2460,N,12451.7805,W,2,11,0.8,23.2,M,-25.3,M,,*64
2023-06-24T17:01:46.4179315Z, 6cda8203-a249-e411-b0cc-f8bc1246af59, $GPGGA,170146.00,4213.2471,N,12451.7804,W,2,11,0.8,23.3,M,-25.3,M,,*67
2023-06-24T17:01:47.2373642Z, 6cda8203-a249-e411-b0cc-f8bc1246af59, $GPGGA,170147.00,4213.2483,N,12451.7803,W,2,11,0.8,23.4,M,-25.3,M,,*6B
2023-06-24T17:01:48.2380758Z, 6cda8203-a249-e411-b0cc-f8bc1246af59, $GPGGA,170148.00,4213.2494,N,12451.7805,W,2,11,0.8,23.5,M,-25.3,M,,*65
2023-06-24T17:01:49.4079762Z, 6cda8203-a249-e411-b0cc-f8bc1246af59, $GPGGA,170149.00,4213.2505,N,12451.7807,W,2,11,0.8,23.4,M,-25.3,M,,*6E
2023-06-24T17:01:50.2472820Z, 6cda8203-a249-e411-b0cc-f8bc1246af59, $GPGGA,170150.00,4213.2516,N,12451.7808,W,2,11,0.8,23.3,M,-25.3,M,,*6C
2023-06-24T17:01:51.2479826Z, 6cda8203-a249-e411-b0cc-f8bc1246af59, $GPGGA,170151.00,4213.2527,N,12451.7809,W,2,11,0.8,23.3,M,-25.3,M,,*6E
2023-06-24T17:01:52.8281051Z, 6cda8203-a249-e411-b0cc-f8bc1246af59, $GPGGA,170152.00,4213.2538,N,12451.7808,W,2,11,0.8,23.3,M,-25.3,M,,*62
2023-06-24T17:01:53.2482962Z, 6cda8203-a249-e411-b0cc-f8bc1246af59, $GPGGA,170153.00,4213.2550,N,12451.7809,W,2,11,0.8,23.5,M,-25.3,M,,*6A
2023-06-24T17:01:54.2479849Z, 6cda8203-a249-e411-b0cc-f8bc1246af59, $GPGGA,170154.00,4213.2561,N,12451.7809,W,2,11,0.8,23.6,M,-25.3,M,,*6C
2023-06-24T17:01:56.0879716Z, 6cda8203-a249-e411-b0cc-f8bc1246af59, $GPGGA,170155.00,4213.2572,N,12451.7811,W,2,11,0.8,23.6,M,-25.3,M,,*66
2023-06-24T17:01:56.4185497Z, 6cda8203-a249-e411-b0cc-f8bc1246af59, $GPGGA,170156.00,4213.2584,N,12451.7812,W,2,11,0.8,23.6,M,-25.3,M,,*6F
2023-06-24T17:01:57.2479489Z, 6cda8203-a249-e411-b0cc-f8bc1246af59, $GPGGA,170157.00,4213.2595,N,12451.7813,W,2,11,0.8,23.6,M,-25.3,M,,*6F
2023-06-24T17:01:59.0879496Z, 6cda8203-a249-e411-b0cc-f8bc1246af59, $GPGGA,170158.00,4213.2606,N,12451.7814,W,2,11,0.8,23.4,M,-25.3,M,,*6C
2023-06-24T17:01:59.4185323Z, 6cda8203-a249-e411-b0cc-f8bc1246af59, $GPGGA,170159.00,4213.2617,N,12451.7813,W,2,11,0.8,23.2,M,-25.3,M,,*6C
2023-06-24T17:02:00.2479504Z, 6cda8203-a249-e411-b0cc-f8bc1246af59, $GPGGA,170200.00,4213.2629,N,12451.7813,W,2,11,0.8,23.2,M,-25.3,M,,*6E
2023-06-24T17:02:01.4188469Z, 6cda8203-a249-e411-b0cc-f8bc1246af59, $GPGGA,170201.00,4213.2641,N,12451.7814,W,2,11,0.8,23.2,M,-25.3,M,,*66
2023-06-24T17:02:02.2482692Z, 6cda8203-a249-e411-b0cc-f8bc1246af59, $GPGGA,170202.00,4213.2652,N,12451.7815,W,2,11,0.8,23.2,M,-25.3,M,,*66
2023-06-24T17:02:03.3783209Z, 6cda8203-a249-e411-b0cc-f8bc1246af59, $GPGGA,170203.00,4213.2663,N,12451.7815,W,2,11,0.8,23.4,M,-25.3,M,,*63
2023-06-24T17:02:04.2486229Z, 6cda8203-a249-e411-b0cc-f8bc1246af59, $GPGGA,170204.00,4213.2673,N,12451.7815,W,2,11,0.8,23.7,M,-25.3,M,,*66
2023-06-24T17:02:05.4184794Z, 6cda8203-a249-e411-b0cc-f8bc1246af59, $GPGGA,170205.00,4213.2685,N,12451.7815,W,2,11,0.8,23.9,M,-25.3,M,,*60
2023-06-24T17:02:06.2489430Z, 6cda8203-a249-e411-b0cc-f8bc1246af59, $GPGGA,170206.00,4213.2698,N,12451.7817,W,2,11,0.8,23.8,M,-25.3,M,,*6C
2023-06-24T17:02:07.2585193Z, 6cda8203-a249-e411-b0cc-f8bc1246af59, $GPGGA,170207.00,4213.2710,N,12451.7819,W,2,11,0.8,23.5,M,-25.3,M,,*6F
2023-06-24T17:02:08.4185012Z, 6cda8203-a249-e411-b0cc-f8bc1246af59, $GPGGA,170208.00,4213.2721,N,12451.7822,W,2,11,0.8,23.5,M,-25.3,M,,*6A
2023-06-24T17:02:09.2489181Z, 6cda8203-a249-e411-b0cc-f8bc1246af59, $GPGGA,170209.00,4213.2731,N,12451.7823,W,2,11,0.8,23.7,M,-25.3,M,,*69
2023-06-24T17:02:10.2595299Z, 6cda8203-a249-e411-b0cc-f8bc1246af59, $GPGGA,170210.00,4213.2742,N,12451.7823,W,2,11,0.8,23.8,M,-25.3,M,,*6A
2023-06-24T17:02:11.7789389Z, 6cda8203-a249-e411-b0cc-f8bc1246af59, $GPGGA,170211.00,4213.2754,N,12451.7822,W,2,11,0.8,23.7,M,-25.3,M,,*62
2023-06-24T17:02:12.2588254Z, 6cda8203-a249-e411-b0cc-f8bc1246af59, $GPGGA,170212.00,4213.2765,N,12451.7823,W,2,11,0.8,23.5,M,-25.3,M,,*60
2023-06-24T17:02:13.2594955Z, 6cda8203-a249-e411-b0cc-f8bc1246af59, $GPGGA,170213.00,4213.2776,N,12451.7823,W,2,11,0.8,23.6,M,-25.3,M,,*60
2023-06-24T17:02:14.4194960Z, 6cda8203-a249-e411-b0cc-f8bc1246af59, $GPGGA,170214.00,4213.2787,N,12451.7823,W,2,11,0.8,23.9,M,-25.3,M,,*66
2023-06-24T17:02:15.2698310Z, 6cda8203-a249-e411-b0cc-f8bc1246af59, $GPGGA,170215.00,4213.2798,N,12451.7823,W,2,11,0.8,24.1,M,-25.3,M,,*66
2023-06-24T17:02:16.2595297Z, 6cda8203-a249-e411-b0cc-f8bc1246af59, $GPGGA,170216.00,4213.2809,N,12451.7824,W,2,11,0.8,24.2,M,-25.3,M,,*66
2023-06-24T17:02:17.2591912Z, 6cda8203-a249-e411-b0cc-f8bc1246af59, $GPGGA,170217.00,4213.2821,N,12451.7827,W,2,11,0.8,24.1,M,-25.3,M,,*6D
2023-06-24T17:02:18.8194006Z, 6cda8203-a249-e411-b0cc-f8bc1246af59, $GPGGA,170218.00,4213.2833,N,12451.7829,W,2,11,0.8,24.0,M,-25.3,M,,*6E
2023-06-24T17:02:19.2595108Z, 6cda8203-a249-e411-b0cc-f8bc1246af59, $GPGGA,170219.00,4213.2845,N,12451.7831,W,2,11,0.8,24.2,M,-25.3,M,,*65
2023-06-24T17:02:20.2602045Z, 6cda8203-a249-e411-b0cc-f8bc1246af59, $GPGGA,170220.00,4213.2855,N,12451.7831,W,2,11,0.8,24.5,M,-25.3,M,,*69
2023-06-24T17:02:21.4201199Z, 6cda8203-a249-e411-b0cc-f8bc1246af59, $GPGGA,170221.00,4213.2866,N,12451.7832,W,2,11,0.8,24.6,M,-25.3,M,,*68
2023-06-24T17:02:22.2595074Z, 6cda8203-a249-e411-b0cc-f8bc1246af59, $GPGGA,170222.00,4213.2879,N,12451.7833,W,2,11,0.8,24.6,M,-25.3,M,,*64
2023-06-24T17:02:23.2601761Z, 6cda8203-a249-e411-b0cc-f8bc1246af59, $GPGGA,170223.00,4213.2891,N,12451.7834,W,2,11,0.8,24.5,M,-25.3,M,,*67
2023-06-24T17:02:25.0105808Z, 6cda8203-a249-e411-b0cc-f8bc1246af59, $GPGGA,170224.00,4213.2903,N,12451.7835,W,2,11,0.8,24.5,M,-25.3,M,,*6B
2023-06-24T17:02:25.6696732Z, 6cda8203-a249-e411-b0cc-f8bc1246af59, $GPGGA,170225.00,4213.2914,N,12451.7836,W,2,11,0.8,24.7,M,-25.3,M,,*6D
2023-06-24T17:02:26.2601406Z, 6cda8203-a249-e411-b0cc-f8bc1246af59, $GPGGA,170226.00,4213.2924,N,12451.7836,W,2,11,0.8,24.8,M,-25.3,M,,*62
2023-06-24T17:02:28.0404404Z, 6cda8203-a249-e411-b0cc-f8bc1246af59, $GPGGA,170227.00,4213.2935,N,12451.7835,W,2,11,0.8,24.8,M,-25.3,M,,*60
2023-06-24T17:02:28.6408522Z, 6cda8203-a249-e411-b0cc-f8bc1246af59, $GPGGA,170228.00,4213.2947,N,12451.7836,W,2,11,0.8,24.8,M,-25.3,M,,*69
2023-06-24T17:02:29.2601287Z, 6cda8203-a249-e411-b0cc-f8bc1246af59, $GPGGA,170229.00,4213.2958,N,12451.7838,W,2,11,0.8,24.7,M,-25.3,M,,*67
2023-06-24T17:02:30.2608255Z, 6cda8203-a249-e411-b0cc-f8bc1246af59, $GPGGA,170230.00,4213.2970,N,12451.7838,W,2,11,0.8,24.6,M,-25.3,M,,*64
2023-06-24T17:02:31.9305395Z, 6cda8203-a249-e411-b0cc-f8bc1246af59, $GPGGA,170231.00,4213.2981,N,12451.7839,W,2,11,0.8,24.8,M,-25.3,M,,*64
2023-06-24T17:02:32.2611536Z, 6cda8203-a249-e411-b0cc-f8bc1246af59, $GPGGA,170232.00,4213.2991,N,12451.7841,W,2,11,0.8,24.8,M,-25.3,M,,*69
2023-06-24T17:02:33.3803423Z, 6cda8203-a249-e411-b0cc-f8bc1246af59, $GPGGA,170233.00,4213.3001,N,12451.7841,W,2,11,0.8,24.7,M,-25.3,M,,*66
2023-06-24T17:02:34.8410568Z, 6cda8203-a249-e411-b0cc-f8bc1246af59, $GPGGA,170234.00,4213.3014,N,12451.7841,W,2,11,0.8,24.7,M,-25.3,M,,*65
2023-06-24T17:02:36.0906157Z, 6cda8203-a249-e411-b0cc-f8bc1246af59, $GPGGA,170235.00,4213.3026,N,12451.7840,W,2,11,0.8,24.5,M,-25.3,M,,*66
2023-06-24T17:02:36.4211875Z, 6cda8203-a249-e411-b0cc-f8bc1246af59, $GPGGA,170236.00,4213.3038,N,12451.7840,W,2,11,0.8,24.2,M,-25.3,M,,*6D
2023-06-24T17:02:38.1008900Z, 6cda8203-a249-e411-b0cc-f8bc1246af59, $GPGGA,170237.00,4213.3049,N,12451.7841,W,2,11,0.8,24.2,M,-25.3,M,,*6B
2023-06-24T17:02:38.4215338Z, 6cda8203-a249-e411-b0cc-f8bc1246af59, $GPGGA,170238.00,4213.3059,N,12451.7842,W,2,11,0.8,24.3,M,-25.3,M,,*67
2023-06-24T17:02:40.0912934Z, 6cda8203-a249-e411-b0cc-f8bc1246af59, $GPGGA,170239.00,4213.3071,N,12451.7842,W,2,11,0.8,24.4,M,-25.3,M,,*6B
2023-06-24T17:02:40.4208539Z, 6cda8203-a249-e411-b0cc-f8bc1246af59, $GPGGA,170240.00,4213.3083,N,12451.7842,W,2,11,0.8,24.5,M,-25.3,M,,*69
2023-06-24T17:02:41.2213815Z, 6cda8203-a249-e411-b0cc-f8bc1246af59, $GPGGA,170241.00,4213.3094,N,12451.7842,W,2,11,0.8,24.4,M,-25.3,M,,*6F
2023-06-24T17:02:43.0912626Z, 6cda8203-a249-e411-b0cc-f8bc1246af59, $GPGGA,170242.00,4213.3105,N,12451.7842,W,2,11,0.8,24.3,M,-25.3,M,,*62
2023-06-24T17:02:43.4218513Z, 6cda8203-a249-e411-b0cc-f8bc1246af59, $GPGGA,170243.00,4213.3116,N,12451.7844,W,2,11,0.8,24.1,M,-25.3,M,,*65
2023-06-24T17:02:45.0910813Z, 6cda8203-a249-e411-b0cc-f8bc1246af59, $GPGGA,170244.00,4213.3127,N,12451.7845,W,2,11,0.8,24.1,M,-25.3,M,,*61
2023-06-24T17:02:45.4216633Z, 6cda8203-a249-e411-b0cc-f8bc1246af59, $GPGGA,170245.00,4213.3137,N,12451.7846,W,2,11,0.8,24.1,M,-25.3,M,,*62
2023-06-24T17:02:47.0914065Z, 6cda8203-a249-e411-b0cc-f8bc1246af59, $GPGGA,170246.00,4213.3148,N,12451.7845,W,2,11,0.8,24.1,M,-25.3,M,,*6A
2023-06-24T17:02:47.4219896Z, 6cda8203-a249-e411-b0cc-f8bc1246af59, $GPGGA,170247.00,4213.3160,N,12451.7844,W,2,11,0.8,24.0,M,-25.3,M,,*61
2023-06-24T17:02:49.0918613Z, 6cda8203-a249-e411-b0cc-f8bc1246af59, $GPGGA,170248.00,4213.3171,N,12451.7844,W,2,11,0.8,23.8,M,-25.3,M,,*61
2023-06-24T17:02:49.8515516Z, 6cda8203-a249-e411-b0cc-f8bc1246af59, $GPGGA,170249.00,4213.3182,N,12451.7845,W,2,11,0.8,23.7,M,-25.3,M,,*62
2023-06-24T17:02:51.0921846Z, 6cda8203-a249-e411-b0cc-f8bc1246af59, $GPGGA,170250.00,4213.3193,N,12451.7845,W,2,11,0.8,23.6,M,-25.3,M,,*6B
2023-06-24T17:02:51.4217407Z, 6cda8203-a249-e411-b0cc-f8bc1246af59, $GPGGA,170251.00,4213.3204,N,12451.7844,W,2,11,0.8,23.8,M,-25.3,M,,*68
2023-06-24T17:02:53.0916081Z, 6cda8203-a249-e411-b0cc-f8bc1246af59, $GPGGA,170252.00,4213.3216,N,12451.7843,W,2,11,0.8,23.8,M,-25.3,M,,*6F
2023-06-24T17:02:53.4221794Z, 6cda8203-a249-e411-b0cc-f8bc1246af59, $GPGGA,170253.00,4213.3227,N,12451.7843,W,2,11,0.8,23.8,M,-25.3,M,,*6C
2023-06-24T17:02:55.1924773Z, 6cda8203-a249-e411-b0cc-f8bc1246af59, $GPGGA,170254.00,4213.3239,N,12451.7844,W,2,11,0.8,23.7,M,-25.3,M,,*6C
2023-06-24T17:02:55.6325710Z, 6cda8203-a249-e411-b0cc-f8bc1246af59, $GPGGA,170255.00,4213.3251,N,12451.7844,W,2,11,0.8,23.6,M,-25.3,M,,*62
2023-06-24T17:02:56.2220409Z, 6cda8203-a249-e411-b0cc-f8bc1246af59, $GPGGA,170256.00,4213.3262,N,12451.7845,W,2,11,0.8,23.5,M,-25.3,M,,*63
2023-06-24T17:02:58.0923966Z, 6cda8203-a249-e411-b0cc-f8bc1246af59, $GPGGA,170257.00,4213.3273,N,12451.7846,W,2,11,0.8,23.4,M,-25.3,M,,*60
2023-06-24T17:02:58.4229955Z, 6cda8203-a249-e411-b0cc-f8bc1246af59, $GPGGA,170258.00,4213.3284,N,12451.7848,W,2,11,0.8,23.2,M,-25.3,M,,*6F
2023-06-24T17:03:00.0927503Z, 6cda8203-a249-e411-b0cc-f8bc1246af59, $GPGGA,170259.00,4213.3295,N,12451.7848,W,2,11,0.8,23.1,M,-25.3,M,,*6D
2023-06-24T17:03:00.4223036Z, 6cda8203-a249-e411-b0cc-f8bc1246af59, $GPGGA,170300.00,4213.3307,N,12451.7848,W,2,11,0.8,23.1,M,-25.3,M,,*6A
2023-06-24T17:03:02.0932059Z, 6cda8203-a249-e411-b0cc-f8bc1246af59, $GPGGA,170301.00,4213.3318,N,12451.7847,W,2,11,0.8,23.2,M,-25.3,M,,*69
2023-06-24T17:03:02.4227551Z, 6cda8203-a249-e411-b0cc-f8bc1246af59, $GPGGA,170302.00,4213.3329,N,12451.7846,W,2,11,0.8,23.3,M,-25.3,M,,*68
2023-06-24T17:03:03.2631196Z, 6cda8203-a249-e411-b0cc-f8bc1246af59, $GPGGA,170303.00,4213.3340,N,12451.7845,W,2,11,0.8,23.4,M,-25.3,M,,*62
2023-06-24T17:03:05.0933713Z, 6cda8203-a249-e411-b0cc-f8bc1246af59, $GPGGA,170304.00,4213.3352,N,12451.7845,W,2,11,0.8,23.4,M,-25.3,M,,*66
2023-06-24T17:03:05.4229136Z, 6cda8203-a249-e411-b0cc-f8bc1246af59, $GPGGA,170305.00,4213.3364,N,12451.7845,W,2,11,0.8,23.3,M,-25.3,M,,*65
2023-06-24T17:03:07.0931404Z, 6cda8203-a249-e411-b0cc-f8bc1246af59, $GPGGA,170306.00,4213.3376,N,12451.7846,W,2,11,0.8,23.2,M,-25.3,M,,*67
2023-06-24T17:03:07.4226996Z, 6cda8203-a249-e411-b0cc-f8bc1246af59, $GPGGA,170307.00,4213.3387,N,12451.7847,W,2,11,0.8,23.1,M,-25.3,M,,*6A
2023-06-24T17:03:09.0935154Z, 6cda8203-a249-e411-b0cc-f8bc1246af59, $GPGGA,170308.00,4213.3398,N,12451.7848,W,2,11,0.8,23.0,M,-25.3,M,,*65
2023-06-24T17:03:09.4230796Z, 6cda8203-a249-e411-b0cc-f8bc1246af59, $GPGGA,170309.00,4213.3409,N,12451.7847,W,2,11,0.8,22.8,M,-25.3,M,,*6D
2023-06-24T17:03:11.0930248Z, 6cda8203-a249-e411-b0cc-f8bc1246af59, $GPGGA,170310.00,4213.3420,N,12451.7848,W,2,11,0.8,22.6,M,-25.3,M,,*6F
2023-06-24T17:03:11.4235895Z, 6cda8203-a249-e411-b0cc-f8bc1246af59, $GPGGA,170311.00,4213.3431,N,12451.7849,W,2,11,0.8,22.4,M,-25.3,M,,*6D
2023-06-24T17:03:13.0933551Z, 6cda8203-a249-e411-b0cc-f8bc1246af59, $GPGGA,170312.00,4213.3441,N,12451.7851,W,2,11,0.8,22.3,M,-25.3,M,,*67
2023-06-24T17:03:13.4239271Z, 6cda8203-a249-e411-b0cc-f8bc1246af59, $GPGGA,170313.00,4213.3453,N,12451.7851,W,2,11,0.8,22.3,M,-25.3,M,,*65
2023-06-24T17:03:15.0933116Z, 6cda8203-a249-e411-b0cc-f8bc1246af59, $GPGGA,170314.00,4213.3464,N,12451.7849,W,2,11,0.8,22.3,M,-25.3,M,,*6F
2023-06-24T17:03:15.4238832Z, 6cda8203-a249-e411-b0cc-f8bc1246af59, $GPGGA,170315.00,4213.3475,N,12451.7848,W,2,11,0.8,22.6,M,-25.3,M,,*6A
2023-06-24T17:03:16.2333663Z, 6cda8203-a249-e411-b0cc-f8bc1246af59, $GPGGA,170316.00,4213.3486,N,12451.7848,W,2,11,0.8,22.8,M,-25.3,M,,*6B
2023-06-24T17:03:18.0943305Z, 6cda8203-a249-e411-b0cc-f8bc1246af59, $GPGGA,170317.00,4213.3497,N,12451.7848,W,2,11,0.8,22.8,M,-25.3,M,,*6A
2023-06-24T17:03:18.8844401Z, 6cda8203-a249-e411-b0cc-f8bc1246af59, $GPGGA,170318.00,4213.3510,N,12451.7849,W,2,11,0.8,22.8,M,-25.3,M,,*6A
2023-06-24T17:03:20.0941526Z, 6cda8203-a249-e411-b0cc-f8bc1246af59, $GPGGA,170319.00,4213.3521,N,12451.7851,W,2,11,0.8,22.7,M,-25.3,M,,*6F
2023-06-24T17:03:20.4238472Z, 6cda8203-a249-e411-b0cc-f8bc1246af59, $GPGGA,170320.00,4213.3532,N,12451.7852,W,2,11,0.8,22.5,M,-25.3,M,,*66
2023-06-24T17:03:22.0946263Z, 6cda8203-a249-e411-b0cc-f8bc1246af59, $GPGGA,170321.00,4213.3544,N,12451.7853,W,2,11,0.8,22.4,M,-25.3,M,,*66
2023-06-24T17:03:22.4241762Z, 6cda8203-a249-e411-b0cc-f8bc1246af59, $GPGGA,170322.00,4213.3555,N,12451.7853,W,2,11,0.8,22.3,M,-25.3,M,,*62
2023-06-24T17:03:24.1940680Z, 6cda8203-a249-e411-b0cc-f8bc1246af59, $GPGGA,170323.00,4213.3567,N,12451.7854,W,2,11,0.8,22.4,M,-25.3,M,,*62
2023-06-24T17:03:24.6939010Z, 6cda8203-a249-e411-b0cc-f8bc1246af59, $GPGGA,170324.00,4213.3579,N,12451.7853,W,2,11,0.8,22.3,M,-25.3,M,,*6A
2023-06-24T17:03:25.3839143Z, 6cda8203-a249-e411-b0cc-f8bc1246af59, $GPGGA,170325.00,4213.3591,N,12451.7852,W,2,11,0.8,22.2,M,-25.3,M,,*6D
2023-06-24T17:03:26.2343483Z, 6cda8203-a249-e411-b0cc-f8bc1246af59, $GPGGA,170326.00,4213.3603,N,12451.7852,W,2,11,0.8,22.3,M,-25.3,M,,*67
2023-06-24T17:03:28.0945710Z, 6cda8203-a249-e411-b0cc-f8bc1246af59, $GPGGA,170327.00,4213.3614,N,12451.7853,W,2,11,0.8,22.3,M,-25.3,M,,*61
2023-06-24T17:03:28.4241567Z, 6cda8203-a249-e411-b0cc-f8bc1246af59, $GPGGA,170328.00,4213.3625,N,12451.7854,W,2,11,0.8,22.5,M,-25.3,M,,*6D
2023-06-24T17:03:29.2346407Z, 6cda8203-a249-e411-b0cc-f8bc1246af59, $GPGGA,170329.00,4213.3637,N,12451.7855,W,2,11,0.8,22.8,M,-25.3,M,,*63
2023-06-24T17:03:31.0945641Z, 6cda8203-a249-e411-b0cc-f8bc1246af59, $GPGGA,170330.00,4213.3648,N,12451.7856,W,2,11,0.8,22.9,M,-25.3,M,,*61
2023-06-24T17:03:31.4251661Z, 6cda8203-a249-e411-b0cc-f8bc1246af59, $GPGGA,170331.00,4213.3659,N,12451.7855,W,2,11,0.8,22.9,M,-25.3,M,,*63
2023-06-24T17:03:33.0947190Z, 6cda8203-a249-e411-b0cc-f8bc1246af59, $GPGGA,170332.00,4213.3671,N,12451.7856,W,2,11,0.8,23.0,M,-25.3,M,,*61
2023-06-24T17:03:33.4252977Z, 6cda8203-a249-e411-b0cc-f8bc1246af59, $GPGGA,170333.00,4213.3682,N,12451.7856,W,2,11,0.8,23.0,M,-25.3,M,,*6C
2023-06-24T17:03:35.0950403Z, 6cda8203-a249-e411-b0cc-f8bc1246af59, $GPGGA,170334.00,4213.3693,N,12451.7856,W,2,11,0.8,23.1,M,-25.3,M,,*6A
2023-06-24T17:03:35.4246152Z, 6cda8203-a249-e411-b0cc-f8bc1246af59, $GPGGA,170335.00,4213.3705,N,12451.7856,W,2,11,0.8,23.1,M,-25.3,M,,*65
2023-06-24T17:03:36.6953147Z, 6cda8203-a249-e411-b0cc-f8bc1246af59, $GPGGA,170336.00,4213.3716,N,12451.7855,W,2,11,0.8,23.1,M,-25.3,M,,*67
2023-06-24T17:03:38.0953279Z, 6cda8203-a249-e411-b0cc-f8bc1246af59, $GPGGA,170337.00,4213.3730,N,12451.7855,W,2,11,0.8,23.3,M,-25.3,M,,*60
2023-06-24T17:03:38.4248931Z, 6cda8203-a249-e411-b0cc-f8bc1246af59, $GPGGA,170338.00,4213.3742,N,12451.7856,W,2,11,0.8,23.3,M,-25.3,M,,*69
2023-06-24T17:03:39.2455662Z, 6cda8203-a249-e411-b0cc-f8bc1246af59, $GPGGA,170339.00,4213.3753,N,12451.7857,W,2,11,0.8,23.3,M,-25.3,M,,*69
2023-06-24T17:03:41.0955815Z, 6cda8203-a249-e411-b0cc-f8bc1246af59, $GPGGA,170340.00,4213.3764,N,12451.7858,W,2,11,0.8,23.5,M,-25.3,M,,*6A
2023-06-24T17:03:41.4251353Z, 6cda8203-a249-e411-b0cc-f8bc1246af59, $GPGGA,170341.00,4213.3776,N,12451.7859,W,2,11,0.8,23.5,M,-25.3,M,,*69
2023-06-24T17:03:42.7951949Z, 6cda8203-a249-e411-b0cc-f8bc1246af59, $GPGGA,170342.00,4213.3788,N,12451.7861,W,2,10,0.8,23.2,M,-25.3,M,,*66
2023-06-24T17:03:44.0955682Z, 6cda8203-a249-e411-b0cc-f8bc1246af59, $GPGGA,170343.00,4213.3799,N,12451.7862,W,2,10,0.8,23.0,M,-25.3,M,,*66
2023-06-24T17:03:44.4261553Z, 6cda8203-a249-e411-b0cc-f8bc1246af59, $GPGGA,170344.00,4213.3810,N,12451.7862,W,2,10,0.8,23.0,M,-25.3,M,,*6F
2023-06-24T17:03:45.4158754Z, 6cda8203-a249-e411-b0cc-f8bc1246af59, $GPGGA,170345.00,4213.3821,N,12451.7862,W,2,10,0.8,23.2,M,-25.3,M,,*6E
2023-06-24T17:03:46.2463343Z, 6cda8203-a249-e411-b0cc-f8bc1246af59, $GPGGA,170346.00,4213.3831,N,12451.7860,W,2,10,0.8,23.5,M,-25.3,M,,*69
2023-06-24T17:03:48.2759672Z, 6cda8203-a249-e411-b0cc-f8bc1246af59, $GPGGA,170347.00,4213.3843,N,12451.7859,W,2,10,0.8,23.5,M,-25.3,M,,*67
2023-06-24T17:03:48.6564488Z, 6cda8203-a249-e411-b0cc-f8bc1246af59, $GPGGA,170348.00,4213.3855,N,12451.7858,W,2,10,0.8,23.2,M,-25.3,M,,*69
2023-06-24T17:03:49.2459337Z, 6cda8203-a249-e411-b0cc-f8bc1246af59, $GPGGA,170349.00,4213.3866,N,12451.7859,W,2,11,0.8,23.0,M,-25.3,M,,*6A
2023-06-24T17:03:51.0963998Z, 6cda8203-a249-e411-b0cc-f8bc1246af59, $GPGGA,170350.00,4213.3877,N,12451.7861,W,2,11,0.8,23.0,M,-25.3,M,,*69
2023-06-24T17:03:51.4259703Z, 6cda8203-a249-e411-b0cc-f8bc1246af59, $GPGGA,170351.00,4213.3888,N,12451.7863,W,2,11,0.8,23.1,M,-25.3,M,,*6B
2023-06-24T17:03:52.2464511Z, 6cda8203-a249-e411-b0cc-f8bc1246af59, $GPGGA,170352.00,4213.3899,N,12451.7864,W,2,11,0.8,23.0,M,-25.3,M,,*6E
2023-06-24T17:03:54.2766207Z, 6cda8203-a249-e411-b0cc-f8bc1246af59, $GPGGA,170353.00,4213.3911,N,12451.7863,W,2,11,0.8,23.0,M,-25.3,M,,*69
2023-06-24T17:03:54.6559412Z, 6cda8203-a249-e411-b0cc-f8bc1246af59, $GPGGA,170354.00,4213.3922,N,12451.7863,W,2,11,0.8,23.0,M,-25.3,M,,*6E
2023-06-24T17:03:55.2464737Z, 6cda8203-a249-e411-b0cc-f8bc1246af59, $GPGGA,170355.00,4213.3932,N,12451.7864,W,2,11,0.8,23.0,M,-25.3,M,,*69
2023-06-24T17:03:56.2570620Z, 6cda8203-a249-e411-b0cc-f8bc1246af59, $GPGGA,170356.00,4213.3943,N,12451.7864,W,2,11,0.8,23.1,M,-25.3,M,,*6D
2023-06-24T17:03:58.0970633Z, 6cda8203-a249-e411-b0cc-f8bc1246af59, $GPGGA,170357.00,4213.3954,N,12451.7865,W,2,10,0.8,22.8,M,-25.3,M,,*62
2023-06-24T17:03:58.4266082Z, 6cda8203-a249-e411-b0cc-f8bc1246af59, $GPGGA,170358.00,4213.3965,N,12451.7867,W,2,10,0.8,22.6,M,-25.3,M,,*63
2023-06-24T17:03:59.2570059Z, 6cda8203-a249-e411-b0cc-f8bc1246af59, $GPGGA,170359.00,4213.3975,N,12451.7870,W,2,10,0.8,22.5,M,-25.3,M,,*66
2023-06-24T17:04:01.0970432Z, 6cda8203-a249-e411-b0cc-f8bc1246af59, $GPGGA,170400.00,4213.3985,N,12451.7871,W,2,10,0.8,22.5,M,-25.3,M,,*63
2023-06-24T17:04:01.4265896Z, 6cda8203-a249-e411-b0cc-f8bc1246af59, $GPGGA,170401.00,4213.3996,N,12451.7873,W,2,11,0.8,22.7,M,-25.3,M,,*61
2023-06-24T17:04:02.2570341Z, 6cda8203-a249-e411-b0cc-f8bc1246af59, $GPGGA,170402.00,4213.4006,N,12451.7874,W,2,11,0.8,22.9,M,-25.3,M,,*6C
2023-06-24T17:04:04.0970250Z, 6cda8203-a249-e411-b0cc-f8bc1246af59, $GPGGA,170403.00,4213.4017,N,12451.7874,W,2,11,0.8,23.1,M,-25.3,M,,*64
2023-06-24T17:04:04.4276109Z, 6cda8203-a249-e411-b0cc-f8bc1246af59, $GPGGA,170404.00,4213.4028,N,12451.7874,W,2,11,0.8,23.2,M,-25.3,M,,*6C
2023-06-24T17:04:05.2570093Z, 6cda8203-a249-e411-b0cc-f8bc1246af59, $GPGGA,170405.00,4213.4038,N,12451.7875,W,2,10,0.8,23.3,M,-25.3,M,,*6D
2023-06-24T17:04:06.8970036Z, 6cda8203-a249-e411-b0cc-f8bc1246af59, $GPGGA,170406.00,4213.4048,N,12451.7876,W,2,09,0.8,23.2,M,-25.3,M,,*63
2023-06-24T17:04:07.4177940Z, 6cda8203-a249-e411-b0cc-f8bc1246af59, $GPGGA,170407.00,4213.4059,N,12451.7878,W,2,09,0.8,23.2,M,-25.3,M,,*6C
2023-06-24T17:04:08.2554553Z, 6cda8203-a249-e411-b0cc-f8bc1246af59, $GPGGA,170408.00,4213.4070,N,12451.7879,W,2,10,0.8,23.1,M,-25.3,M,,*62
2023-06-24T17:04:09.2491086Z, 6cda8203-a249-e411-b0cc-f8bc1246af59, $GPGGA,170409.00,4213.4081,N,12451.7878,W,2,10,0.8,23.0,M,-25.3,M,,*6D
2023-06-24T17:04:10.4136297Z, 6cda8203-a249-e411-b0cc-f8bc1246af59, $GPGGA,170410.00,4213.4090,N,12451.7879,W,2,11,0.8,22.9,M,-25.3,M,,*6D
2023-06-24T17:04:11.2540624Z, 6cda8203-a249-e411-b0cc-f8bc1246af59, $GPGGA,170411.00,4213.4099,N,12451.7878,W,2,11,0.8,22.8,M,-25.3,M,,*65
2023-06-24T17:04:12.2437757Z, 6cda8203-a249-e411-b0cc-f8bc1246af59, $GPGGA,170412.00,4213.4108,N,12451.7876,W,2,11,0.8,22.5,M,-25.3,M,,*6C
2023-06-24T17:04:13.7033644Z, 6cda8203-a249-e411-b0cc-f8bc1246af59, $GPGGA,170413.00,4213.4117,N,12451.7874,W,2,11,0.8,22.0,M,-25.3,M,,*64
2023-06-24T17:04:14.4033702Z, 6cda8203-a249-e411-b0cc-f8bc1246af59, $GPGGA,170414.00,4213.4125,N,12451.7873,W,2,11,0.8,21.7,M,-25.3,M,,*61
2023-06-24T17:04:15.2437559Z, 6cda8203-a249-e411-b0cc-f8bc1246af59, $GPGGA,170415.00,4213.4133,N,12451.7870,W,2,11,0.8,21.6,M,-25.3,M,,*65
2023-06-24T17:04:16.2444267Z, 6cda8203-a249-e411-b0cc-f8bc1246af59, $GPGGA,170416.00,4213.4141,N,12451.7868,W,2,10,0.8,21.7,M,-25.3,M,,*6A
2023-06-24T17:04:18.0844047Z, 6cda8203-a249-e411-b0cc-f8bc1246af59, $GPGGA,170417.00,4213.4148,N,12451.7864,W,2,10,0.8,21.8,M,-25.3,M,,*61
2023-06-24T17:04:18.4139313Z, 6cda8203-a249-e411-b0cc-f8bc1246af59, $GPGGA,170418.00,4213.4155,N,12451.7860,W,2,11,0.8,21.7,M,-25.3,M,,*68
2023-06-24T17:04:19.8337907Z, 6cda8203-a249-e411-b0cc-f8bc1246af59, $GPGGA,170419.00,4213.4163,N,12451.7856,W,2,11,0.8,21.6,M,-25.3,M,,*68
2023-06-24T17:04:20.2440316Z, 6cda8203-a249-e411-b0cc-f8bc1246af59, $GPGGA,170420.00,4213.4170,N,12451.7854,W,2,11,0.8,21.4,M,-25.3,M,,*60
2023-06-24T17:04:21.4139170Z, 6cda8203-a249-e411-b0cc-f8bc1246af59, $GPGGA,170421.00,4213.4178,N,12451.7852,W,2,11,0.8,21.4,M,-25.3,M,,*6F
2023-06-24T17:04:22.2444234Z, 6cda8203-a249-e411-b0cc-f8bc1246af59, $GPGGA,170422.00,4213.4186,N,12451.7848,W,2,11,0.8,21.5,M,-25.3,M,,*67
2023-06-24T17:04:23.2539869Z, 6cda8203-a249-e411-b0cc-f8bc1246af59, $GPGGA,170423.00,4213.4194,N,12451.7844,W,2,11,0.8,21.4,M,-25.3,M,,*68
2023-06-24T17:04:24.4183104Z, 6cda8203-a249-e411-b0cc-f8bc1246af59, $GPGGA,170424.00,4213.4201,N,12451.7838,W,2,11,0.8,21.4,M,-25.3,M,,*6B
2023-06-24T17:04:25.2444036Z, 6cda8203-a249-e411-b0cc-f8bc1246af59, $GPGGA,170425.00,4213.4206,N,12451.7831,W,2,11,0.8,21.6,M,-25.3,M,,*66
2023-06-24T17:04:26.6542452Z, 6cda8203-a249-e411-b0cc-f8bc1246af59, $GPGGA,170426.00,4213.4212,N,12451.7825,W,2,11,0.8,21.7,M,-25.3,M,,*64
2023-06-24T17:04:27.2447238Z, 6cda8203-a249-e411-b0cc-f8bc1246af59, $GPGGA,170427.00,4213.4220,N,12451.7821,W,2,11,0.8,21.5,M,-25.3,M,,*62
2023-06-24T17:04:28.4146035Z, 6cda8203-a249-e411-b0cc-f8bc1246af59, $GPGGA,170428.00,4213.4227,N,12451.7817,W,2,11,0.8,21.6,M,-25.3,M,,*6C
2023-06-24T17:04:29.2450594Z, 6cda8203-a249-e411-b0cc-f8bc1246af59, $GPGGA,170429.00,4213.4233,N,12451.7810,W,2,11,0.8,21.7,M,-25.3,M,,*6E
2023-06-24T17:04:30.2546366Z, 6cda8203-a249-e411-b0cc-f8bc1246af59, $GPGGA,170430.00,4213.4238,N,12451.7804,W,2,11,0.8,21.9,M,-25.3,M,,*66
2023-06-24T17:04:31.2254761Z, 6cda8203-a249-e411-b0cc-f8bc1246af59, $GPGGA,170431.00,4213.4244,N,12451.7799,W,2,10,0.8,21.7,M,-25.3,M,,*68
2023-06-24T17:04:32.2549841Z, 6cda8203-a249-e411-b0cc-f8bc1246af59, $GPGGA,170432.00,4213.4250,N,12451.7795,W,2,10,0.8,21.5,M,-25.3,M,,*60
2023-06-24T17:04:33.2855602Z, 6cda8203-a249-e411-b0cc-f8bc1246af59, $GPGGA,170433.00,4213.4256,N,12451.7790,W,2,11,0.8,21.4,M,-25.3,M,,*62
2023-06-24T17:04:34.4156246Z, 6cda8203-a249-e411-b0cc-f8bc1246af59, $GPGGA,170434.00,4213.4261,N,12451.7783,W,2,11,0.8,21.5,M,-25.3,M,,*62
2023-06-24T17:04:35.4451441Z, 6cda8203-a249-e411-b0cc-f8bc1246af59, $GPGGA,170435.00,4213.4266,N,12451.7775,W,2,11,0.8,21.4,M,-25.3,M,,*6C
2023-06-24T17:04:36.2556209Z, 6cda8203-a249-e411-b0cc-f8bc1246af59, $GPGGA,170436.00,4213.4272,N,12451.7769,W,2,11,0.8,21.2,M,-25.3,M,,*61
2023-06-24T17:04:37.2553168Z, 6cda8203-a249-e411-b0cc-f8bc1246af59, $GPGGA,170437.00,4213.4278,N,12451.7764,W,2,10,0.8,21.0,M,-25.3,M,,*64
2023-06-24T17:04:39.1950435Z, 6cda8203-a249-e411-b0cc-f8bc1246af59, $GPGGA,170438.00,4213.4282,N,12451.7758,W,2,10,0.8,20.8,M,-25.3,M,,*68
2023-06-24T17:04:39.6660366Z, 6cda8203-a249-e411-b0cc-f8bc1246af59, $GPGGA,170439.00,4213.4286,N,12451.7753,W,2,10,0.8,20.8,M,-25.3,M,,*66
2023-06-24T17:04:41.0858624Z, 6cda8203-a249-e411-b0cc-f8bc1246af59, $GPGGA,170440.00,4213.4290,N,12451.7746,W,2,09,0.8,20.7,M,-25.3,M,,*6C
2023-06-24T17:04:41.4153904Z, 6cda8203-a249-e411-b0cc-f8bc1246af59, $GPGGA,170441.00,4213.4294,N,12451.7738,W,2,09,0.8,20.5,M,-25.3,M,,*62
2023-06-24T17:04:43.0862000Z, 6cda8203-a249-e411-b0cc-f8bc1246af59, $GPGGA,170442.00,4213.4299,N,12451.7729,W,2,09,0.8,20.4,M,-25.3,M,,*6D
2023-06-24T17:04:43.4157169Z, 6cda8203-a249-e411-b0cc-f8bc1246af59, $GPGGA,170443.00,4213.4303,N,12451.7722,W,2,09,0.8,20.4,M,-25.3,M,,*65
2023-06-24T17:04:44.8963570Z, 6cda8203-a249-e411-b0cc-f8bc1246af59, $GPGGA,170444.00,4213.4308,N,12451.7717,W,2,09,0.8,20.4,M,-25.3,M,,*6F
2023-06-24T17:04:45.6659864Z, 6cda8203-a249-e411-b0cc-f8bc1246af59, $GPGGA,170445.00,4213.4312,N,12451.7709,W,2,09,0.8,20.3,M,-25.3,M,,*6D
2023-06-24T17:04:47.0858284Z, 6cda8203-a249-e411-b0cc-f8bc1246af59, $GPGGA,170446.00,4213.4315,N,12451.7701,W,2,09,0.8,20.3,M,-25.3,M,,*61
2023-06-24T17:04:47.4163919Z, 6cda8203-a249-e411-b0cc-f8bc1246af59, $GPGGA,170447.00,4213.4317,N,12451.7693,W,2,10,0.8,20.2,M,-25.3,M,,*61
2023-06-24T17:04:49.0861583Z, 6cda8203-a249-e411-b0cc-f8bc1246af59, $GPGGA,170448.00,4213.4319,N,12451.7686,W,2,10,0.8,20.1,M,-25.3,M,,*67
2023-06-24T17:04:49.4167181Z, 6cda8203-a249-e411-b0cc-f8bc1246af59, $GPGGA,170449.00,4213.4323,N,12451.7678,W,2,10,0.8,20.0,M,-25.3,M,,*6F
2023-06-24T17:04:50.8964931Z, 6cda8203-a249-e411-b0cc-f8bc1246af59, $GPGGA,170450.00,4213.4326,N,12451.7669,W,2,10,0.8,19.8,M,-25.3,M,,*60
2023-06-24T17:04:51.6660995Z, 6cda8203-a249-e411-b0cc-f8bc1246af59, $GPGGA,170451.00,4213.4329,N,12451.7660,W,2,11,0.8,19.9,M,-25.3,M,,*67
2023-06-24T17:04:53.0869890Z, 6cda8203-a249-e411-b0cc-f8bc1246af59, $GPGGA,170452.00,4213.4330,N,12451.7651,W,2,11,0.8,20.2,M,-25.3,M,,*6F
2023-06-24T17:04:53.4165120Z, 6cda8203-a249-e411-b0cc-f8bc1246af59, $GPGGA,170453.00,4213.4330,N,12451.7644,W,2,11,0.8,20.3,M,-25.3,M,,*6B
2023-06-24T17:04:55.0862845Z, 6cda8203-a249-e411-b0cc-f8bc1246af59, $GPGGA,170454.00,4213.4333,N,12451.7636,W,2,11,0.8,20.3,M,-25.3,M,,*6A
2023-06-24T17:04:55.4168377Z, 6cda8203-a249-e411-b0cc-f8bc1246af59, $GPGGA,170455.00,4213.4336,N,12451.7628,W,2,11,0.8,20.1,M,-25.3,M,,*63
2023-06-24T17:04:57.0866380Z, 6cda8203-a249-e411-b0cc-f8bc1246af59, $GPGGA,170456.00,4213.4339,N,12451.7619,W,2,10,0.8,19.9,M,-25.3,M,,*6E
2023-06-24T17:04:57.4171761Z, 6cda8203-a249-e411-b0cc-f8bc1246af59, $GPGGA,170457.00,4213.4341,N,12451.7610,W,2,10,0.8,19.8,M,-25.3,M,,*68
2023-06-24T17:04:58.2068212Z, 6cda8203-a249-e411-b0cc-f8bc1246af59, $GPGGA,170458.00,4213.4342,N,12451.7603,W,2,10,0.8,19.8,M,-25.3,M,,*66
2023-06-24T17:05:00.0867646Z, 6cda8203-a249-e411-b0cc-f8bc1246af59, $GPGGA,170459.00,4213.4342,N,12451.7595,W,2,11,0.8,19.9,M,-25.3,M,,*6B
2023-06-24T17:05:00.4173141Z, 6cda8203-a249-e411-b0cc-f8bc1246af59, $GPGGA,170500.00,4213.4343,N,12451.7588,W,2,11,0.8,19.9,M,-25.3,M,,*6B
2023-06-24T17:05:02.0870789Z, 6cda8203-a249-e411-b0cc-f8bc1246af59, $GPGGA,170501.00,4213.4345,N,12451.7579,W,2,11,0.8,20.0,M,-25.3,M,,*61
2023-06-24T17:05:02.4176472Z, 6cda8203-a249-e411-b0cc-f8bc1246af59, $GPGGA,170502.00,4213.4348,N,12451.7570,W,2,11,0.8,19.8,M,-25.3,M,,*64
2023-06-24T17:05:03.3675421Z, 6cda8203-a249-e411-b0cc-f8bc1246af59, $GPGGA,170503.00,4213.4350,N,12451.7560,W,2,10,0.8,19.6,M,-25.3,M,,*62
2023-06-24T17:05:04.2168991Z, 6cda8203-a249-e411-b0cc-f8bc1246af59, $GPGGA,170504.00,4213.4349,N,12451.7551,W,2,09,0.8,19.6,M,-25.3,M,,*67
2023-06-24T17:05:06.0877486Z, 6cda8203-a249-e411-b0cc-f8bc1246af59, $GPGGA,170505.00,4213.4347,N,12451.7543,W,2,10,0.8,19.6,M,-25.3,M,,*63
2023-06-24T17:05:06.4172930Z, 6cda8203-a249-e411-b0cc-f8bc1246af59, $GPGGA,170506.00,4213.4347,N,12451.7537,W,2,10,0.8,19.6,M,-25.3,M,,*63
2023-06-24T17:05:08.0870755Z, 6cda8203-a249-e411-b0cc-f8bc1246af59, $GPGGA,170507.00,4213.4348,N,12451.7529,W,2,10,0.8,19.7,M,-25.3,M,,*63
2023-06-24T17:05:08.8577374Z, 6cda8203-a249-e411-b0cc-f8bc1246af59, $GPGGA,170508.00,4213.4349,N,12451.7519,W,2,10,0.8,19.6,M,-25.3,M,,*6F
2023-06-24T17:05:09.3675232Z, 6cda8203-a249-e411-b0cc-f8bc1246af59, $GPGGA,170509.00,4213.4350,N,12451.7509,W,2,10,0.8,19.5,M,-25.3,M,,*64
2023-06-24T17:05:10.2178815Z, 6cda8203-a249-e411-b0cc-f8bc1246af59, $GPGGA,170510.00,4213.4350,N,12451.7499,W,2,10,0.8,19.5,M,-25.3,M,,*64
2023-06-24T17:05:11.2211628Z, 6cda8203-a249-e411-b0cc-f8bc1246af59, $GPGGA,170511.00,4213.4350,N,12451.7491,W,2,09,0.8,19.5,M,-25.3,M,,*65
2023-06-24T17:05:13.0875167Z, 6cda8203-a249-e411-b0cc-f8bc1246af59, $GPGGA,170512.00,4213.4351,N,12451.7481,W,2,09,0.8,19.7,M,-25.3,M,,*64
2023-06-24T17:05:13.4180933Z, 6cda8203-a249-e411-b0cc-f8bc1246af59, $GPGGA,170513.00,4213.4351,N,12451.7471,W,2,09,0.8,19.9,M,-25.3,M,,*64
2023-06-24T17:05:14.2176515Z, 6cda8203-a249-e411-b0cc-f8bc1246af59, $GPGGA,170514.00,4213.4351,N,12451.7461,W,2,09,0.8,20.1,M,-25.3,M,,*60
2023-06-24T17:05:16.0885756Z, 6cda8203-a249-e411-b0cc-f8bc1246af59, $GPGGA,170515.00,4213.4350,N,12451.7451,W,2,10,0.8,20.2,M,-25.3,M,,*68
2023-06-24T17:05:16.4180774Z, 6cda8203-a249-e411-b0cc-f8bc1246af59, $GPGGA,170516.00,4213.4349,N,12451.7442,W,2,10,0.8,20.1,M,-25.3,M,,*62
2023-06-24T17:05:17.2178085Z, 6cda8203-a249-e411-b0cc-f8bc1246af59, $GPGGA,170517.00,4213.4347,N,12451.7433,W,2,10,0.8,20.2,M,-25.3,M,,*68
2023-06-24T17:05:19.0887852Z, 6cda8203-a249-e411-b0cc-f8bc1246af59, $GPGGA,170518.00,4213.4345,N,12451.7422,W,2,09,0.8,20.6,M,-25.3,M,,*69
2023-06-24T17:05:19.4183056Z, 6cda8203-a249-e411-b0cc-f8bc1246af59, $GPGGA,170519.00,4213.4343,N,12451.7411,W,2,09,0.8,20.8,M,-25.3,M,,*60
2023-06-24T17:05:21.0880925Z, 6cda8203-a249-e411-b0cc-f8bc1246af59, $GPGGA,170520.00,4213.4341,N,12451.7400,W,2,09,0.8,20.9,M,-25.3,M,,*69
2023-06-24T17:05:21.4186427Z, 6cda8203-a249-e411-b0cc-f8bc1246af59, $GPGGA,170521.00,4213.4339,N,12451.7390,W,2,10,0.8,21.1,M,-25.3,M,,*68
2023-06-24T17:05:23.0884158Z, 6cda8203-a249-e411-b0cc-f8bc1246af59, $GPGGA,170522.00,4213.4337,N,12451.7380,W,2,09,0.8,21.1,M,-25.3,M,,*6C
2023-06-24T17:05:23.4189979Z, 6cda8203-a249-e411-b0cc-f8bc1246af59, $GPGGA,170523.00,4213.4335,N,12451.7371,W,2,09,0.8,21.2,M,-25.3,M,,*62
2023-06-24T17:05:24.2284829Z, 6cda8203-a249-e411-b0cc-f8bc1246af59, $GPGGA,170524.00,4213.4332,N,12451.7362,W,2,09,0.8,21.3,M,-25.3,M,,*61
2023-06-24T17:05:26.0884392Z, 6cda8203-a249-e411-b0cc-f8bc1246af59, $GPGGA,170525.00,4213.4329,N,12451.7354,W,2,09,0.8,21.2,M,-25.3,M,,*6E
2023-06-24T17:05:26.8292196Z, 6cda8203-a249-e411-b0cc-f8bc1246af59, $GPGGA,170526.00,4213.4325,N,12451.7348,W,2,10,0.8,21.2,M,-25.3,M,,*64
2023-06-24T17:05:27.2285047Z, 6cda8203-a249-e411-b0cc-f8bc1246af59, $GPGGA,170527.00,4213.4323,N,12451.7342,W,2,10,0.8,21.0,M,-25.3,M,,*6B
2023-06-24T17:05:29.0894227Z, 6cda8203-a249-e411-b0cc-f8bc1246af59, $GPGGA,170528.00,4213.4320,N,12451.7335,W,2,10,0.8,20.9,M,-25.3,M,,*6F
2023-06-24T17:05:29.4189805Z, 6cda8203-a249-e411-b0cc-f8bc1246af59, $GPGGA,170529.00,4213.4315,N,12451.7329,W,1,10,0.8,20.9,M,-25.3,M,,*66
2023-06-24T17:05:31.0887283Z, 6cda8203-a249-e411-b0cc-f8bc1246af59, $GPGGA,170530.00,4213.4310,N,12451.7322,W,1,10,0.8,20.7,M,-25.3,M,,*6E
2023-06-24T17:05:31.4193252Z, 6cda8203-a249-e411-b0cc-f8bc1246af59, $GPGGA,170531.00,4213.4305,N,12451.7316,W,1,11,0.8,20.6,M,-25.3,M,,*6C
2023-06-24T17:05:33.0890529Z, 6cda8203-a249-e411-b0cc-f8bc1246af59, $GPGGA,170532.00,4213.4300,N,12451.7310,W,1,11,0.8,20.5,M,-25.3,M,,*6F
2023-06-24T17:05:33.4196250Z, 6cda8203-a249-e411-b0cc-f8bc1246af59, $GPGGA,170533.00,4213.4296,N,12451.7303,W,1,11,0.8,20.5,M,-25.3,M,,*62
2023-06-24T17:05:35.0933352Z, 6cda8203-a249-e411-b0cc-f8bc1246af59, $GPGGA,170534.00,4213.4291,N,12451.7295,W,1,11,0.8,20.5,M,-25.3,M,,*6C
2023-06-24T17:05:35.4199718Z, 6cda8203-a249-e411-b0cc-f8bc1246af59, $GPGGA,170535.00,4213.4285,N,12451.7288,W,1,11,0.8,20.5,M,-25.3,M,,*64
2023-06-24T17:05:37.0897626Z, 6cda8203-a249-e411-b0cc-f8bc1246af59, $GPGGA,170536.00,4213.4279,N,12451.7282,W,1,11,0.8,20.3,M,-25.3,M,,*68
2023-06-24T17:05:37.4193215Z, 6cda8203-a249-e411-b0cc-f8bc1246af59, $GPGGA,170537.00,4213.4273,N,12451.7277,W,1,11,0.8,20.2,M,-25.3,M,,*68
2023-06-24T17:05:39.0901053Z, 6cda8203-a249-e411-b0cc-f8bc1246af59, $GPGGA,170538.00,4213.4267,N,12451.7272,W,1,11,0.8,20.1,M,-25.3,M,,*64
2023-06-24T17:05:39.4196597Z, 6cda8203-a249-e411-b0cc-f8bc1246af59, $GPGGA,170539.00,4213.4260,N,12451.7268,W,1,11,0.8,20.0,M,-25.3,M,,*68
2023-06-24T17:05:41.0894094Z, 6cda8203-a249-e411-b0cc-f8bc1246af59, $GPGGA,170540.00,4213.4253,N,12451.7263,W,1,11,0.8,20.1,M,-25.3,M,,*6C
2023-06-24T17:05:41.4199938Z, 6cda8203-a249-e411-b0cc-f8bc1246af59, $GPGGA,170541.00,4213.4246,N,12451.7258,W,1,11,0.8,20.3,M,-25.3,M,,*63
2023-06-24T17:05:42.2404414Z, 6cda8203-a249-e411-b0cc-f8bc1246af59, $GPGGA,170542.00,4213.4239,N,12451.7251,W,1,11,0.8,20.4,M,-25.3,M,,*66
2023-06-24T17:05:43.2401332Z, 6cda8203-a249-e411-b0cc-f8bc1246af59, $GPGGA,170543.00,4213.4232,N,12451.7244,W,1,11,0.8,20.4,M,-25.3,M,,*68
2023-06-24T17:05:44.4000423Z, 6cda8203-a249-e411-b0cc-f8bc1246af59, $GPGGA,170544.00,4213.4226,N,12451.7237,W,1,11,0.8,20.4,M,-25.3,M,,*6E
2023-06-24T17:05:45.2403924Z, 6cda8203-a249-e411-b0cc-f8bc1246af59, $GPGGA,170545.00,4213.4218,N,12451.7230,W,1,11,0.8,20.3,M,-25.3,M,,*62
2023-06-24T17:05:46.2401129Z, 6cda8203-a249-e411-b0cc-f8bc1246af59, $GPGGA,170546.00,4213.4210,N,12451.7223,W,1,11,0.8,20.4,M,-25.3,M,,*6C
2023-06-24T17:05:47.4000396Z, 6cda8203-a249-e411-b0cc-f8bc1246af59, $GPGGA,170547.00,4213.4202,N,12451.7217,W,1,11,0.8,20.3,M,-25.3,M,,*6E
2023-06-24T17:05:48.2404202Z, 6cda8203-a249-e411-b0cc-f8bc1246af59, $GPGGA,170548.00,4213.4194,N,12451.7212,W,1,11,0.8,20.2,M,-25.3,M,,*69
2023-06-24T17:05:50.2507311Z, 6cda8203-a249-e411-b0cc-f8bc1246af59, $GPGGA,170549.00,4213.4185,N,12451.7208,W,1,11,0.8,20.1,M,-25.3,M,,*60
2023-06-24T17:05:50.6409935Z, 6cda8203-a249-e411-b0cc-f8bc1246af59, $GPGGA,170550.00,4213.4176,N,12451.7205,W,2,11,0.8,20.1,M,-25.3,M,,*6A
2023-06-24T17:05:52.0907239Z, 6cda8203-a249-e411-b0cc-f8bc1246af59, $GPGGA,170551.00,4213.4167,N,12451.7200,W,2,11,0.8,20.2,M,-25.3,M,,*6D
2023-06-24T17:05:52.4203025Z, 6cda8203-a249-e411-b0cc-f8bc1246af59, $GPGGA,170552.00,4213.4157,N,12451.7195,W,2,11,0.8,20.2,M,-25.3,M,,*62
2023-06-24T17:05:53.4010451Z, 6cda8203-a249-e411-b0cc-f8bc1246af59, $GPGGA,170553.00,4213.4148,N,12451.7190,W,2,11,0.8,20.1,M,-25.3,M,,*6B
2023-06-24T17:05:54.2403975Z, 6cda8203-a249-e411-b0cc-f8bc1246af59, $GPGGA,170554.00,4213.4139,N,12451.7186,W,2,11,0.8,20.1,M,-25.3,M,,*6D
2023-06-24T17:05:55.8812927Z, 6cda8203-a249-e411-b0cc-f8bc1246af59, $GPGGA,170555.00,4213.4130,N,12451.7180,W,2,11,0.8,20.3,M,-25.3,M,,*61
2023-06-24T17:05:56.2407326Z, 6cda8203-a249-e411-b0cc-f8bc1246af59, $GPGGA,170556.00,4213.4120,N,12451.7175,W,2,11,0.8,20.5,M,-25.3,M,,*6F
2023-06-24T17:05:57.2414232Z, 6cda8203-a249-e411-b0cc-f8bc1246af59, $GPGGA,170557.00,4213.4110,N,12451.7171,W,2,11,0.8,20.7,M,-25.3,M,,*6B
2023-06-24T17:05:58.4112801Z, 6cda8203-a249-e411-b0cc-f8bc1246af59, $GPGGA,170558.00,4213.4100,N,12451.7168,W,2,11,0.8,20.8,M,-25.3,M,,*62
2023-06-24T17:05:59.2407160Z, 6cda8203-a249-e411-b0cc-f8bc1246af59, $GPGGA,170559.00,4213.4090,N,12451.7166,W,2,11,0.8,20.5,M,-25.3,M,,*68
2023-06-24T17:06:00.2513282Z, 6cda8203-a249-e411-b0cc-f8bc1246af59, $GPGGA,170600.00,4213.4080,N,12451.7165,W,2,11,0.8,20.3,M,-25.3,M,,*63
2023-06-24T17:06:01.4117442Z, 6cda8203-a249-e411-b0cc-f8bc1246af59, $GPGGA,170601.00,4213.4070,N,12451.7164,W,2,11,0.8,20.1,M,-25.3,M,,*6E
2023-06-24T17:06:02.8315616Z, 6cda8203-a249-e411-b0cc-f8bc1246af59, $GPGGA,170602.00,4213.4060,N,12451.7162,W,2,11,0.8,19.9,M,-25.3,M,,*68
2023-06-24T17:06:03.2816130Z, 6cda8203-a249-e411-b0cc-f8bc1246af59, $GPGGA,170603.00,4213.4049,N,12451.7160,W,2,11,0.8,19.8,M,-25.3,M,,*61
2023-06-24T17:06:05.0917561Z, 6cda8203-a249-e411-b0cc-f8bc1246af59, $GPGGA,170604.00,4213.4038,N,12451.7158,W,2,11,0.8,19.8,M,-25.3,M,,*6B
2023-06-24T17:06:05.4213260Z, 6cda8203-a249-e411-b0cc-f8bc1246af59, $GPGGA,170605.00,4213.4027,N,12451.7154,W,2,11,0.8,19.8,M,-25.3,M,,*68
2023-06-24T17:06:06.2517334Z, 6cda8203-a249-e411-b0cc-f8bc1246af59, $GPGGA,170606.00,4213.4016,N,12451.7151,W,2,11,0.8,20.1,M,-25.3,M,,*6F
2023-06-24T17:06:07.4116978Z, 6cda8203-a249-e411-b0cc-f8bc1246af59, $GPGGA,170607.00,4213.4005,N,12451.7151,W,2,11,0.8,20.3,M,-25.3,M,,*6E
2023-06-24T17:06:09.2517890Z, 6cda8203-a249-e411-b0cc-f8bc1246af59, $GPGGA,170609.00,4213.3984,N,12451.7151,W,2,11,0.8,20.3,M,-25.3,M,,*67
2023-06-24T17:06:11.0918189Z, 6cda8203-a249-e411-b0cc-f8bc1246af59, $GPGGA,170610.00,4213.3972,N,12451.7150,W,2,11,0.8,20.3,M,-25.3,M,,*67
2023-06-24T17:06:11.4223803Z, 6cda8203-a249-e411-b0cc-f8bc1246af59, $GPGGA,170611.00,4213.3960,N,12451.7148,W,2,11,0.8,20.2,M,-25.3,M,,*6D
2023-06-24T17:06:12.2517879Z, 6cda8203-a249-e411-b0cc-f8bc1246af59, $GPGGA,170612.00,4213.3948,N,12451.7148,W,2,11,0.8,20.1,M,-25.3,M,,*67
2023-06-24T17:06:14.0917924Z, 6cda8203-a249-e411-b0cc-f8bc1246af59, $GPGGA,170613.00,4213.3936,N,12451.7147,W,2,11,0.8,20.1,M,-25.3,M,,*60
2023-06-24T17:06:14.8325829Z, 6cda8203-a249-e411-b0cc-f8bc1246af59, $GPGGA,170614.00,4213.3925,N,12451.7146,W,2,11,0.8,19.9,M,-25.3,M,,*66
2023-06-24T17:06:15.2528141Z, 6cda8203-a249-e411-b0cc-f8bc1246af59, $GPGGA,170615.00,4213.3914,N,12451.7145,W,2,11,0.8,19.8,M,-25.3,M,,*67
2023-06-24T17:06:16.4226678Z, 6cda8203-a249-e411-b0cc-f8bc1246af59, $GPGGA,170616.00,4213.3902,N,12451.7142,W,2,11,0.8,19.8,M,-25.3,M,,*64
2023-06-24T17:06:17.2620509Z, 6cda8203-a249-e411-b0cc-f8bc1246af59, $GPGGA,170617.00,4213.3890,N,12451.7138,W,2,11,0.8,20.0,M,-25.3,M,,*60
2023-06-24T17:06:18.2527692Z, 6cda8203-a249-e411-b0cc-f8bc1246af59, $GPGGA,170618.00,4213.3878,N,12451.7136,W,2,11,0.8,20.0,M,-25.3,M,,*67
2023-06-24T17:06:19.4127311Z, 6cda8203-a249-e411-b0cc-f8bc1246af59, $GPGGA,170619.00,4213.3866,N,12451.7135,W,2,11,0.8,20.1,M,-25.3,M,,*6B
2023-06-24T17:06:20.2630664Z, 6cda8203-a249-e411-b0cc-f8bc1246af59, $GPGGA,170620.00,4213.3853,N,12451.7135,W,2,11,0.8,20.1,M,-25.3,M,,*67
2023-06-24T17:06:21.2626774Z, 6cda8203-a249-e411-b0cc-f8bc1246af59, $GPGGA,170621.00,4213.3840,N,12451.7135,W,2,11,0.8,20.2,M,-25.3,M,,*67
2023-06-24T17:06:23.0927545Z, 6cda8203-a249-e411-b0cc-f8bc1246af59, $GPGGA,170622.00,4213.3828,N,12451.7132,W,2,11,0.8,20.4,M,-25.3,M,,*6B
2023-06-24T17:06:23.4233530Z, 6cda8203-a249-e411-b0cc-f8bc1246af59, $GPGGA,170623.00,4213.3815,N,12451.7129,W,2,11,0.8,20.6,M,-25.3,M,,*6C
2023-06-24T17:06:24.2527466Z, 6cda8203-a249-e411-b0cc-f8bc1246af59, $GPGGA,170624.00,4213.3802,N,12451.7126,W,2,11,0.8,20.9,M,-25.3,M,,*6D
2023-06-24T17:06:26.0927555Z, 6cda8203-a249-e411-b0cc-f8bc1246af59, $GPGGA,170625.00,4213.3789,N,12451.7124,W,2,11,0.8,21.0,M,-25.3,M,,*6A
2023-06-24T17:06:26.4233263Z, 6cda8203-a249-e411-b0cc-f8bc1246af59, $GPGGA,170626.00,4213.3776,N,12451.7123,W,2,11,0.8,21.0,M,-25.3,M,,*6E
2023-06-24T17:06:27.7127148Z, 6cda8203-a249-e411-b0cc-f8bc1246af59, $GPGGA,170627.00,4213.3763,N,12451.7122,W,2,11,0.8,21.0,M,-25.3,M,,*6A
2023-06-24T17:06:29.0934504Z, 6cda8203-a249-e411-b0cc-f8bc1246af59, $GPGGA,170628.00,4213.3751,N,12451.7120,W,2,11,0.8,21.0,M,-25.3,M,,*66
2023-06-24T17:06:29.4230113Z, 6cda8203-a249-e411-b0cc-f8bc1246af59, $GPGGA,170629.00,4213.3738,N,12451.7117,W,2,11,0.8,21.0,M,-25.3,M,,*6C
2023-06-24T17:06:30.2534514Z, 6cda8203-a249-e411-b0cc-f8bc1246af59, $GPGGA,170630.00,4213.3724,N,12451.7115,W,2,11,0.8,20.9,M,-25.3,M,,*63
2023-06-24T17:06:31.4234404Z, 6cda8203-a249-e411-b0cc-f8bc1246af59, $GPGGA,170631.00,4213.3710,N,12451.7114,W,2,11,0.8,20.8,M,-25.3,M,,*65
2023-06-24T17:06:32.2538812Z, 6cda8203-a249-e411-b0cc-f8bc1246af59, $GPGGA,170632.00,4213.3697,N,12451.7113,W,2,11,0.8,20.7,M,-25.3,M,,*60
2023-06-24T17:06:33.8031950Z, 6cda8203-a249-e411-b0cc-f8bc1246af59, $GPGGA,170633.00,4213.3683,N,12451.7112,W,2,11,0.8,20.7,M,-25.3,M,,*65
2023-06-24T17:06:34.2632247Z, 6cda8203-a249-e411-b0cc-f8bc1246af59, $GPGGA,170634.00,4213.3670,N,12451.7111,W,2,11,0.8,20.7,M,-25.3,M,,*6D
2023-06-24T17:06:35.2638791Z, 6cda8203-a249-e411-b0cc-f8bc1246af59, $GPGGA,170635.00,4213.3657,N,12451.7109,W,2,11,0.8,20.7,M,-25.3,M,,*60
2023-06-24T17:06:36.4238618Z, 6cda8203-a249-e411-b0cc-f8bc1246af59, $GPGGA,170636.00,4213.3644,N,12451.7107,W,2,11,0.8,20.6,M,-25.3,M,,*6E
2023-06-24T17:06:37.2641849Z, 6cda8203-a249-e411-b0cc-f8bc1246af59, $GPGGA,170637.00,4213.3630,N,12451.7104,W,2,11,0.8,20.5,M,-25.3,M,,*6C
2023-06-24T17:06:38.2638513Z, 6cda8203-a249-e411-b0cc-f8bc1246af59, $GPGGA,170638.00,4213.3616,N,12451.7102,W,2,11,0.8,20.4,M,-25.3,M,,*60
2023-06-24T17:06:40.0142567Z, 6cda8203-a249-e411-b0cc-f8bc1246af59, $GPGGA,170639.00,4213.3602,N,12451.7101,W,2,11,0.8,20.2,M,-25.3,M,,*61
2023-06-24T17:06:40.6644500Z, 6cda8203-a249-e411-b0cc-f8bc1246af59, $GPGGA,170640.00,4213.3587,N,12451.7101,W,2,11,0.8,20.0,M,-25.3,M,,*63
2023-06-24T17:06:41.2638397Z, 6cda8203-a249-e411-b0cc-f8bc1246af59, $GPGGA,170641.00,4213.3572,N,12451.7101,W,2,11,0.8,19.9,M,-25.3,M,,*6B
2023-06-24T17:06:43.0940864Z, 6cda8203-a249-e411-b0cc-f8bc1246af59, $GPGGA,170642.00,4213.3558,N,12451.7100,W,2,11,0.8,19.8,M,-25.3,M,,*60
2023-06-24T17:06:43.4246864Z, 6cda8203-a249-e411-b0cc-f8bc1246af59, $GPGGA,170643.00,4213.3544,N,12451.7097,W,2,11,0.8,19.7,M,-25.3,M,,*6C
2023-06-24T17:06:45.0944195Z, 6cda8203-a249-e411-b0cc-f8bc1246af59, $GPGGA,170644.00,4213.3530,N,12451.7095,W,2,11,0.8,19.6,M,-25.3,M,,*6B
2023-06-24T17:06:45.4239852Z, 6cda8203-a249-e411-b0cc-f8bc1246af59, $GPGGA,170645.00,4213.3516,N,12451.7092,W,2,11,0.8,19.6,M,-25.3,M,,*69
2023-06-24T17:06:47.0947429Z, 6cda8203-a249-e411-b0cc-f8bc1246af59, $GPGGA,170646.00,4213.3500,N,12451.7090,W,2,11,0.8,19.5,M,-25.3,M,,*6C
2023-06-24T17:06:47.4243118Z, 6cda8203-a249-e411-b0cc-f8bc1246af59, $GPGGA,170647.00,4213.3484,N,12451.7090,W,2,11,0.8,19.4,M,-25.3,M,,*61
2023-06-24T17:06:49.0950885Z, 6cda8203-a249-e411-b0cc-f8bc1246af59, $GPGGA,170648.00,4213.3469,N,12451.7089,W,2,11,0.8,19.2,M,-25.3,M,,*63
2023-06-24T17:06:49.4246438Z, 6cda8203-a249-e411-b0cc-f8bc1246af59, $GPGGA,170649.00,4213.3455,N,12451.7089,W,2,11,0.8,19.2,M,-25.3,M,,*6D
2023-06-24T17:06:51.0943997Z, 6cda8203-a249-e411-b0cc-f8bc1246af59, $GPGGA,170650.00,4213.3440,N,12451.7087,W,2,11,0.8,19.1,M,-25.3,M,,*6C
2023-06-24T17:06:51.4249760Z, 6cda8203-a249-e411-b0cc-f8bc1246af59, $GPGGA,170651.00,4213.3424,N,12451.7084,W,2,11,0.8,19.0,M,-25.3,M,,*6D
2023-06-24T17:06:53.0947245Z, 6cda8203-a249-e411-b0cc-f8bc1246af59, $GPGGA,170652.00,4213.3408,N,12451.7081,W,2,11,0.8,19.0,M,-25.3,M,,*65
2023-06-24T17:06:53.4253047Z, 6cda8203-a249-e411-b0cc-f8bc1246af59, $GPGGA,170653.00,4213.3392,N,12451.7078,W,2,11,0.8,18.9,M,-25.3,M,,*6E
2023-06-24T17:06:55.0950425Z, 6cda8203-a249-e411-b0cc-f8bc1246af59, $GPGGA,170654.00,4213.3377,N,12451.7077,W,2,11,0.8,18.7,M,-25.3,M,,*63
2023-06-24T17:06:55.4246260Z, 6cda8203-a249-e411-b0cc-f8bc1246af59, $GPGGA,170655.00,4213.3361,N,12451.7076,W,2,11,0.8,18.5,M,-25.3,M,,*66
2023-06-24T17:06:56.2251332Z, 6cda8203-a249-e411-b0cc-f8bc1246af59, $GPGGA,170656.00,4213.3344,N,12451.7074,W,2,11,0.8,18.4,M,-25.3,M,,*61
2023-06-24T17:06:58.0950481Z, 6cda8203-a249-e411-b0cc-f8bc1246af59, $GPGGA,170657.00,4213.3327,N,12451.7072,W,2,11,0.8,18.3,M,-25.3,M,,*64
2023-06-24T17:06:58.4256127Z, 6cda8203-a249-e411-b0cc-f8bc1246af59, $GPGGA,170658.00,4213.3311,N,12451.7069,W,2,11,0.8,18.3,M,-25.3,M,,*64
2023-06-24T17:07:00.0953712Z, 6cda8203-a249-e411-b0cc-f8bc1246af59, $GPGGA,170659.00,4213.3295,N,12451.7066,W,2,11,0.8,18.3,M,-25.3,M,,*67
2023-06-24T17:07:00.4259567Z, 6cda8203-a249-e411-b0cc-f8bc1246af59, $GPGGA,170700.00,4213.3279,N,12451.7065,W,2,11,0.8,18.3,M,-25.3,M,,*6B
2023-06-24T17:07:01.3760278Z, 6cda8203-a249-e411-b0cc-f8bc1246af59, $GPGGA,170701.00,4213.3263,N,12451.7064,W,2,11,0.8,18.3,M,-25.3,M,,*60
2023-06-24T17:07:02.2253206Z, 6cda8203-a249-e411-b0cc-f8bc1246af59, $GPGGA,170702.00,4213.3246,N,12451.7064,W,2,11,0.8,18.2,M,-25.3,M,,*65
2023-06-24T17:07:04.0962268Z, 6cda8203-a249-e411-b0cc-f8bc1246af59, $GPGGA,170703.00,4213.3229,N,12451.7062,W,2,11,0.8,18.0,M,-25.3,M,,*69
2023-06-24T17:07:04.4257796Z, 6cda8203-a249-e411-b0cc-f8bc1246af59, $GPGGA,170704.00,4213.3212,N,12451.7060,W,2,11,0.8,17.8,M,-25.3,M,,*63
2023-06-24T17:07:05.2253474Z, 6cda8203-a249-e411-b0cc-f8bc1246af59, $GPGGA,170705.00,4213.3195,N,12451.7057,W,2,11,0.8,17.6,M,-25.3,M,,*64
2023-06-24T17:07:07.0961958Z, 6cda8203-a249-e411-b0cc-f8bc1246af59, $GPGGA,170706.00,4213.3179,N,12451.7054,W,2,11,0.8,17.6,M,-25.3,M,,*66
2023-06-24T17:07:07.4257898Z, 6cda8203-a249-e411-b0cc-f8bc1246af59, $GPGGA,170707.00,4213.3162,N,12451.7051,W,2,11,0.8,17.7,M,-25.3,M,,*69
2023-06-24T17:07:09.0965519Z, 6cda8203-a249-e411-b0cc-f8bc1246af59, $GPGGA,170708.00,4213.3144,N,12451.7050,W,2,11,0.8,17.7,M,-25.3,M,,*63
2023-06-24T17:07:09.4260972Z, 6cda8203-a249-e411-b0cc-f8bc1246af59, $GPGGA,170709.00,4213.3127,N,12451.7048,W,2,11,0.8,17.7,M,-25.3,M,,*6E
2023-06-24T17:07:11.0958485Z, 6cda8203-a249-e411-b0cc-f8bc1246af59, $GPGGA,170710.00,4213.3109,N,12451.7047,W,2,11,0.8,17.7,M,-25.3,M,,*65
2023-06-24T17:07:11.4264494Z, 6cda8203-a249-e411-b0cc-f8bc1246af59, $GPGGA,170711.00,4213.3092,N,12451.7046,W,2,11,0.8,17.7,M,-25.3,M,,*66
2023-06-24T17:07:13.0962928Z, 6cda8203-a249-e411-b0cc-f8bc1246af59, $GPGGA,170712.00,4213.3075,N,12451.7043,W,2,11,0.8,17.6,M,-25.3,M,,*68
2023-06-24T17:07:13.4268997Z, 6cda8203-a249-e411-b0cc-f8bc1246af59, $GPGGA,170713.00,4213.3057,N,12451.7040,W,2,11,0.8,17.6,M,-25.3,M,,*6A
2023-06-24T17:07:14.2264148Z, 6cda8203-a249-e411-b0cc-f8bc1246af59, $GPGGA,170714.00,4213.3039,N,12451.7036,W,2,11,0.8,17.7,M,-25.3,M,,*65
2023-06-24T17:07:16.0962909Z, 6cda8203-a249-e411-b0cc-f8bc1246af59, $GPGGA,170715.00,4213.3021,N,12451.7034,W,2,11,0.8,17.6,M,-25.3,M,,*6E
