ACQ Timestamp (Server Time in UTC), MessageID, Data Value For: GNSS-6452-$GPGGA
2023-07-17T20:48:54.0983754Z, 6cda8203-a249-e411-b0cc-f8bc1246af59, $GPGGA,204853.00,4030.6271,N,12452.9849,W,2,14,0.5,26.2,M,-27.2,M,,*60
2023-07-17T20:48:54.4190315Z, 6cda8203-a249-e411-b0cc-f8bc1246af59, $GPGGA,204854.00,4030.6298,N,12452.9849,W,2,14,0.5,26.0,M,-27.2,M,,*62
2023-07-17T20:48:55.2494445Z, 6cda8203-a249-e411-b0cc-f8bc1246af59, $GPGGA,204855.00,4030.6324,N,12452.9848,W,2,14,0.5,25.9,M,-27.2,M,,*6E
2023-07-17T20:48:56.4086861Z, 6cda8203-a249-e411-b0cc-f8bc1246af59, $GPGGA,204856.00,4030.6351,N,12452.9849,W,2,14,0.5,26.0,M,-27.2,M,,*64
2023-07-17T20:48:57.2490473Z, 6cda8203-a249-e411-b0cc-f8bc1246af59, $GPGGA,204857.00,4030.6378,N,12452.9849,W,2,14,0.5,26.0,M,-27.2,M,,*6E
2023-07-17T20:48:58.2487035Z, 6cda8203-a249-e411-b0cc-f8bc1246af59, $GPGGA,204858.00,4030.6405,N,12452.9851,W,2,14,0.5,25.7,M,-27.2,M,,*61
2023-07-17T20:49:00.0897418Z, 6cda8203-a249-e411-b0cc-f8bc1246af59, $GPGGA,204859.00,4030.6432,N,12452.9852,W,2,14,0.5,25.4,M,-27.2,M,,*64
2023-07-17T20:49:00.4292214Z, 6cda8203-a249-e411-b0cc-f8bc1246af59, $GPGGA,204900.00,4030.6460,N,12452.9852,W,2,14,0.5,25.4,M,-27.2,M,,*6E
2023-07-17T20:49:01.2496965Z, 6cda8203-a249-e411-b0cc-f8bc1246af59, $GPGGA,204901.00,4030.6487,N,12452.9849,W,2,14,0.5,25.6,M,-27.2,M,,*6E
2023-07-17T20:49:03.0897394Z, 6cda8203-a249-e411-b0cc-f8bc1246af59, $GPGGA,204902.00,4030.6513,N,12452.9847,W,2,14,0.5,25.9,M,-27.2,M,,*60
2023-07-17T20:49:03.4192907Z, 6cda8203-a249-e411-b0cc-f8bc1246af59, $GPGGA,204903.00,4030.6541,N,12452.9848,W,2,14,0.5,25.8,M,-27.2,M,,*68
2023-07-17T20:49:04.2497070Z, 6cda8203-a249-e411-b0cc-f8bc1246af59, $GPGGA,204904.00,4030.6569,N,12452.9849,W,2,14,0.5,25.5,M,-27.2,M,,*69
2023-07-17T20:49:06.0897249Z, 6cda8203-a249-e411-b0cc-f8bc1246af59, $GPGGA,204905.00,4030.6596,N,12452.9848,W,2,14,0.5,25.5,M,-27.2,M,,*69
2023-07-17T20:49:06.4192789Z, 6cda8203-a249-e411-b0cc-f8bc1246af59, $GPGGA,204906.00,4030.6623,N,12452.9847,W,2,14,0.5,25.5,M,-27.2,M,,*68
2023-07-17T20:49:07.2497037Z, 6cda8203-a249-e411-b0cc-f8bc1246af59, $GPGGA,204907.00,4030.6650,N,12452.9846,W,2,14,0.5,25.7,M,-27.2,M,,*6E
2023-07-17T20:49:09.0897075Z, 6cda8203-a249-e411-b0cc-f8bc1246af59, $GPGGA,204908.00,4030.6679,N,12452.9847,W,2,14,0.5,25.7,M,-27.2,M,,*6B
2023-07-17T20:49:09.4202823Z, 6cda8203-a249-e411-b0cc-f8bc1246af59, $GPGGA,204909.00,4030.6707,N,12452.9847,W,2,14,0.5,25.5,M,-27.2,M,,*60
2023-07-17T20:49:10.2499606Z, 6cda8203-a249-e411-b0cc-f8bc1246af59, $GPGGA,204910.00,4030.6734,N,12452.9846,W,2,14,0.5,25.5,M,-27.2,M,,*69
2023-07-17T20:49:12.0899971Z, 6cda8203-a249-e411-b0cc-f8bc1246af59, $GPGGA,204911.00,4030.6762,N,12452.9845,W,2,14,0.5,25.6,M,-27.2,M,,*6B
2023-07-17T20:49:12.4205523Z, 6cda8203-a249-e411-b0cc-f8bc1246af59, $GPGGA,204912.00,4030.6790,N,12452.9843,W,2,14,0.5,25.7,M,-27.2,M,,*62
2023-07-17T20:49:13.2499579Z, 6cda8203-a249-e411-b0cc-f8bc1246af59, $GPGGA,204913.00,4030.6819,N,12452.9840,W,2,14,0.5,25.6,M,-27.2,M,,*6F
2023-07-17T20:49:15.0899887Z, 6cda8203-a249-e411-b0cc-f8bc1246af59, $GPGGA,204914.00,4030.6846,N,12452.9838,W,2,14,0.5,25.5,M,-27.2,M,,*6E
2023-07-17T20:49:15.4205433Z, 6cda8203-a249-e411-b0cc-f8bc1246af59, $GPGGA,204915.00,4030.6873,N,12452.9838,W,2,14,0.5,25.4,M,-27.2,M,,*68
2023-07-17T20:49:16.2608786Z, 6cda8203-a249-e411-b0cc-f8bc1246af59, $GPGGA,204916.00,4030.6901,N,12452.9838,W,2,13,0.5,25.5,M,-27.2,M,,*69
2023-07-17T20:49:17.8600809Z, 6cda8203-a249-e411-b0cc-f8bc1246af59, $GPGGA,204917.00,4030.6930,N,12452.9837,W,2,13,0.5,25.5,M,-27.2,M,,*65
2023-07-17T20:49:18.2802433Z, 6cda8203-a249-e411-b0cc-f8bc1246af59, $GPGGA,204918.00,4030.6958,N,12452.9835,W,2,13,0.5,25.4,M,-27.2,M,,*67
2023-07-17T20:49:19.2610061Z, 6cda8203-a249-e411-b0cc-f8bc1246af59, $GPGGA,204919.00,4030.6985,N,12452.9835,W,2,14,0.5,25.2,M,-27.2,M,,*67
2023-07-17T20:49:21.0910694Z, 6cda8203-a249-e411-b0cc-f8bc1246af59, $GPGGA,204920.00,4030.7011,N,12452.9835,W,2,14,0.5,25.3,M,-27.2,M,,*69
2023-07-17T20:49:21.4206169Z, 6cda8203-a249-e411-b0cc-f8bc1246af59, $GPGGA,204921.00,4030.7040,N,12452.9835,W,2,14,0.5,25.3,M,-27.2,M,,*6C
2023-07-17T20:49:22.2609925Z, 6cda8203-a249-e411-b0cc-f8bc1246af59, $GPGGA,204922.00,4030.7070,N,12452.9833,W,2,13,0.5,25.1,M,-27.2,M,,*6F
2023-07-17T20:49:23.2606451Z, 6cda8203-a249-e411-b0cc-f8bc1246af59, $GPGGA,204923.00,4030.7097,N,12452.9831,W,2,13,0.5,25.1,M,-27.2,M,,*65
2023-07-17T20:49:24.4206788Z, 6cda8203-a249-e411-b0cc-f8bc1246af59, $GPGGA,204924.00,4030.7123,N,12452.9829,W,2,13,0.5,25.4,M,-27.2,M,,*60
2023-07-17T20:49:25.2610423Z, 6cda8203-a249-e411-b0cc-f8bc1246af59, $GPGGA,204925.00,4030.7151,N,12452.9827,W,2,13,0.5,25.7,M,-27.2,M,,*69
2023-07-17T20:49:26.2607102Z, 6cda8203-a249-e411-b0cc-f8bc1246af59, $GPGGA,204926.00,4030.7182,N,12452.9826,W,2,14,0.5,25.7,M,-27.2,M,,*62
2023-07-17T20:49:28.0409898Z, 6cda8203-a249-e411-b0cc-f8bc1246af59, $GPGGA,204927.00,4030.7212,N,12452.9825,W,2,14,0.5,25.2,M,-27.2,M,,*6F
2023-07-17T20:49:28.6413901Z, 6cda8203-a249-e411-b0cc-f8bc1246af59, $GPGGA,204928.00,4030.7238,N,12452.9825,W,2,14,0.5,25.1,M,-27.2,M,,*6B
2023-07-17T20:49:29.2616995Z, 6cda8203-a249-e411-b0cc-f8bc1246af59, $GPGGA,204929.00,4030.7262,N,12452.9824,W,2,13,0.5,25.5,M,-27.2,M,,*67
2023-07-17T20:49:30.8310649Z, 6cda8203-a249-e411-b0cc-f8bc1246af59, $GPGGA,204930.00,4030.7290,N,12452.9823,W,2,13,0.5,25.8,M,-27.2,M,,*68
2023-07-17T20:49:31.2612194Z, 6cda8203-a249-e411-b0cc-f8bc1246af59, $GPGGA,204931.00,4030.7321,N,12452.9821,W,2,14,0.5,25.7,M,-27.2,M,,*68
2023-07-17T20:49:32.2718210Z, 6cda8203-a249-e411-b0cc-f8bc1246af59, $GPGGA,204932.00,4030.7350,N,12452.9821,W,2,14,0.5,25.2,M,-27.2,M,,*68
2023-07-17T20:49:34.0921168Z, 6cda8203-a249-e411-b0cc-f8bc1246af59, $GPGGA,204933.00,4030.7374,N,12452.9820,W,2,14,0.5,25.2,M,-27.2,M,,*6E
2023-07-17T20:49:34.4216752Z, 6cda8203-a249-e411-b0cc-f8bc1246af59, $GPGGA,204934.00,4030.7399,N,12452.9818,W,2,14,0.5,25.6,M,-27.2,M,,*65
2023-07-17T20:49:36.3215745Z, 6cda8203-a249-e411-b0cc-f8bc1246af59, $GPGGA,204935.00,4030.7428,N,12452.9815,W,2,14,0.5,25.8,M,-27.2,M,,*6A
2023-07-17T20:49:36.6720489Z, 6cda8203-a249-e411-b0cc-f8bc1246af59, $GPGGA,204936.00,4030.7458,N,12452.9814,W,2,14,0.5,25.4,M,-27.2,M,,*63
2023-07-17T20:49:38.0919056Z, 6cda8203-a249-e411-b0cc-f8bc1246af59, $GPGGA,204937.00,4030.7484,N,12452.9813,W,2,14,0.5,25.2,M,-27.2,M,,*62
2023-07-17T20:49:38.4224730Z, 6cda8203-a249-e411-b0cc-f8bc1246af59, $GPGGA,204938.00,4030.7508,N,12452.9812,W,2,14,0.5,25.4,M,-27.2,M,,*6F
2023-07-17T20:49:40.0922550Z, 6cda8203-a249-e411-b0cc-f8bc1246af59, $GPGGA,204939.00,4030.7536,N,12452.9809,W,2,13,0.5,25.9,M,-27.2,M,,*63
2023-07-17T20:49:40.4218218Z, 6cda8203-a249-e411-b0cc-f8bc1246af59, $GPGGA,204940.00,4030.7566,N,12452.9809,W,2,13,0.5,25.8,M,-27.2,M,,*69
2023-07-17T20:49:42.1024978Z, 6cda8203-a249-e411-b0cc-f8bc1246af59, $GPGGA,204941.00,4030.7595,N,12452.9810,W,2,13,0.5,25.3,M,-27.2,M,,*67
2023-07-17T20:49:42.4221220Z, 6cda8203-a249-e411-b0cc-f8bc1246af59, $GPGGA,204942.00,4030.7620,N,12452.9811,W,2,13,0.5,25.3,M,-27.2,M,,*68
2023-07-17T20:49:44.0918905Z, 6cda8203-a249-e411-b0cc-f8bc1246af59, $GPGGA,204943.00,4030.7644,N,12452.9811,W,2,13,0.5,25.9,M,-27.2,M,,*61
2023-07-17T20:49:44.4224550Z, 6cda8203-a249-e411-b0cc-f8bc1246af59, $GPGGA,204944.00,4030.7673,N,12452.9810,W,2,13,0.5,26.3,M,-27.2,M,,*6A
2023-07-17T20:49:45.2223376Z, 6cda8203-a249-e411-b0cc-f8bc1246af59, $GPGGA,204945.00,4030.7702,N,12452.9808,W,2,13,0.5,26.2,M,-27.2,M,,*64
2023-07-17T20:49:47.0922602Z, 6cda8203-a249-e411-b0cc-f8bc1246af59, $GPGGA,204946.00,4030.7729,N,12452.9808,W,2,13,0.5,25.9,M,-27.2,M,,*66
2023-07-17T20:49:47.4228329Z, 6cda8203-a249-e411-b0cc-f8bc1246af59, $GPGGA,204947.00,4030.7754,N,12452.9809,W,2,13,0.5,25.7,M,-27.2,M,,*62
2023-07-17T20:49:49.0926054Z, 6cda8203-a249-e411-b0cc-f8bc1246af59, $GPGGA,204948.00,4030.7781,N,12452.9809,W,2,12,0.8,25.9,M,-27.2,M,,*67
2023-07-17T20:49:49.4231504Z, 6cda8203-a249-e411-b0cc-f8bc1246af59, $GPGGA,204949.00,4030.7808,N,12452.9809,W,2,12,0.8,26.2,M,-27.2,M,,*60
2023-07-17T20:49:50.3829608Z, 6cda8203-a249-e411-b0cc-f8bc1246af59, $GPGGA,204950.00,4030.7834,N,12452.9807,W,2,12,0.8,26.2,M,-27.2,M,,*69
2023-07-17T20:49:51.2233475Z, 6cda8203-a249-e411-b0cc-f8bc1246af59, $GPGGA,204951.00,4030.7861,N,12452.9806,W,2,12,0.8,26.0,M,-27.2,M,,*6B
2023-07-17T20:49:53.0932477Z, 6cda8203-a249-e411-b0cc-f8bc1246af59, $GPGGA,204952.00,4030.7889,N,12452.9806,W,2,12,0.8,25.8,M,-27.2,M,,*65
2023-07-17T20:49:53.9027273Z, 6cda8203-a249-e411-b0cc-f8bc1246af59, $GPGGA,204953.00,4030.7916,N,12452.9808,W,2,13,0.5,25.8,M,-27.2,M,,*61
2023-07-17T20:49:54.3826371Z, 6cda8203-a249-e411-b0cc-f8bc1246af59, $GPGGA,204954.00,4030.7943,N,12452.9809,W,2,13,0.5,25.8,M,-27.2,M,,*67
2023-07-17T20:49:55.2229880Z, 6cda8203-a249-e411-b0cc-f8bc1246af59, $GPGGA,204955.00,4030.7970,N,12452.9809,W,2,13,0.5,26.0,M,-27.2,M,,*6D
2023-07-17T20:49:57.0928950Z, 6cda8203-a249-e411-b0cc-f8bc1246af59, $GPGGA,204956.00,4030.7997,N,12452.9809,W,2,12,0.8,26.3,M,-27.2,M,,*68
2023-07-17T20:49:57.4333882Z, 6cda8203-a249-e411-b0cc-f8bc1246af59, $GPGGA,204957.00,4030.8025,N,12452.9809,W,2,12,0.8,26.2,M,-27.2,M,,*67
2023-07-17T20:49:59.2734206Z, 6cda8203-a249-e411-b0cc-f8bc1246af59, $GPGGA,204958.00,4030.8053,N,12452.9810,W,2,13,0.5,26.1,M,-27.2,M,,*6E
2023-07-17T20:49:59.7334169Z, 6cda8203-a249-e411-b0cc-f8bc1246af59, $GPGGA,204959.00,4030.8080,N,12452.9811,W,2,13,0.5,26.0,M,-27.2,M,,*61
2023-07-17T20:50:01.0879475Z, 6cda8203-a249-e411-b0cc-f8bc1246af59, $GPGGA,205000.00,4030.8106,N,12452.9811,W,2,13,0.5,26.2,M,-27.2,M,,*68
2023-07-17T20:50:01.4266802Z, 6cda8203-a249-e411-b0cc-f8bc1246af59, $GPGGA,205001.00,4030.8134,N,12452.9811,W,2,13,0.5,26.3,M,-27.2,M,,*69
2023-07-17T20:50:03.0835425Z, 6cda8203-a249-e411-b0cc-f8bc1246af59, $GPGGA,205002.00,4030.8163,N,12452.9813,W,2,13,0.5,26.3,M,-27.2,M,,*6A
2023-07-17T20:50:03.4230199Z, 6cda8203-a249-e411-b0cc-f8bc1246af59, $GPGGA,205003.00,4030.8189,N,12452.9815,W,2,13,0.5,26.2,M,-27.2,M,,*68
2023-07-17T20:50:05.0838830Z, 6cda8203-a249-e411-b0cc-f8bc1246af59, $GPGGA,205004.00,4030.8217,N,12452.9814,W,2,12,0.8,26.2,M,-27.2,M,,*66
2023-07-17T20:50:05.4233451Z, 6cda8203-a249-e411-b0cc-f8bc1246af59, $GPGGA,205005.00,4030.8245,N,12452.9813,W,2,12,0.8,26.2,M,-27.2,M,,*67
2023-07-17T20:50:06.2139550Z, 6cda8203-a249-e411-b0cc-f8bc1246af59, $GPGGA,205006.00,4030.8273,N,12452.9813,W,2,12,0.8,25.9,M,-27.2,M,,*69
2023-07-17T20:50:08.0838526Z, 6cda8203-a249-e411-b0cc-f8bc1246af59, $GPGGA,205007.00,4030.8300,N,12452.9814,W,2,13,0.5,25.7,M,-27.2,M,,*68
2023-07-17T20:50:08.4233381Z, 6cda8203-a249-e411-b0cc-f8bc1246af59, $GPGGA,205008.00,4030.8328,N,12452.9814,W,2,13,0.5,25.6,M,-27.2,M,,*6C
2023-07-17T20:50:10.0841862Z, 6cda8203-a249-e411-b0cc-f8bc1246af59, $GPGGA,205009.00,4030.8355,N,12452.9813,W,2,13,0.5,25.6,M,-27.2,M,,*60
2023-07-17T20:50:10.8737461Z, 6cda8203-a249-e411-b0cc-f8bc1246af59, $GPGGA,205010.00,4030.8383,N,12452.9811,W,2,13,0.5,25.6,M,-27.2,M,,*61
2023-07-17T20:50:11.3735438Z, 6cda8203-a249-e411-b0cc-f8bc1246af59, $GPGGA,205011.00,4030.8411,N,12452.9808,W,2,13,0.5,25.6,M,-27.2,M,,*64
2023-07-17T20:50:12.2238610Z, 6cda8203-a249-e411-b0cc-f8bc1246af59, $GPGGA,205012.00,4030.8440,N,12452.9806,W,2,13,0.5,25.3,M,-27.2,M,,*68
2023-07-17T20:50:14.0838637Z, 6cda8203-a249-e411-b0cc-f8bc1246af59, $GPGGA,205013.00,4030.8468,N,12452.9805,W,2,13,0.5,25.1,M,-27.2,M,,*62
2023-07-17T20:50:14.4144110Z, 6cda8203-a249-e411-b0cc-f8bc1246af59, $GPGGA,205014.00,4030.8494,N,12452.9805,W,2,13,0.5,25.2,M,-27.2,M,,*65
2023-07-17T20:50:15.3642802Z, 6cda8203-a249-e411-b0cc-f8bc1246af59, $GPGGA,205015.00,4030.8521,N,12452.9803,W,2,13,0.5,25.5,M,-27.2,M,,*6A
2023-07-17T20:50:16.8747252Z, 6cda8203-a249-e411-b0cc-f8bc1246af59, $GPGGA,205016.00,4030.8551,N,12452.9801,W,2,13,0.5,25.6,M,-27.2,M,,*6F
2023-07-17T20:50:18.0844870Z, 6cda8203-a249-e411-b0cc-f8bc1246af59, $GPGGA,205017.00,4030.8580,N,12452.9798,W,2,13,0.5,25.3,M,-27.2,M,,*68
2023-07-17T20:50:18.4140389Z, 6cda8203-a249-e411-b0cc-f8bc1246af59, $GPGGA,205018.00,4030.8608,N,12452.9796,W,2,13,0.5,25.1,M,-27.2,M,,*68
2023-07-17T20:50:20.0848230Z, 6cda8203-a249-e411-b0cc-f8bc1246af59, $GPGGA,205019.00,4030.8635,N,12452.9793,W,2,13,0.5,25.3,M,-27.2,M,,*60
2023-07-17T20:50:20.4143812Z, 6cda8203-a249-e411-b0cc-f8bc1246af59, $GPGGA,205020.00,4030.8662,N,12452.9790,W,2,13,0.5,25.5,M,-27.2,M,,*6D
2023-07-17T20:50:21.9951898Z, 6cda8203-a249-e411-b0cc-f8bc1246af59, $GPGGA,205021.00,4030.8692,N,12452.9788,W,2,12,0.8,25.5,M,-27.2,M,,*66
2023-07-17T20:50:22.5849528Z, 6cda8203-a249-e411-b0cc-f8bc1246af59, $GPGGA,205022.00,4030.8721,N,12452.9787,W,2,12,0.8,25.3,M,-27.2,M,,*65
2023-07-17T20:50:24.0844726Z, 6cda8203-a249-e411-b0cc-f8bc1246af59, $GPGGA,205023.00,4030.8749,N,12452.9784,W,2,13,0.5,25.3,M,-27.2,M,,*65
2023-07-17T20:50:24.4150266Z, 6cda8203-a249-e411-b0cc-f8bc1246af59, $GPGGA,205024.00,4030.8777,N,12452.9780,W,2,13,0.5,25.6,M,-27.2,M,,*6E
2023-07-17T20:50:25.2245279Z, 6cda8203-a249-e411-b0cc-f8bc1246af59, $GPGGA,205025.00,4030.8806,N,12452.9776,W,2,13,0.5,25.7,M,-27.2,M,,*6E
2023-07-17T20:50:27.0854646Z, 6cda8203-a249-e411-b0cc-f8bc1246af59, $GPGGA,205026.00,4030.8834,N,12452.9772,W,2,13,0.5,25.7,M,-27.2,M,,*68
2023-07-17T20:50:27.4150274Z, 6cda8203-a249-e411-b0cc-f8bc1246af59, $GPGGA,205027.00,4030.8863,N,12452.9769,W,2,13,0.5,25.4,M,-27.2,M,,*62
2023-07-17T20:50:29.0849203Z, 6cda8203-a249-e411-b0cc-f8bc1246af59, $GPGGA,205028.00,4030.8891,N,12452.9769,W,2,13,0.5,25.2,M,-27.2,M,,*66
2023-07-17T20:50:29.4154930Z, 6cda8203-a249-e411-b0cc-f8bc1246af59, $GPGGA,205029.00,4030.8920,N,12452.9767,W,2,13,0.5,25.1,M,-27.2,M,,*61
2023-07-17T20:50:31.0852523Z, 6cda8203-a249-e411-b0cc-f8bc1246af59, $GPGGA,205030.00,4030.8948,N,12452.9764,W,2,13,0.5,25.1,M,-27.2,M,,*64
2023-07-17T20:50:31.4158159Z, 6cda8203-a249-e411-b0cc-f8bc1246af59, $GPGGA,205031.00,4030.8977,N,12452.9761,W,2,13,0.5,25.0,M,-27.2,M,,*6D
2023-07-17T20:50:32.2380177Z, 6cda8203-a249-e411-b0cc-f8bc1246af59, $GPGGA,205032.00,4030.9004,N,12452.9761,W,2,13,0.5,24.9,M,-27.2,M,,*6A
2023-07-17T20:50:34.0852443Z, 6cda8203-a249-e411-b0cc-f8bc1246af59, $GPGGA,205033.00,4030.9031,N,12452.9759,W,2,13,0.5,25.2,M,-27.2,M,,*6C
2023-07-17T20:50:34.4157992Z, 6cda8203-a249-e411-b0cc-f8bc1246af59, $GPGGA,205034.00,4030.9060,N,12452.9755,W,2,13,0.5,25.3,M,-27.2,M,,*62
2023-07-17T20:50:35.2352433Z, 6cda8203-a249-e411-b0cc-f8bc1246af59, $GPGGA,205035.00,4030.9091,N,12452.9753,W,2,12,0.8,25.2,M,-27.2,M,,*66
2023-07-17T20:50:37.0862436Z, 6cda8203-a249-e411-b0cc-f8bc1246af59, $GPGGA,205036.00,4030.9119,N,12452.9751,W,2,12,0.8,25.1,M,-27.2,M,,*65
2023-07-17T20:50:37.4157950Z, 6cda8203-a249-e411-b0cc-f8bc1246af59, $GPGGA,205037.00,4030.9145,N,12452.9751,W,2,13,0.5,25.2,M,-27.2,M,,*62
2023-07-17T20:50:38.2362488Z, 6cda8203-a249-e411-b0cc-f8bc1246af59, $GPGGA,205038.00,4030.9171,N,12452.9749,W,2,13,0.5,25.5,M,-27.2,M,,*64
2023-07-17T20:50:40.0862202Z, 6cda8203-a249-e411-b0cc-f8bc1246af59, $GPGGA,205039.00,4030.9202,N,12452.9747,W,2,13,0.5,25.5,M,-27.2,M,,*6C
2023-07-17T20:50:40.4157707Z, 6cda8203-a249-e411-b0cc-f8bc1246af59, $GPGGA,205040.00,4030.9233,N,12452.9747,W,2,13,0.5,25.3,M,-27.2,M,,*66
2023-07-17T20:50:41.2362378Z, 6cda8203-a249-e411-b0cc-f8bc1246af59, $GPGGA,205041.00,4030.9260,N,12452.9745,W,2,13,0.5,25.3,M,-27.2,M,,*63
2023-07-17T20:50:43.0862235Z, 6cda8203-a249-e411-b0cc-f8bc1246af59, $GPGGA,205042.00,4030.9286,N,12452.9742,W,2,13,0.5,25.6,M,-27.2,M,,*6A
2023-07-17T20:50:43.4157762Z, 6cda8203-a249-e411-b0cc-f8bc1246af59, $GPGGA,205043.00,4030.9315,N,12452.9739,W,2,13,0.5,25.7,M,-27.2,M,,*6D
2023-07-17T20:50:44.2362215Z, 6cda8203-a249-e411-b0cc-f8bc1246af59, $GPGGA,205044.00,4030.9345,N,12452.9738,W,2,13,0.5,25.4,M,-27.2,M,,*6D
2023-07-17T20:50:46.0961236Z, 6cda8203-a249-e411-b0cc-f8bc1246af59, $GPGGA,205045.00,4030.9374,N,12452.9739,W,2,13,0.5,25.0,M,-27.2,M,,*6B
2023-07-17T20:50:46.4167755Z, 6cda8203-a249-e411-b0cc-f8bc1246af59, $GPGGA,205046.00,4030.9401,N,12452.9738,W,2,13,0.5,25.0,M,-27.2,M,,*6C
2023-07-17T20:50:47.4064360Z, 6cda8203-a249-e411-b0cc-f8bc1246af59, $GPGGA,205047.00,4030.9428,N,12452.9734,W,2,13,0.5,25.4,M,-27.2,M,,*6E
2023-07-17T20:50:48.2368857Z, 6cda8203-a249-e411-b0cc-f8bc1246af59, $GPGGA,205048.00,4030.9455,N,12452.9730,W,2,13,0.5,25.5,M,-27.2,M,,*6E
2023-07-17T20:50:50.0868624Z, 6cda8203-a249-e411-b0cc-f8bc1246af59, $GPGGA,205049.00,4030.9485,N,12452.9728,W,2,13,0.5,25.4,M,-27.2,M,,*6A
2023-07-17T20:50:50.4164179Z, 6cda8203-a249-e411-b0cc-f8bc1246af59, $GPGGA,205050.00,4030.9514,N,12452.9729,W,2,12,0.8,25.1,M,-27.2,M,,*63
2023-07-17T20:50:51.2368665Z, 6cda8203-a249-e411-b0cc-f8bc1246af59, $GPGGA,205051.00,4030.9541,N,12452.9729,W,2,12,0.8,24.9,M,-27.2,M,,*6B
2023-07-17T20:50:53.0877838Z, 6cda8203-a249-e411-b0cc-f8bc1246af59, $GPGGA,205052.00,4030.9568,N,12452.9728,W,2,12,0.8,25.2,M,-27.2,M,,*68
2023-07-17T20:50:53.4165202Z, 6cda8203-a249-e411-b0cc-f8bc1246af59, $GPGGA,205053.00,4030.9595,N,12452.9725,W,2,12,0.8,25.6,M,-27.2,M,,*62
2023-07-17T20:50:54.2369700Z, 6cda8203-a249-e411-b0cc-f8bc1246af59, $GPGGA,205054.00,4030.9623,N,12452.9723,W,2,12,0.8,25.7,M,-27.2,M,,*6C
2023-07-17T20:50:56.0869468Z, 6cda8203-a249-e411-b0cc-f8bc1246af59, $GPGGA,205055.00,4030.9652,N,12452.9723,W,2,12,0.8,25.4,M,-27.2,M,,*68
2023-07-17T20:50:56.4175304Z, 6cda8203-a249-e411-b0cc-f8bc1246af59, $GPGGA,205056.00,4030.9681,N,12452.9724,W,2,12,0.8,25.0,M,-27.2,M,,*66
2023-07-17T20:50:57.2468827Z, 6cda8203-a249-e411-b0cc-f8bc1246af59, $GPGGA,205057.00,4030.9710,N,12452.9725,W,2,12,0.8,24.8,M,-27.2,M,,*66
2023-07-17T20:50:59.0869496Z, 6cda8203-a249-e411-b0cc-f8bc1246af59, $GPGGA,205058.00,4030.9738,N,12452.9726,W,2,12,0.8,24.8,M,-27.2,M,,*60
2023-07-17T20:50:59.4175050Z, 6cda8203-a249-e411-b0cc-f8bc1246af59, $GPGGA,205059.00,4030.9764,N,12452.9724,W,2,12,0.8,25.2,M,-27.2,M,,*61
2023-07-17T20:51:00.2478822Z, 6cda8203-a249-e411-b0cc-f8bc1246af59, $GPGGA,205100.00,4030.9792,N,12452.9721,W,2,12,0.8,25.5,M,-27.2,M,,*67
2023-07-17T20:51:02.0879503Z, 6cda8203-a249-e411-b0cc-f8bc1246af59, $GPGGA,205101.00,4030.9822,N,12452.9718,W,2,13,0.5,25.5,M,-27.2,M,,*64
2023-07-17T20:51:02.4174833Z, 6cda8203-a249-e411-b0cc-f8bc1246af59, $GPGGA,205102.00,4030.9852,N,12452.9718,W,2,13,0.5,25.2,M,-27.2,M,,*67
2023-07-17T20:51:03.2479094Z, 6cda8203-a249-e411-b0cc-f8bc1246af59, $GPGGA,205103.00,4030.9880,N,12452.9719,W,2,13,0.5,24.8,M,-27.2,M,,*63
2023-07-17T20:51:05.0879377Z, 6cda8203-a249-e411-b0cc-f8bc1246af59, $GPGGA,205104.00,4030.9906,N,12452.9722,W,2,12,0.8,24.7,M,-27.2,M,,*60
2023-07-17T20:51:05.4174818Z, 6cda8203-a249-e411-b0cc-f8bc1246af59, $GPGGA,205105.00,4030.9933,N,12452.9721,W,2,12,0.8,25.0,M,-27.2,M,,*62
2023-07-17T20:51:06.2481803Z, 6cda8203-a249-e411-b0cc-f8bc1246af59, $GPGGA,205106.00,4030.9962,N,12452.9718,W,2,13,0.5,25.1,M,-27.2,M,,*62
2023-07-17T20:51:08.0881945Z, 6cda8203-a249-e411-b0cc-f8bc1246af59, $GPGGA,205107.00,4030.9991,N,12452.9716,W,2,13,0.5,24.9,M,-27.2,M,,*68
2023-07-17T20:51:08.4177404Z, 6cda8203-a249-e411-b0cc-f8bc1246af59, $GPGGA,205108.00,4031.0020,N,12452.9715,W,2,13,0.5,24.6,M,-27.2,M,,*60
2023-07-17T20:51:09.2481404Z, 6cda8203-a249-e411-b0cc-f8bc1246af59, $GPGGA,205109.00,4031.0047,N,12452.9716,W,2,13,0.5,24.6,M,-27.2,M,,*63
2023-07-17T20:51:11.0881802Z, 6cda8203-a249-e411-b0cc-f8bc1246af59, $GPGGA,205110.00,4031.0074,N,12452.9718,W,2,13,0.5,24.8,M,-27.2,M,,*6B
2023-07-17T20:51:11.4177304Z, 6cda8203-a249-e411-b0cc-f8bc1246af59, $GPGGA,205111.00,4031.0101,N,12452.9719,W,2,13,0.5,25.1,M,-27.2,M,,*60
2023-07-17T20:51:12.2481516Z, 6cda8203-a249-e411-b0cc-f8bc1246af59, $GPGGA,205112.00,4031.0130,N,12452.9718,W,2,13,0.5,25.1,M,-27.2,M,,*60
2023-07-17T20:51:13.2488063Z, 6cda8203-a249-e411-b0cc-f8bc1246af59, $GPGGA,205113.00,4031.0159,N,12452.9715,W,2,12,0.8,25.0,M,-27.2,M,,*6E
2023-07-17T20:51:14.4187258Z, 6cda8203-a249-e411-b0cc-f8bc1246af59, $GPGGA,205114.00,4031.0187,N,12452.9713,W,2,12,0.8,24.9,M,-27.2,M,,*64
2023-07-17T20:51:15.2481315Z, 6cda8203-a249-e411-b0cc-f8bc1246af59, $GPGGA,205115.00,4031.0215,N,12452.9713,W,2,12,0.8,25.0,M,-27.2,M,,*65
2023-07-17T20:51:16.2587977Z, 6cda8203-a249-e411-b0cc-f8bc1246af59, $GPGGA,205116.00,4031.0243,N,12452.9713,W,2,13,0.5,25.1,M,-27.2,M,,*68
2023-07-17T20:51:18.0888902Z, 6cda8203-a249-e411-b0cc-f8bc1246af59, $GPGGA,205117.00,4031.0272,N,12452.9712,W,2,13,0.5,25.3,M,-27.2,M,,*68
2023-07-17T20:51:18.4184530Z, 6cda8203-a249-e411-b0cc-f8bc1246af59, $GPGGA,205118.00,4031.0300,N,12452.9710,W,2,13,0.5,25.4,M,-27.2,M,,*66
2023-07-17T20:51:19.2517741Z, 6cda8203-a249-e411-b0cc-f8bc1246af59, $GPGGA,205119.00,4031.0329,N,12452.9708,W,2,13,0.5,25.3,M,-27.2,M,,*62
2023-07-17T20:51:20.2584591Z, 6cda8203-a249-e411-b0cc-f8bc1246af59, $GPGGA,205120.00,4031.0357,N,12452.9708,W,2,13,0.5,25.0,M,-27.2,M,,*62
2023-07-17T20:51:21.4184360Z, 6cda8203-a249-e411-b0cc-f8bc1246af59, $GPGGA,205121.00,4031.0385,N,12452.9708,W,2,12,0.8,24.9,M,-27.2,M,,*68
2023-07-17T20:51:22.2587627Z, 6cda8203-a249-e411-b0cc-f8bc1246af59, $GPGGA,205122.00,4031.0414,N,12452.9707,W,2,12,0.8,25.0,M,-27.2,M,,*63
2023-07-17T20:51:24.0888748Z, 6cda8203-a249-e411-b0cc-f8bc1246af59, $GPGGA,205123.00,4031.0442,N,12452.9704,W,2,13,0.5,25.2,M,-27.2,M,,*6C
2023-07-17T20:51:24.4194340Z, 6cda8203-a249-e411-b0cc-f8bc1246af59, $GPGGA,205124.00,4031.0469,N,12452.9701,W,2,13,0.5,25.3,M,-27.2,M,,*66
2023-07-17T20:51:25.2588189Z, 6cda8203-a249-e411-b0cc-f8bc1246af59, $GPGGA,205125.00,4031.0497,N,12452.9698,W,2,13,0.5,25.3,M,-27.2,M,,*67
2023-07-17T20:51:27.0888539Z, 6cda8203-a249-e411-b0cc-f8bc1246af59, $GPGGA,205126.00,4031.0524,N,12452.9696,W,2,13,0.5,25.3,M,-27.2,M,,*63
2023-07-17T20:51:27.4194173Z, 6cda8203-a249-e411-b0cc-f8bc1246af59, $GPGGA,205127.00,4031.0553,N,12452.9694,W,2,13,0.5,25.3,M,-27.2,M,,*60
2023-07-17T20:51:28.2597959Z, 6cda8203-a249-e411-b0cc-f8bc1246af59, $GPGGA,205128.00,4031.0582,N,12452.9693,W,2,13,0.5,25.0,M,-27.2,M,,*67
2023-07-17T20:51:30.0898589Z, 6cda8203-a249-e411-b0cc-f8bc1246af59, $GPGGA,205129.00,4031.0611,N,12452.9693,W,2,13,0.5,24.8,M,-27.2,M,,*66
2023-07-17T20:51:30.4194094Z, 6cda8203-a249-e411-b0cc-f8bc1246af59, $GPGGA,205130.00,4031.0639,N,12452.9691,W,2,13,0.5,24.9,M,-27.2,M,,*67
2023-07-17T20:51:31.2597702Z, 6cda8203-a249-e411-b0cc-f8bc1246af59, $GPGGA,205131.00,4031.0667,N,12452.9688,W,2,13,0.5,25.3,M,-27.2,M,,*6E
2023-07-17T20:51:32.2594348Z, 6cda8203-a249-e411-b0cc-f8bc1246af59, $GPGGA,205132.00,4031.0696,N,12452.9683,W,2,13,0.5,25.8,M,-27.2,M,,*63
2023-07-17T20:51:33.4320042Z, 6cda8203-a249-e411-b0cc-f8bc1246af59, $GPGGA,205133.00,4031.0726,N,12452.9680,W,2,13,0.5,25.7,M,-27.2,M,,*64
2023-07-17T20:51:34.2598600Z, 6cda8203-a249-e411-b0cc-f8bc1246af59, $GPGGA,205134.00,4031.0755,N,12452.9678,W,2,13,0.5,25.4,M,-27.2,M,,*63
2023-07-17T20:51:35.2595103Z, 6cda8203-a249-e411-b0cc-f8bc1246af59, $GPGGA,205135.00,4031.0783,N,12452.9678,W,2,13,0.5,25.2,M,-27.2,M,,*6F
2023-07-17T20:51:36.4011427Z, 6cda8203-a249-e411-b0cc-f8bc1246af59, $GPGGA,205136.00,4031.0811,N,12452.9677,W,2,13,0.5,25.3,M,-27.2,M,,*66
2023-07-17T20:51:37.2602350Z, 6cda8203-a249-e411-b0cc-f8bc1246af59, $GPGGA,205137.00,4031.0840,N,12452.9676,W,2,13,0.5,25.5,M,-27.2,M,,*64
2023-07-17T20:51:38.2598985Z, 6cda8203-a249-e411-b0cc-f8bc1246af59, $GPGGA,205138.00,4031.0869,N,12452.9674,W,2,13,0.5,25.2,M,-27.2,M,,*65
2023-07-17T20:51:40.0899748Z, 6cda8203-a249-e411-b0cc-f8bc1246af59, $GPGGA,205139.00,4031.0898,N,12452.9672,W,2,13,0.5,24.9,M,-27.2,M,,*66
2023-07-17T20:51:40.4205474Z, 6cda8203-a249-e411-b0cc-f8bc1246af59, $GPGGA,205140.00,4031.0924,N,12452.9669,W,2,13,0.5,25.0,M,-27.2,M,,*6C
2023-07-17T20:51:42.2506161Z, 6cda8203-a249-e411-b0cc-f8bc1246af59, $GPGGA,205141.00,4031.0952,N,12452.9665,W,2,13,0.5,25.2,M,-27.2,M,,*62
2023-07-17T20:51:42.6807187Z, 6cda8203-a249-e411-b0cc-f8bc1246af59, $GPGGA,205142.00,4031.0981,N,12452.9661,W,2,13,0.5,25.1,M,-27.2,M,,*68
2023-07-17T20:51:44.0906411Z, 6cda8203-a249-e411-b0cc-f8bc1246af59, $GPGGA,205143.00,4031.1011,N,12452.9660,W,2,13,0.5,24.8,M,-27.2,M,,*61
2023-07-17T20:51:44.4201802Z, 6cda8203-a249-e411-b0cc-f8bc1246af59, $GPGGA,205144.00,4031.1038,N,12452.9660,W,2,13,0.5,24.6,M,-27.2,M,,*63
2023-07-17T20:51:45.3810001Z, 6cda8203-a249-e411-b0cc-f8bc1246af59, $GPGGA,205145.00,4031.1064,N,12452.9658,W,2,13,0.5,24.9,M,-27.2,M,,*6F
2023-07-17T20:51:46.2203520Z, 6cda8203-a249-e411-b0cc-f8bc1246af59, $GPGGA,205146.00,4031.1093,N,12452.9655,W,2,13,0.5,25.2,M,-27.2,M,,*63
2023-07-17T20:51:48.1908219Z, 6cda8203-a249-e411-b0cc-f8bc1246af59, $GPGGA,205147.00,4031.1122,N,12452.9652,W,2,13,0.5,25.0,M,-27.2,M,,*6C
2023-07-17T20:51:48.7205202Z, 6cda8203-a249-e411-b0cc-f8bc1246af59, $GPGGA,205148.00,4031.1151,N,12452.9651,W,2,13,0.5,24.6,M,-27.2,M,,*63
2023-07-17T20:51:50.0906127Z, 6cda8203-a249-e411-b0cc-f8bc1246af59, $GPGGA,205149.00,4031.1179,N,12452.9652,W,2,13,0.5,24.4,M,-27.2,M,,*69
2023-07-17T20:51:50.4211883Z, 6cda8203-a249-e411-b0cc-f8bc1246af59, $GPGGA,205150.00,4031.1208,N,12452.9651,W,2,13,0.5,24.5,M,-27.2,M,,*66
2023-07-17T20:51:52.0909339Z, 6cda8203-a249-e411-b0cc-f8bc1246af59, $GPGGA,205151.00,4031.1235,N,12452.9649,W,2,13,0.5,24.9,M,-27.2,M,,*6C
2023-07-17T20:51:52.4215049Z, 6cda8203-a249-e411-b0cc-f8bc1246af59, $GPGGA,205152.00,4031.1263,N,12452.9644,W,2,13,0.5,25.3,M,-27.2,M,,*6A
2023-07-17T20:51:54.0912763Z, 6cda8203-a249-e411-b0cc-f8bc1246af59, $GPGGA,205153.00,4031.1293,N,12452.9640,W,2,13,0.5,25.2,M,-27.2,M,,*61
2023-07-17T20:51:54.4209044Z, 6cda8203-a249-e411-b0cc-f8bc1246af59, $GPGGA,205154.00,4031.1322,N,12452.9639,W,2,13,0.5,24.9,M,-27.2,M,,*69
2023-07-17T20:51:56.1006014Z, 6cda8203-a249-e411-b0cc-f8bc1246af59, $GPGGA,205155.00,4031.1348,N,12452.9638,W,2,13,0.5,24.8,M,-27.2,M,,*64
2023-07-17T20:51:56.4212508Z, 6cda8203-a249-e411-b0cc-f8bc1246af59, $GPGGA,205156.00,4031.1375,N,12452.9637,W,2,13,0.5,25.0,M,-27.2,M,,*6F
2023-07-17T20:51:58.0910072Z, 6cda8203-a249-e411-b0cc-f8bc1246af59, $GPGGA,205157.00,4031.1405,N,12452.9636,W,2,13,0.5,24.9,M,-27.2,M,,*67
2023-07-17T20:51:58.4215630Z, 6cda8203-a249-e411-b0cc-f8bc1246af59, $GPGGA,205158.00,4031.1434,N,12452.9635,W,2,13,0.5,24.5,M,-27.2,M,,*65
2023-07-17T20:52:00.0913261Z, 6cda8203-a249-e411-b0cc-f8bc1246af59, $GPGGA,205159.00,4031.1460,N,12452.9633,W,2,13,0.5,24.4,M,-27.2,M,,*62
2023-07-17T20:52:00.4219107Z, 6cda8203-a249-e411-b0cc-f8bc1246af59, $GPGGA,205200.00,4031.1487,N,12452.9630,W,2,13,0.5,24.8,M,-27.2,M,,*6B
2023-07-17T20:52:01.3717880Z, 6cda8203-a249-e411-b0cc-f8bc1246af59, $GPGGA,205201.00,4031.1516,N,12452.9627,W,2,13,0.5,25.0,M,-27.2,M,,*6C
2023-07-17T20:52:02.2221090Z, 6cda8203-a249-e411-b0cc-f8bc1246af59, $GPGGA,205202.00,4031.1547,N,12452.9625,W,2,13,0.5,24.8,M,-27.2,M,,*60
2023-07-17T20:52:04.0919923Z, 6cda8203-a249-e411-b0cc-f8bc1246af59, $GPGGA,205203.00,4031.1573,N,12452.9624,W,2,13,0.5,24.5,M,-27.2,M,,*6A
2023-07-17T20:52:04.4215560Z, 6cda8203-a249-e411-b0cc-f8bc1246af59, $GPGGA,205204.00,4031.1599,N,12452.9623,W,2,13,0.5,24.7,M,-27.2,M,,*6C
2023-07-17T20:52:06.0923225Z, 6cda8203-a249-e411-b0cc-f8bc1246af59, $GPGGA,205205.00,4031.1627,N,12452.9621,W,2,13,0.5,25.0,M,-27.2,M,,*6F
2023-07-17T20:52:06.4218761Z, 6cda8203-a249-e411-b0cc-f8bc1246af59, $GPGGA,205206.00,4031.1656,N,12452.9620,W,2,13,0.5,24.5,M,-27.2,M,,*6F
2023-07-17T20:52:08.0926516Z, 6cda8203-a249-e411-b0cc-f8bc1246af59, $GPGGA,205207.00,4031.1684,N,12452.9621,W,2,13,0.5,24.3,M,-27.2,M,,*66
2023-07-17T20:52:08.4222006Z, 6cda8203-a249-e411-b0cc-f8bc1246af59, $GPGGA,205208.00,4031.1711,N,12452.9620,W,2,13,0.5,24.4,M,-27.2,M,,*62
2023-07-17T20:52:10.0919716Z, 6cda8203-a249-e411-b0cc-f8bc1246af59, $GPGGA,205209.00,4031.1738,N,12452.9617,W,2,13,0.5,24.7,M,-27.2,M,,*6F
2023-07-17T20:52:10.4225430Z, 6cda8203-a249-e411-b0cc-f8bc1246af59, $GPGGA,205210.00,4031.1768,N,12452.9617,W,2,13,0.5,24.7,M,-27.2,M,,*62
2023-07-17T20:52:11.3823335Z, 6cda8203-a249-e411-b0cc-f8bc1246af59, $GPGGA,205211.00,4031.1797,N,12452.9619,W,2,13,0.5,24.6,M,-27.2,M,,*6C
2023-07-17T20:52:12.2366097Z, 6cda8203-a249-e411-b0cc-f8bc1246af59, $GPGGA,205212.00,4031.1824,N,12452.9620,W,2,13,0.5,24.6,M,-27.2,M,,*62
2023-07-17T20:52:14.0926288Z, 6cda8203-a249-e411-b0cc-f8bc1246af59, $GPGGA,205213.00,4031.1850,N,12452.9617,W,2,13,0.5,24.9,M,-27.2,M,,*6B
2023-07-17T20:52:14.4221836Z, 6cda8203-a249-e411-b0cc-f8bc1246af59, $GPGGA,205214.00,4031.1877,N,12452.9613,W,2,13,0.5,25.3,M,-27.2,M,,*66
2023-07-17T20:52:15.2227130Z, 6cda8203-a249-e411-b0cc-f8bc1246af59, $GPGGA,205215.00,4031.1907,N,12452.9609,W,2,13,0.5,25.4,M,-27.2,M,,*6D
2023-07-17T20:52:17.1732435Z, 6cda8203-a249-e411-b0cc-f8bc1246af59, $GPGGA,205216.00,4031.1936,N,12452.9610,W,2,13,0.5,24.9,M,-27.2,M,,*68
2023-07-17T20:52:17.4231900Z, 6cda8203-a249-e411-b0cc-f8bc1246af59, $GPGGA,205217.00,4031.1963,N,12452.9610,W,2,13,0.5,24.8,M,-27.2,M,,*68
2023-07-17T20:52:19.0929438Z, 6cda8203-a249-e411-b0cc-f8bc1246af59, $GPGGA,205218.00,4031.1988,N,12452.9610,W,2,13,0.5,25.1,M,-27.2,M,,*6A
2023-07-17T20:52:19.4225037Z, 6cda8203-a249-e411-b0cc-f8bc1246af59, $GPGGA,205219.00,4031.2016,N,12452.9607,W,2,12,0.8,25.5,M,-27.2,M,,*68
2023-07-17T20:52:20.3733909Z, 6cda8203-a249-e411-b0cc-f8bc1246af59, $GPGGA,205220.00,4031.2046,N,12452.9606,W,2,12,0.8,25.4,M,-27.2,M,,*67
2023-07-17T20:52:21.2326566Z, 6cda8203-a249-e411-b0cc-f8bc1246af59, $GPGGA,205221.00,4031.2074,N,12452.9605,W,2,13,0.5,25.0,M,-27.2,M,,*6C
2023-07-17T20:52:23.0936010Z, 6cda8203-a249-e411-b0cc-f8bc1246af59, $GPGGA,205222.00,4031.2101,N,12452.9603,W,2,13,0.5,24.9,M,-27.2,M,,*62
2023-07-17T20:52:23.4231535Z, 6cda8203-a249-e411-b0cc-f8bc1246af59, $GPGGA,205223.00,4031.2127,N,12452.9601,W,2,12,0.8,25.0,M,-27.2,M,,*61
2023-07-17T20:52:24.2336527Z, 6cda8203-a249-e411-b0cc-f8bc1246af59, $GPGGA,205224.00,4031.2154,N,12452.9599,W,2,12,0.8,25.2,M,-27.2,M,,*62
2023-07-17T20:52:26.0935916Z, 6cda8203-a249-e411-b0cc-f8bc1246af59, $GPGGA,205225.00,4031.2184,N,12452.9596,W,2,12,0.8,25.2,M,-27.2,M,,*61
2023-07-17T20:52:26.4231487Z, 6cda8203-a249-e411-b0cc-f8bc1246af59, $GPGGA,205226.00,4031.2213,N,12452.9595,W,2,13,0.5,24.7,M,-27.2,M,,*64
2023-07-17T20:52:27.2336499Z, 6cda8203-a249-e411-b0cc-f8bc1246af59, $GPGGA,205227.00,4031.2241,N,12452.9595,W,2,13,0.5,24.5,M,-27.2,M,,*60
2023-07-17T20:52:29.0935787Z, 6cda8203-a249-e411-b0cc-f8bc1246af59, $GPGGA,205228.00,4031.2266,N,12452.9595,W,2,13,0.5,24.7,M,-27.2,M,,*68
2023-07-17T20:52:29.4241532Z, 6cda8203-a249-e411-b0cc-f8bc1246af59, $GPGGA,205229.00,4031.2292,N,12452.9591,W,2,13,0.5,25.3,M,-27.2,M,,*63
2023-07-17T20:52:30.2336251Z, 6cda8203-a249-e411-b0cc-f8bc1246af59, $GPGGA,205230.00,4031.2323,N,12452.9587,W,2,13,0.5,25.4,M,-27.2,M,,*60
2023-07-17T20:52:32.0935615Z, 6cda8203-a249-e411-b0cc-f8bc1246af59, $GPGGA,205231.00,4031.2351,N,12452.9584,W,2,13,0.5,25.0,M,-27.2,M,,*63
2023-07-17T20:52:32.4241422Z, 6cda8203-a249-e411-b0cc-f8bc1246af59, $GPGGA,205232.00,4031.2376,N,12452.9583,W,2,13,0.5,24.9,M,-27.2,M,,*6A
2023-07-17T20:52:34.0938987Z, 6cda8203-a249-e411-b0cc-f8bc1246af59, $GPGGA,205233.00,4031.2401,N,12452.9583,W,2,13,0.5,25.1,M,-27.2,M,,*65
2023-07-17T20:52:34.4244578Z, 6cda8203-a249-e411-b0cc-f8bc1246af59, $GPGGA,205234.00,4031.2431,N,12452.9584,W,2,13,0.5,25.1,M,-27.2,M,,*66
2023-07-17T20:52:36.0960457Z, 6cda8203-a249-e411-b0cc-f8bc1246af59, $GPGGA,205235.00,4031.2460,N,12452.9583,W,2,13,0.5,25.0,M,-27.2,M,,*65
2023-07-17T20:52:36.4237777Z, 6cda8203-a249-e411-b0cc-f8bc1246af59, $GPGGA,205236.00,4031.2485,N,12452.9579,W,2,13,0.5,25.0,M,-27.2,M,,*68
2023-07-17T20:52:38.0945644Z, 6cda8203-a249-e411-b0cc-f8bc1246af59, $GPGGA,205237.00,4031.2509,N,12452.9574,W,2,13,0.5,25.4,M,-27.2,M,,*65
2023-07-17T20:52:38.4241196Z, 6cda8203-a249-e411-b0cc-f8bc1246af59, $GPGGA,205238.00,4031.2535,N,12452.9571,W,2,13,0.5,25.7,M,-27.2,M,,*63
2023-07-17T20:52:40.2740837Z, 6cda8203-a249-e411-b0cc-f8bc1246af59, $GPGGA,205239.00,4031.2563,N,12452.9570,W,2,13,0.5,25.5,M,-27.2,M,,*62
2023-07-17T20:52:40.6942481Z, 6cda8203-a249-e411-b0cc-f8bc1246af59, $GPGGA,205240.00,4031.2591,N,12452.9570,W,2,13,0.5,25.1,M,-27.2,M,,*65
2023-07-17T20:52:41.3743356Z, 6cda8203-a249-e411-b0cc-f8bc1246af59, $GPGGA,205241.00,4031.2617,N,12452.9568,W,2,13,0.5,25.0,M,-27.2,M,,*61
2023-07-17T20:52:42.2346012Z, 6cda8203-a249-e411-b0cc-f8bc1246af59, $GPGGA,205242.00,4031.2643,N,12452.9565,W,2,13,0.5,25.4,M,-27.2,M,,*6A
2023-07-17T20:52:44.0945333Z, 6cda8203-a249-e411-b0cc-f8bc1246af59, $GPGGA,205243.00,4031.2668,N,12452.9562,W,2,13,0.5,25.8,M,-27.2,M,,*69
2023-07-17T20:52:44.4251005Z, 6cda8203-a249-e411-b0cc-f8bc1246af59, $GPGGA,205244.00,4031.2696,N,12452.9559,W,2,13,0.5,25.9,M,-27.2,M,,*66
2023-07-17T20:52:45.2445054Z, 6cda8203-a249-e411-b0cc-f8bc1246af59, $GPGGA,205245.00,4031.2724,N,12452.9557,W,2,13,0.5,25.7,M,-27.2,M,,*6F
2023-07-17T20:52:47.0945224Z, 6cda8203-a249-e411-b0cc-f8bc1246af59, $GPGGA,205246.00,4031.2752,N,12452.9556,W,2,13,0.5,25.3,M,-27.2,M,,*68
2023-07-17T20:52:47.4250917Z, 6cda8203-a249-e411-b0cc-f8bc1246af59, $GPGGA,205247.00,4031.2778,N,12452.9555,W,2,13,0.5,25.2,M,-27.2,M,,*63
2023-07-17T20:52:48.2445210Z, 6cda8203-a249-e411-b0cc-f8bc1246af59, $GPGGA,205248.00,4031.2804,N,12452.9554,W,2,13,0.5,25.3,M,-27.2,M,,*68
2023-07-17T20:52:50.0955243Z, 6cda8203-a249-e411-b0cc-f8bc1246af59, $GPGGA,205249.00,4031.2832,N,12452.9552,W,2,13,0.5,25.5,M,-27.2,M,,*6C
2023-07-17T20:52:50.4250757Z, 6cda8203-a249-e411-b0cc-f8bc1246af59, $GPGGA,205250.00,4031.2860,N,12452.9549,W,2,13,0.5,25.5,M,-27.2,M,,*69
2023-07-17T20:52:51.4048182Z, 6cda8203-a249-e411-b0cc-f8bc1246af59, $GPGGA,205251.00,4031.2888,N,12452.9547,W,2,13,0.5,25.4,M,-27.2,M,,*61
2023-07-17T20:52:53.1556992Z, 6cda8203-a249-e411-b0cc-f8bc1246af59, $GPGGA,205252.00,4031.2915,N,12452.9544,W,2,13,0.5,25.6,M,-27.2,M,,*66
2023-07-17T20:52:54.0956335Z, 6cda8203-a249-e411-b0cc-f8bc1246af59, $GPGGA,205253.00,4031.2943,N,12452.9541,W,2,13,0.5,25.8,M,-27.2,M,,*6F
2023-07-17T20:52:54.4251874Z, 6cda8203-a249-e411-b0cc-f8bc1246af59, $GPGGA,205254.00,4031.2971,N,12452.9540,W,2,13,0.5,25.6,M,-27.2,M,,*66
2023-07-17T20:52:55.2456531Z, 6cda8203-a249-e411-b0cc-f8bc1246af59, $GPGGA,205255.00,4031.2997,N,12452.9541,W,2,13,0.5,25.5,M,-27.2,M,,*6D
2023-07-17T20:52:57.0956136Z, 6cda8203-a249-e411-b0cc-f8bc1246af59, $GPGGA,205256.00,4031.3024,N,12452.9540,W,2,13,0.5,25.4,M,-27.2,M,,*6E
2023-07-17T20:52:57.4251697Z, 6cda8203-a249-e411-b0cc-f8bc1246af59, $GPGGA,205257.00,4031.3053,N,12452.9537,W,2,13,0.5,25.4,M,-27.2,M,,*6F
2023-07-17T20:52:58.8858179Z, 6cda8203-a249-e411-b0cc-f8bc1246af59, $GPGGA,205258.00,4031.3081,N,12452.9535,W,2,13,0.5,25.3,M,-27.2,M,,*6A
2023-07-17T20:53:00.0956842Z, 6cda8203-a249-e411-b0cc-f8bc1246af59, $GPGGA,205259.00,4031.3106,N,12452.9534,W,2,13,0.5,25.4,M,-27.2,M,,*63
2023-07-17T20:53:00.4262702Z, 6cda8203-a249-e411-b0cc-f8bc1246af59, $GPGGA,205300.00,4031.3132,N,12452.9531,W,2,13,0.5,25.8,M,-27.2,M,,*60
2023-07-17T20:53:01.2456971Z, 6cda8203-a249-e411-b0cc-f8bc1246af59, $GPGGA,205301.00,4031.3161,N,12452.9527,W,2,13,0.5,26.1,M,-27.2,M,,*6A
2023-07-17T20:53:03.0956798Z, 6cda8203-a249-e411-b0cc-f8bc1246af59, $GPGGA,205302.00,4031.3189,N,12452.9524,W,2,13,0.5,25.9,M,-27.2,M,,*67
2023-07-17T20:53:03.4262502Z, 6cda8203-a249-e411-b0cc-f8bc1246af59, $GPGGA,205303.00,4031.3216,N,12452.9523,W,2,12,0.8,25.7,M,-27.2,M,,*66
2023-07-17T20:53:04.8460877Z, 6cda8203-a249-e411-b0cc-f8bc1246af59, $GPGGA,205304.00,4031.3242,N,12452.9521,W,2,12,0.8,25.9,M,-27.2,M,,*6C
2023-07-17T20:53:06.0999984Z, 6cda8203-a249-e411-b0cc-f8bc1246af59, $GPGGA,205305.00,4031.3270,N,12452.9518,W,2,12,0.8,26.2,M,-27.2,M,,*6E
2023-07-17T20:53:06.4262263Z, 6cda8203-a249-e411-b0cc-f8bc1246af59, $GPGGA,205306.00,4031.3299,N,12452.9516,W,2,12,0.8,26.1,M,-27.2,M,,*67
2023-07-17T20:53:07.2566191Z, 6cda8203-a249-e411-b0cc-f8bc1246af59, $GPGGA,205307.00,4031.3328,N,12452.9516,W,2,13,0.5,25.7,M,-27.2,M,,*64
2023-07-17T20:53:09.0966648Z, 6cda8203-a249-e411-b0cc-f8bc1246af59, $GPGGA,205308.00,4031.3355,N,12452.9515,W,2,13,0.5,25.7,M,-27.2,M,,*62
2023-07-17T20:53:09.4262467Z, 6cda8203-a249-e411-b0cc-f8bc1246af59, $GPGGA,205309.00,4031.3381,N,12452.9513,W,2,11,0.8,26.0,M,-27.2,M,,*67
2023-07-17T20:53:10.8869203Z, 6cda8203-a249-e411-b0cc-f8bc1246af59, $GPGGA,205310.00,4031.3409,N,12452.9510,W,2,11,0.8,26.4,M,-27.2,M,,*6F
2023-07-17T20:53:12.0966415Z, 6cda8203-a249-e411-b0cc-f8bc1246af59, $GPGGA,205311.00,4031.3439,N,12452.9506,W,2,13,0.5,26.3,M,-27.2,M,,*62
2023-07-17T20:53:12.4262115Z, 6cda8203-a249-e411-b0cc-f8bc1246af59, $GPGGA,205312.00,4031.3467,N,12452.9506,W,2,13,0.5,25.9,M,-27.2,M,,*63
2023-07-17T20:53:13.2566278Z, 6cda8203-a249-e411-b0cc-f8bc1246af59, $GPGGA,205313.00,4031.3494,N,12452.9508,W,2,13,0.5,25.5,M,-27.2,M,,*6C
2023-07-17T20:53:15.0966393Z, 6cda8203-a249-e411-b0cc-f8bc1246af59, $GPGGA,205314.00,4031.3521,N,12452.9509,W,2,13,0.5,25.4,M,-27.2,M,,*64
2023-07-17T20:53:15.4272195Z, 6cda8203-a249-e411-b0cc-f8bc1246af59, $GPGGA,205315.00,4031.3548,N,12452.9508,W,2,13,0.5,25.6,M,-27.2,M,,*69
2023-07-17T20:53:16.8370974Z, 6cda8203-a249-e411-b0cc-f8bc1246af59, $GPGGA,205316.00,4031.3576,N,12452.9506,W,2,13,0.5,25.6,M,-27.2,M,,*69
2023-07-17T20:53:17.2572838Z, 6cda8203-a249-e411-b0cc-f8bc1246af59, $GPGGA,205317.00,4031.3604,N,12452.9504,W,2,13,0.5,25.7,M,-27.2,M,,*6D
2023-07-17T20:53:18.4172358Z, 6cda8203-a249-e411-b0cc-f8bc1246af59, $GPGGA,205318.00,4031.3632,N,12452.9502,W,2,13,0.5,25.8,M,-27.2,M,,*6E
2023-07-17T20:53:19.2576009Z, 6cda8203-a249-e411-b0cc-f8bc1246af59, $GPGGA,205319.00,4031.3658,N,12452.9500,W,2,13,0.5,26.0,M,-27.2,M,,*6A
2023-07-17T20:53:20.2572586Z, 6cda8203-a249-e411-b0cc-f8bc1246af59, $GPGGA,205320.00,4031.3684,N,12452.9501,W,2,13,0.5,26.2,M,-27.2,M,,*62
2023-07-17T20:53:21.4172700Z, 6cda8203-a249-e411-b0cc-f8bc1246af59, $GPGGA,205321.00,4031.3713,N,12452.9501,W,2,13,0.5,26.0,M,-27.2,M,,*6E
2023-07-17T20:53:22.2774950Z, 6cda8203-a249-e411-b0cc-f8bc1246af59, $GPGGA,205322.00,4031.3744,N,12452.9502,W,2,13,0.5,25.7,M,-27.2,M,,*68
2023-07-17T20:53:24.0976178Z, 6cda8203-a249-e411-b0cc-f8bc1246af59, $GPGGA,205323.00,4031.3772,N,12452.9502,W,2,13,0.5,25.6,M,-27.2,M,,*6D
2023-07-17T20:53:24.4271780Z, 6cda8203-a249-e411-b0cc-f8bc1246af59, $GPGGA,205324.00,4031.3797,N,12452.9499,W,2,13,0.5,25.9,M,-27.2,M,,*6D
2023-07-17T20:53:25.4278819Z, 6cda8203-a249-e411-b0cc-f8bc1246af59, $GPGGA,205325.00,4031.3824,N,12452.9495,W,2,12,0.8,26.4,M,-27.2,M,,*65
2023-07-17T20:53:26.2572956Z, 6cda8203-a249-e411-b0cc-f8bc1246af59, $GPGGA,205326.00,4031.3853,N,12452.9492,W,2,12,0.8,26.5,M,-27.2,M,,*60
2023-07-17T20:53:28.0973499Z, 6cda8203-a249-e411-b0cc-f8bc1246af59, $GPGGA,205327.00,4031.3883,N,12452.9491,W,2,12,0.8,26.1,M,-27.2,M,,*6B
2023-07-17T20:53:28.4278941Z, 6cda8203-a249-e411-b0cc-f8bc1246af59, $GPGGA,205328.00,4031.3911,N,12452.9492,W,2,13,0.5,25.9,M,-27.2,M,,*6A
2023-07-17T20:53:29.2583098Z, 6cda8203-a249-e411-b0cc-f8bc1246af59, $GPGGA,205329.00,4031.3939,N,12452.9491,W,2,13,0.5,25.8,M,-27.2,M,,*63
2023-07-17T20:53:31.0891935Z, 6cda8203-a249-e411-b0cc-f8bc1246af59, $GPGGA,205330.00,4031.3966,N,12452.9490,W,2,13,0.5,25.7,M,-27.2,M,,*6F
2023-07-17T20:53:31.4166864Z, 6cda8203-a249-e411-b0cc-f8bc1246af59, $GPGGA,205331.00,4031.3992,N,12452.9489,W,2,13,0.5,25.7,M,-27.2,M,,*6D
2023-07-17T20:53:32.2458922Z, 6cda8203-a249-e411-b0cc-f8bc1246af59, $GPGGA,205332.00,4031.4019,N,12452.9486,W,2,13,0.5,25.9,M,-27.2,M,,*62
2023-07-17T20:53:33.2554769Z, 6cda8203-a249-e411-b0cc-f8bc1246af59, $GPGGA,205333.00,4031.4048,N,12452.9483,W,2,13,0.5,26.0,M,-27.2,M,,*68
2023-07-17T20:53:34.9660939Z, 6cda8203-a249-e411-b0cc-f8bc1246af59, $GPGGA,205334.00,4031.4078,N,12452.9481,W,2,13,0.5,25.7,M,-27.2,M,,*6A
2023-07-17T20:53:35.6563072Z, 6cda8203-a249-e411-b0cc-f8bc1246af59, $GPGGA,205335.00,4031.4105,N,12452.9480,W,2,13,0.5,25.5,M,-27.2,M,,*63
2023-07-17T20:53:36.2557276Z, 6cda8203-a249-e411-b0cc-f8bc1246af59, $GPGGA,205336.00,4031.4130,N,12452.9479,W,2,13,0.5,25.6,M,-27.2,M,,*63
2023-07-17T20:53:37.4156912Z, 6cda8203-a249-e411-b0cc-f8bc1246af59, $GPGGA,205337.00,4031.4157,N,12452.9477,W,2,13,0.5,26.0,M,-27.2,M,,*68
2023-07-17T20:53:38.2560189Z, 6cda8203-a249-e411-b0cc-f8bc1246af59, $GPGGA,205338.00,4031.4187,N,12452.9474,W,2,13,0.5,26.0,M,-27.2,M,,*69
2023-07-17T20:53:39.2557195Z, 6cda8203-a249-e411-b0cc-f8bc1246af59, $GPGGA,205339.00,4031.4216,N,12452.9470,W,2,13,0.5,25.9,M,-27.2,M,,*6D
2023-07-17T20:53:40.4166839Z, 6cda8203-a249-e411-b0cc-f8bc1246af59, $GPGGA,205340.00,4031.4243,N,12452.9468,W,2,13,0.5,25.7,M,-27.2,M,,*64
2023-07-17T20:53:41.2560445Z, 6cda8203-a249-e411-b0cc-f8bc1246af59, $GPGGA,205341.00,4031.4272,N,12452.9466,W,2,13,0.5,25.8,M,-27.2,M,,*66
2023-07-17T20:53:42.2567100Z, 6cda8203-a249-e411-b0cc-f8bc1246af59, $GPGGA,205342.00,4031.4301,N,12452.9465,W,2,13,0.5,25.9,M,-27.2,M,,*62
2023-07-17T20:53:43.2065904Z, 6cda8203-a249-e411-b0cc-f8bc1246af59, $GPGGA,205343.00,4031.4330,N,12452.9464,W,2,13,0.5,25.8,M,-27.2,M,,*61
2023-07-17T20:53:45.0864495Z, 6cda8203-a249-e411-b0cc-f8bc1246af59, $GPGGA,205344.00,4031.4359,N,12452.9463,W,2,13,0.5,25.6,M,-27.2,M,,*60
2023-07-17T20:53:45.4170086Z, 6cda8203-a249-e411-b0cc-f8bc1246af59, $GPGGA,205345.00,4031.4388,N,12452.9462,W,2,13,0.5,25.8,M,-27.2,M,,*62
2023-07-17T20:53:47.0909684Z, 6cda8203-a249-e411-b0cc-f8bc1246af59, $GPGGA,205346.00,4031.4417,N,12452.9460,W,2,13,0.5,26.0,M,-27.2,M,,*69
2023-07-17T20:53:47.4163270Z, 6cda8203-a249-e411-b0cc-f8bc1246af59, $GPGGA,205347.00,4031.4445,N,12452.9458,W,2,13,0.5,26.2,M,-27.2,M,,*66
2023-07-17T20:53:49.0870897Z, 6cda8203-a249-e411-b0cc-f8bc1246af59, $GPGGA,205348.00,4031.4474,N,12452.9456,W,2,13,0.5,26.3,M,-27.2,M,,*64
2023-07-17T20:53:49.4166554Z, 6cda8203-a249-e411-b0cc-f8bc1246af59, $GPGGA,205349.00,4031.4503,N,12452.9454,W,2,13,0.5,26.2,M,-27.2,M,,*67
2023-07-17T20:53:51.0874402Z, 6cda8203-a249-e411-b0cc-f8bc1246af59, $GPGGA,205350.00,4031.4532,N,12452.9454,W,2,13,0.5,26.1,M,-27.2,M,,*6E
2023-07-17T20:53:51.4169955Z, 6cda8203-a249-e411-b0cc-f8bc1246af59, $GPGGA,205351.00,4031.4560,N,12452.9453,W,2,13,0.5,26.0,M,-27.2,M,,*6E
2023-07-17T20:53:52.3767900Z, 6cda8203-a249-e411-b0cc-f8bc1246af59, $GPGGA,205352.00,4031.4587,N,12452.9453,W,2,13,0.5,26.0,M,-27.2,M,,*64
2023-07-17T20:53:53.8872760Z, 6cda8203-a249-e411-b0cc-f8bc1246af59, $GPGGA,205353.00,4031.4615,N,12452.9451,W,2,13,0.5,26.1,M,-27.2,M,,*6E
2023-07-17T20:53:55.0870641Z, 6cda8203-a249-e411-b0cc-f8bc1246af59, $GPGGA,205354.00,4031.4644,N,12452.9448,W,2,13,0.5,26.1,M,-27.2,M,,*65
2023-07-17T20:53:55.4176401Z, 6cda8203-a249-e411-b0cc-f8bc1246af59, $GPGGA,205355.00,4031.4673,N,12452.9446,W,2,12,0.8,25.8,M,-27.2,M,,*68
2023-07-17T20:53:56.2171397Z, 6cda8203-a249-e411-b0cc-f8bc1246af59, $GPGGA,205356.00,4031.4702,N,12452.9446,W,2,12,0.8,25.3,M,-27.2,M,,*67
2023-07-17T20:53:58.0870757Z, 6cda8203-a249-e411-b0cc-f8bc1246af59, $GPGGA,205357.00,4031.4730,N,12452.9446,W,2,12,0.8,25.2,M,-27.2,M,,*66
2023-07-17T20:53:58.4176382Z, 6cda8203-a249-e411-b0cc-f8bc1246af59, $GPGGA,205358.00,4031.4756,N,12452.9443,W,2,12,0.8,25.5,M,-27.2,M,,*6B
2023-07-17T20:53:59.7080349Z, 6cda8203-a249-e411-b0cc-f8bc1246af59, $GPGGA,205359.00,4031.4785,N,12452.9439,W,2,12,0.8,25.9,M,-27.2,M,,*65
2023-07-17T20:54:00.2178063Z, 6cda8203-a249-e411-b0cc-f8bc1246af59, $GPGGA,205400.00,4031.4815,N,12452.9435,W,2,12,0.8,26.0,M,-27.2,M,,*6E
2023-07-17T20:54:02.0877952Z, 6cda8203-a249-e411-b0cc-f8bc1246af59, $GPGGA,205401.00,4031.4845,N,12452.9433,W,2,13,0.5,25.7,M,-27.2,M,,*64
2023-07-17T20:54:02.4173667Z, 6cda8203-a249-e411-b0cc-f8bc1246af59, $GPGGA,205402.00,4031.4873,N,12452.9433,W,2,13,0.5,25.5,M,-27.2,M,,*60
2023-07-17T20:54:03.2178918Z, 6cda8203-a249-e411-b0cc-f8bc1246af59, $GPGGA,205403.00,4031.4901,N,12452.9433,W,2,13,0.5,25.6,M,-27.2,M,,*66
2023-07-17T20:54:05.6184670Z, 6cda8203-a249-e411-b0cc-f8bc1246af59, $GPGGA,205405.00,4031.4958,N,12452.9430,W,2,13,0.5,26.0,M,-27.2,M,,*6A
2023-07-17T20:54:06.2178817Z, 6cda8203-a249-e411-b0cc-f8bc1246af59, $GPGGA,205406.00,4031.4987,N,12452.9427,W,2,13,0.5,26.0,M,-27.2,M,,*6D
2023-07-17T20:54:08.0878370Z, 6cda8203-a249-e411-b0cc-f8bc1246af59, $GPGGA,205407.00,4031.5016,N,12452.9424,W,2,13,0.5,25.7,M,-27.2,M,,*6B
2023-07-17T20:54:08.4184075Z, 6cda8203-a249-e411-b0cc-f8bc1246af59, $GPGGA,205408.00,4031.5043,N,12452.9422,W,2,13,0.5,25.7,M,-27.2,M,,*62
2023-07-17T20:54:09.2179426Z, 6cda8203-a249-e411-b0cc-f8bc1246af59, $GPGGA,205409.00,4031.5070,N,12452.9420,W,2,13,0.5,25.7,M,-27.2,M,,*61
2023-07-17T20:54:11.2680399Z, 6cda8203-a249-e411-b0cc-f8bc1246af59, $GPGGA,205410.00,4031.5100,N,12452.9419,W,2,13,0.5,25.7,M,-27.2,M,,*65
2023-07-17T20:54:11.7280201Z, 6cda8203-a249-e411-b0cc-f8bc1246af59, $GPGGA,205411.00,4031.5129,N,12452.9417,W,2,13,0.5,25.5,M,-27.2,M,,*63
2023-07-17T20:54:13.0881666Z, 6cda8203-a249-e411-b0cc-f8bc1246af59, $GPGGA,205412.00,4031.5157,N,12452.9415,W,2,13,0.5,25.4,M,-27.2,M,,*6A
2023-07-17T20:54:13.4187168Z, 6cda8203-a249-e411-b0cc-f8bc1246af59, $GPGGA,205413.00,4031.5184,N,12452.9413,W,2,13,0.5,25.7,M,-27.2,M,,*60
2023-07-17T20:54:14.3686256Z, 6cda8203-a249-e411-b0cc-f8bc1246af59, $GPGGA,205414.00,4031.5213,N,12452.9410,W,2,13,0.5,26.0,M,-27.2,M,,*6D
2023-07-17T20:54:15.2189359Z, 6cda8203-a249-e411-b0cc-f8bc1246af59, $GPGGA,205415.00,4031.5242,N,12452.9408,W,2,13,0.5,25.9,M,-27.2,M,,*6B
2023-07-17T20:54:17.1832044Z, 6cda8203-a249-e411-b0cc-f8bc1246af59, $GPGGA,205416.00,4031.5270,N,12452.9409,W,2,13,0.5,25.7,M,-27.2,M,,*66
2023-07-17T20:54:17.6792270Z, 6cda8203-a249-e411-b0cc-f8bc1246af59, $GPGGA,205417.00,4031.5297,N,12452.9409,W,2,13,0.5,25.9,M,-27.2,M,,*60
2023-07-17T20:54:18.3692567Z, 6cda8203-a249-e411-b0cc-f8bc1246af59, $GPGGA,205418.00,4031.5324,N,12452.9407,W,2,13,0.5,26.4,M,-27.2,M,,*66
2023-07-17T20:54:19.2185737Z, 6cda8203-a249-e411-b0cc-f8bc1246af59, $GPGGA,205419.00,4031.5354,N,12452.9401,W,2,13,0.5,26.7,M,-27.2,M,,*65
2023-07-17T20:54:21.0894722Z, 6cda8203-a249-e411-b0cc-f8bc1246af59, $GPGGA,205420.00,4031.5385,N,12452.9397,W,2,13,0.5,26.5,M,-27.2,M,,*69
2023-07-17T20:54:21.4190341Z, 6cda8203-a249-e411-b0cc-f8bc1246af59, $GPGGA,205421.00,4031.5412,N,12452.9395,W,2,13,0.5,26.1,M,-27.2,M,,*67
2023-07-17T20:54:23.0897980Z, 6cda8203-a249-e411-b0cc-f8bc1246af59, $GPGGA,205422.00,4031.5438,N,12452.9397,W,2,13,0.5,26.2,M,-27.2,M,,*6D
2023-07-17T20:54:23.4193649Z, 6cda8203-a249-e411-b0cc-f8bc1246af59, $GPGGA,205423.00,4031.5467,N,12452.9397,W,2,13,0.5,26.5,M,-27.2,M,,*61
2023-07-17T20:54:25.0891155Z, 6cda8203-a249-e411-b0cc-f8bc1246af59, $GPGGA,205424.00,4031.5498,N,12452.9395,W,2,13,0.5,26.5,M,-27.2,M,,*64
2023-07-17T20:54:25.4196817Z, 6cda8203-a249-e411-b0cc-f8bc1246af59, $GPGGA,205425.00,4031.5527,N,12452.9392,W,2,13,0.5,26.3,M,-27.2,M,,*61
2023-07-17T20:54:27.0894408Z, 6cda8203-a249-e411-b0cc-f8bc1246af59, $GPGGA,205426.00,4031.5553,N,12452.9390,W,2,13,0.5,26.3,M,-27.2,M,,*63
2023-07-17T20:54:27.4200092Z, 6cda8203-a249-e411-b0cc-f8bc1246af59, $GPGGA,205427.00,4031.5581,N,12452.9388,W,2,13,0.5,26.5,M,-27.2,M,,*62
2023-07-17T20:54:28.2294906Z, 6cda8203-a249-e411-b0cc-f8bc1246af59, $GPGGA,205428.00,4031.5611,N,12452.9386,W,2,13,0.5,26.5,M,-27.2,M,,*69
2023-07-17T20:54:30.0899892Z, 6cda8203-a249-e411-b0cc-f8bc1246af59, $GPGGA,205429.00,4031.5639,N,12452.9385,W,2,13,0.5,26.3,M,-27.2,M,,*67
2023-07-17T20:54:30.4195516Z, 6cda8203-a249-e411-b0cc-f8bc1246af59, $GPGGA,205430.00,4031.5665,N,12452.9384,W,2,13,0.5,26.2,M,-27.2,M,,*66
2023-07-17T20:54:31.2300101Z, 6cda8203-a249-e411-b0cc-f8bc1246af59, $GPGGA,205431.00,4031.5693,N,12452.9382,W,2,13,0.5,26.4,M,-27.2,M,,*6E
2023-07-17T20:54:33.0899651Z, 6cda8203-a249-e411-b0cc-f8bc1246af59, $GPGGA,205432.00,4031.5723,N,12452.9380,W,2,13,0.5,26.5,M,-27.2,M,,*64
2023-07-17T20:54:33.4195443Z, 6cda8203-a249-e411-b0cc-f8bc1246af59, $GPGGA,205433.00,4031.5751,N,12452.9376,W,2,13,0.5,26.3,M,-27.2,M,,*6F
2023-07-17T20:54:35.0903085Z, 6cda8203-a249-e411-b0cc-f8bc1246af59, $GPGGA,205434.00,4031.5778,N,12452.9373,W,2,13,0.5,26.4,M,-27.2,M,,*61
2023-07-17T20:54:35.4198678Z, 6cda8203-a249-e411-b0cc-f8bc1246af59, $GPGGA,205435.00,4031.5805,N,12452.9372,W,2,13,0.5,26.5,M,-27.2,M,,*65
2023-07-17T20:54:36.3697369Z, 6cda8203-a249-e411-b0cc-f8bc1246af59, $GPGGA,205436.00,4031.5835,N,12452.9373,W,2,13,0.5,26.3,M,-27.2,M,,*62
2023-07-17T20:54:37.2300095Z, 6cda8203-a249-e411-b0cc-f8bc1246af59, $GPGGA,205437.00,4031.5864,N,12452.9372,W,2,13,0.5,26.2,M,-27.2,M,,*67
2023-07-17T20:54:39.0902335Z, 6cda8203-a249-e411-b0cc-f8bc1246af59, $GPGGA,205438.00,4031.5891,N,12452.9369,W,2,13,0.5,26.1,M,-27.2,M,,*6B
2023-07-17T20:54:39.4207835Z, 6cda8203-a249-e411-b0cc-f8bc1246af59, $GPGGA,205439.00,4031.5918,N,12452.9366,W,2,13,0.5,26.3,M,-27.2,M,,*67
2023-07-17T20:54:41.0905719Z, 6cda8203-a249-e411-b0cc-f8bc1246af59, $GPGGA,205440.00,4031.5947,N,12452.9364,W,2,13,0.5,26.5,M,-27.2,M,,*67
2023-07-17T20:54:41.4201296Z, 6cda8203-a249-e411-b0cc-f8bc1246af59, $GPGGA,205441.00,4031.5976,N,12452.9363,W,2,12,0.8,26.2,M,-27.2,M,,*68
2023-07-17T20:54:43.0909074Z, 6cda8203-a249-e411-b0cc-f8bc1246af59, $GPGGA,205442.00,4031.6002,N,12452.9364,W,2,12,0.8,26.0,M,-27.2,M,,*67
2023-07-17T20:54:43.4204529Z, 6cda8203-a249-e411-b0cc-f8bc1246af59, $GPGGA,205443.00,4031.6028,N,12452.9363,W,2,13,0.5,26.3,M,-27.2,M,,*66
2023-07-17T20:54:45.0912227Z, 6cda8203-a249-e411-b0cc-f8bc1246af59, $GPGGA,205444.00,4031.6057,N,12452.9360,W,2,13,0.5,26.6,M,-27.2,M,,*6F
2023-07-17T20:54:45.4207935Z, 6cda8203-a249-e411-b0cc-f8bc1246af59, $GPGGA,205445.00,4031.6086,N,12452.9357,W,2,13,0.5,26.5,M,-27.2,M,,*65
2023-07-17T20:54:47.1213944Z, 6cda8203-a249-e411-b0cc-f8bc1246af59, $GPGGA,205446.00,4031.6114,N,12452.9353,W,2,13,0.5,26.3,M,-27.2,M,,*6E
2023-07-17T20:54:47.4509481Z, 6cda8203-a249-e411-b0cc-f8bc1246af59, $GPGGA,205447.00,4031.6139,N,12452.9352,W,2,13,0.5,26.1,M,-27.2,M,,*63
2023-07-17T20:54:49.0908840Z, 6cda8203-a249-e411-b0cc-f8bc1246af59, $GPGGA,205448.00,4031.6166,N,12452.9352,W,2,13,0.5,26.2,M,-27.2,M,,*65
2023-07-17T20:54:49.4214549Z, 6cda8203-a249-e411-b0cc-f8bc1246af59, $GPGGA,205449.00,4031.6196,N,12452.9352,W,2,12,0.8,26.1,M,-27.2,M,,*64
2023-07-17T20:54:50.2444724Z, 6cda8203-a249-e411-b0cc-f8bc1246af59, $GPGGA,205450.00,4031.6225,N,12452.9351,W,2,12,0.8,25.9,M,-27.2,M,,*6F
2023-07-17T20:54:52.2710782Z, 6cda8203-a249-e411-b0cc-f8bc1246af59, $GPGGA,205451.00,4031.6251,N,12452.9349,W,2,13,0.5,26.0,M,-27.2,M,,*62
2023-07-17T20:54:52.6414568Z, 6cda8203-a249-e411-b0cc-f8bc1246af59, $GPGGA,205452.00,4031.6278,N,12452.9346,W,2,13,0.5,26.1,M,-27.2,M,,*64
2023-07-17T20:54:53.2717465Z, 6cda8203-a249-e411-b0cc-f8bc1246af59, $GPGGA,205453.00,4031.6307,N,12452.9343,W,2,13,0.5,26.3,M,-27.2,M,,*6B
2023-07-17T20:54:55.0918682Z, 6cda8203-a249-e411-b0cc-f8bc1246af59, $GPGGA,205454.00,4031.6335,N,12452.9340,W,2,13,0.5,26.3,M,-27.2,M,,*6E
2023-07-17T20:54:55.4214208Z, 6cda8203-a249-e411-b0cc-f8bc1246af59, $GPGGA,205455.00,4031.6364,N,12452.9338,W,2,13,0.5,26.2,M,-27.2,M,,*65
2023-07-17T20:54:56.2418650Z, 6cda8203-a249-e411-b0cc-f8bc1246af59, $GPGGA,205456.00,4031.6392,N,12452.9338,W,2,13,0.5,26.0,M,-27.2,M,,*6D
2023-07-17T20:54:58.2322488Z, 6cda8203-a249-e411-b0cc-f8bc1246af59, $GPGGA,205457.00,4031.6419,N,12452.9339,W,2,13,0.5,26.1,M,-27.2,M,,*68
2023-07-17T20:54:58.6414273Z, 6cda8203-a249-e411-b0cc-f8bc1246af59, $GPGGA,205458.00,4031.6446,N,12452.9336,W,2,13,0.5,26.4,M,-27.2,M,,*67
2023-07-17T20:54:59.2418660Z, 6cda8203-a249-e411-b0cc-f8bc1246af59, $GPGGA,205459.00,4031.6476,N,12452.9332,W,2,13,0.5,26.4,M,-27.2,M,,*61
2023-07-17T20:55:01.0918276Z, 6cda8203-a249-e411-b0cc-f8bc1246af59, $GPGGA,205500.00,4031.6505,N,12452.9329,W,2,12,0.8,26.2,M,-27.2,M,,*69
2023-07-17T20:55:01.4224158Z, 6cda8203-a249-e411-b0cc-f8bc1246af59, $GPGGA,205501.00,4031.6531,N,12452.9326,W,2,12,0.8,26.2,M,-27.2,M,,*60
2023-07-17T20:55:02.4021505Z, 6cda8203-a249-e411-b0cc-f8bc1246af59, $GPGGA,205502.00,4031.6556,N,12452.9322,W,2,12,0.8,26.4,M,-27.2,M,,*60
2023-07-17T20:55:03.2425804Z, 6cda8203-a249-e411-b0cc-f8bc1246af59, $GPGGA,205503.00,4031.6585,N,12452.9318,W,2,12,0.8,26.5,M,-27.2,M,,*67
2023-07-17T20:55:04.7022939Z, 6cda8203-a249-e411-b0cc-f8bc1246af59, $GPGGA,205504.00,4031.6615,N,12452.9316,W,2,13,0.5,26.2,M,-27.2,M,,*6F
2023-07-17T20:55:05.2419450Z, 6cda8203-a249-e411-b0cc-f8bc1246af59, $GPGGA,205505.00,4031.6641,N,12452.9316,W,2,13,0.5,25.8,M,-27.2,M,,*66
2023-07-17T20:55:06.2426314Z, 6cda8203-a249-e411-b0cc-f8bc1246af59, $GPGGA,205506.00,4031.6667,N,12452.9314,W,2,13,0.5,25.8,M,-27.2,M,,*63
2023-07-17T20:55:07.4125173Z, 6cda8203-a249-e411-b0cc-f8bc1246af59, $GPGGA,205507.00,4031.6695,N,12452.9312,W,2,13,0.5,26.0,M,-27.2,M,,*62
2023-07-17T20:55:08.2429414Z, 6cda8203-a249-e411-b0cc-f8bc1246af59, $GPGGA,205508.00,4031.6723,N,12452.9309,W,2,13,0.5,26.1,M,-27.2,M,,*6A
2023-07-17T20:55:09.2426034Z, 6cda8203-a249-e411-b0cc-f8bc1246af59, $GPGGA,205509.00,4031.6749,N,12452.9304,W,2,13,0.5,26.2,M,-27.2,M,,*69
2023-07-17T20:55:10.9123522Z, 6cda8203-a249-e411-b0cc-f8bc1246af59, $GPGGA,205510.00,4031.6776,N,12452.9300,W,2,13,0.5,26.3,M,-27.2,M,,*68
2023-07-17T20:55:11.2429269Z, 6cda8203-a249-e411-b0cc-f8bc1246af59, $GPGGA,205511.00,4031.6805,N,12452.9298,W,2,13,0.5,26.0,M,-27.2,M,,*61
2023-07-17T20:55:12.2525606Z, 6cda8203-a249-e411-b0cc-f8bc1246af59, $GPGGA,205512.00,4031.6833,N,12452.9297,W,2,13,0.5,25.7,M,-27.2,M,,*6C
2023-07-17T20:55:13.4125124Z, 6cda8203-a249-e411-b0cc-f8bc1246af59, $GPGGA,205513.00,4031.6859,N,12452.9295,W,2,13,0.5,25.7,M,-27.2,M,,*63
2023-07-17T20:55:14.2439778Z, 6cda8203-a249-e411-b0cc-f8bc1246af59, $GPGGA,205514.00,4031.6886,N,12452.9291,W,2,13,0.5,26.0,M,-27.2,M,,*66
2023-07-17T20:55:15.2525099Z, 6cda8203-a249-e411-b0cc-f8bc1246af59, $GPGGA,205515.00,4031.6914,N,12452.9288,W,2,13,0.5,26.1,M,-27.2,M,,*64
2023-07-17T20:55:17.2729208Z, 6cda8203-a249-e411-b0cc-f8bc1246af59, $GPGGA,205516.00,4031.6942,N,12452.9289,W,2,13,0.5,25.8,M,-27.2,M,,*6F
2023-07-17T20:55:17.6532602Z, 6cda8203-a249-e411-b0cc-f8bc1246af59, $GPGGA,205517.00,4031.6967,N,12452.9289,W,2,13,0.5,25.9,M,-27.2,M,,*68
2023-07-17T20:55:18.2526420Z, 6cda8203-a249-e411-b0cc-f8bc1246af59, $GPGGA,205518.00,4031.6995,N,12452.9288,W,2,13,0.5,26.0,M,-27.2,M,,*61
2023-07-17T20:55:20.0937083Z, 6cda8203-a249-e411-b0cc-f8bc1246af59, $GPGGA,205519.00,4031.7025,N,12452.9286,W,2,13,0.5,26.0,M,-27.2,M,,*6D
2023-07-17T20:55:20.4232725Z, 6cda8203-a249-e411-b0cc-f8bc1246af59, $GPGGA,205520.00,4031.7053,N,12452.9285,W,2,13,0.5,25.9,M,-27.2,M,,*6F
2023-07-17T20:55:21.2536705Z, 6cda8203-a249-e411-b0cc-f8bc1246af59, $GPGGA,205521.00,4031.7079,N,12452.9284,W,2,13,0.5,25.9,M,-27.2,M,,*67
2023-07-17T20:55:23.2330789Z, 6cda8203-a249-e411-b0cc-f8bc1246af59, $GPGGA,205522.00,4031.7105,N,12452.9282,W,2,13,0.5,26.1,M,-27.2,M,,*63
2023-07-17T20:55:23.6532265Z, 6cda8203-a249-e411-b0cc-f8bc1246af59, $GPGGA,205523.00,4031.7133,N,12452.9280,W,2,13,0.5,26.2,M,-27.2,M,,*66
2023-07-17T20:55:24.2536634Z, 6cda8203-a249-e411-b0cc-f8bc1246af59, $GPGGA,205524.00,4031.7163,N,12452.9281,W,2,13,0.5,26.1,M,-27.2,M,,*66
2023-07-17T20:55:25.2533081Z, 6cda8203-a249-e411-b0cc-f8bc1246af59, $GPGGA,205525.00,4031.7190,N,12452.9282,W,2,13,0.5,25.8,M,-27.2,M,,*62
2023-07-17T20:55:26.4132842Z, 6cda8203-a249-e411-b0cc-f8bc1246af59, $GPGGA,205526.00,4031.7216,N,12452.9283,W,2,13,0.5,25.6,M,-27.2,M,,*63
2023-07-17T20:55:27.2536520Z, 6cda8203-a249-e411-b0cc-f8bc1246af59, $GPGGA,205527.00,4031.7245,N,12452.9282,W,2,13,0.5,25.7,M,-27.2,M,,*64
2023-07-17T20:55:28.2543172Z, 6cda8203-a249-e411-b0cc-f8bc1246af59, $GPGGA,205528.00,4031.7272,N,12452.9280,W,2,13,0.5,25.7,M,-27.2,M,,*6D
2023-07-17T20:55:29.9240661Z, 6cda8203-a249-e411-b0cc-f8bc1246af59, $GPGGA,205529.00,4031.7299,N,12452.9278,W,2,13,0.5,25.7,M,-27.2,M,,*6E
2023-07-17T20:55:30.2536512Z, 6cda8203-a249-e411-b0cc-f8bc1246af59, $GPGGA,205530.00,4031.7327,N,12452.9277,W,2,13,0.5,25.7,M,-27.2,M,,*6D
2023-07-17T20:55:31.2544914Z, 6cda8203-a249-e411-b0cc-f8bc1246af59, $GPGGA,205531.00,4031.7357,N,12452.9277,W,2,13,0.5,25.5,M,-27.2,M,,*69
2023-07-17T20:55:32.4243980Z, 6cda8203-a249-e411-b0cc-f8bc1246af59, $GPGGA,205532.00,4031.7384,N,12452.9278,W,2,13,0.5,25.4,M,-27.2,M,,*6A
2023-07-17T20:55:33.2538134Z, 6cda8203-a249-e411-b0cc-f8bc1246af59, $GPGGA,205533.00,4031.7409,N,12452.9279,W,2,13,0.5,25.7,M,-27.2,M,,*6B
2023-07-17T20:55:34.2544851Z, 6cda8203-a249-e411-b0cc-f8bc1246af59, $GPGGA,205534.00,4031.7437,N,12452.9275,W,2,13,0.5,26.2,M,-27.2,M,,*6B
2023-07-17T20:55:36.2349095Z, 6cda8203-a249-e411-b0cc-f8bc1246af59, $GPGGA,205535.00,4031.7467,N,12452.9270,W,2,13,0.5,26.2,M,-27.2,M,,*6A
2023-07-17T20:55:36.6640093Z, 6cda8203-a249-e411-b0cc-f8bc1246af59, $GPGGA,205536.00,4031.7495,N,12452.9269,W,2,13,0.5,25.9,M,-27.2,M,,*64
2023-07-17T20:55:37.2544654Z, 6cda8203-a249-e411-b0cc-f8bc1246af59, $GPGGA,205537.00,4031.7522,N,12452.9272,W,2,13,0.5,25.6,M,-27.2,M,,*6D
2023-07-17T20:55:38.2640610Z, 6cda8203-a249-e411-b0cc-f8bc1246af59, $GPGGA,205538.00,4031.7550,N,12452.9274,W,2,13,0.5,25.8,M,-27.2,M,,*6F
2023-07-17T20:55:39.4250706Z, 6cda8203-a249-e411-b0cc-f8bc1246af59, $GPGGA,205539.00,4031.7578,N,12452.9274,W,2,13,0.5,26.0,M,-27.2,M,,*6F
2023-07-17T20:55:40.2544525Z, 6cda8203-a249-e411-b0cc-f8bc1246af59, $GPGGA,205540.00,4031.7605,N,12452.9272,W,2,13,0.5,26.3,M,-27.2,M,,*6D
2023-07-17T20:55:41.2650606Z, 6cda8203-a249-e411-b0cc-f8bc1246af59, $GPGGA,205541.00,4031.7632,N,12452.9268,W,2,13,0.5,26.4,M,-27.2,M,,*64
2023-07-17T20:55:42.9248945Z, 6cda8203-a249-e411-b0cc-f8bc1246af59, $GPGGA,205542.00,4031.7661,N,12452.9267,W,2,13,0.5,26.2,M,-27.2,M,,*68
2023-07-17T20:55:43.2654128Z, 6cda8203-a249-e411-b0cc-f8bc1246af59, $GPGGA,205543.00,4031.7691,N,12452.9268,W,2,13,0.5,25.8,M,-27.2,M,,*60
2023-07-17T20:55:44.2650699Z, 6cda8203-a249-e411-b0cc-f8bc1246af59, $GPGGA,205544.00,4031.7718,N,12452.9269,W,2,13,0.5,25.6,M,-27.2,M,,*68
2023-07-17T20:55:45.4250545Z, 6cda8203-a249-e411-b0cc-f8bc1246af59, $GPGGA,205545.00,4031.7742,N,12452.9268,W,2,13,0.5,25.9,M,-27.2,M,,*68
2023-07-17T20:55:46.2584041Z, 6cda8203-a249-e411-b0cc-f8bc1246af59, $GPGGA,205546.00,4031.7770,N,12452.9264,W,2,13,0.5,26.4,M,-27.2,M,,*68
2023-07-17T20:55:47.2650697Z, 6cda8203-a249-e411-b0cc-f8bc1246af59, $GPGGA,205547.00,4031.7801,N,12452.9260,W,2,13,0.5,26.3,M,-27.2,M,,*63
2023-07-17T20:55:48.2150342Z, 6cda8203-a249-e411-b0cc-f8bc1246af59, $GPGGA,205548.00,4031.7830,N,12452.9259,W,2,12,0.8,25.7,M,-27.2,M,,*6F
2023-07-17T20:55:50.0972739Z, 6cda8203-a249-e411-b0cc-f8bc1246af59, $GPGGA,205549.00,4031.7857,N,12452.9258,W,2,12,0.8,25.3,M,-27.2,M,,*6A
2023-07-17T20:55:50.4255646Z, 6cda8203-a249-e411-b0cc-f8bc1246af59, $GPGGA,205550.00,4031.7883,N,12452.9258,W,2,12,0.8,25.8,M,-27.2,M,,*60
2023-07-17T20:55:52.0954095Z, 6cda8203-a249-e411-b0cc-f8bc1246af59, $GPGGA,205551.00,4031.7910,N,12452.9256,W,2,13,0.5,26.3,M,-27.2,M,,*60
2023-07-17T20:55:52.4259442Z, 6cda8203-a249-e411-b0cc-f8bc1246af59, $GPGGA,205552.00,4031.7938,N,12452.9254,W,2,13,0.5,26.4,M,-27.2,M,,*6C
2023-07-17T20:55:54.0958491Z, 6cda8203-a249-e411-b0cc-f8bc1246af59, $GPGGA,205553.00,4031.7966,N,12452.9253,W,2,13,0.5,26.3,M,-27.2,M,,*66
2023-07-17T20:55:54.4254081Z, 6cda8203-a249-e411-b0cc-f8bc1246af59, $GPGGA,205554.00,4031.7994,N,12452.9252,W,2,13,0.5,26.1,M,-27.2,M,,*6F
2023-07-17T20:55:56.0980979Z, 6cda8203-a249-e411-b0cc-f8bc1246af59, $GPGGA,205555.00,4031.8021,N,12452.9252,W,2,13,0.5,26.3,M,-27.2,M,,*64
2023-07-17T20:55:56.4256972Z, 6cda8203-a249-e411-b0cc-f8bc1246af59, $GPGGA,205556.00,4031.8048,N,12452.9249,W,2,13,0.5,26.6,M,-27.2,M,,*67
2023-07-17T20:55:57.3756018Z, 6cda8203-a249-e411-b0cc-f8bc1246af59, $GPGGA,205557.00,4031.8076,N,12452.9246,W,2,13,0.5,26.6,M,-27.2,M,,*64
2023-07-17T20:55:58.2159651Z, 6cda8203-a249-e411-b0cc-f8bc1246af59, $GPGGA,205558.00,4031.8104,N,12452.9242,W,2,13,0.5,26.6,M,-27.2,M,,*6B
2023-07-17T20:56:00.0959609Z, 6cda8203-a249-e411-b0cc-f8bc1246af59, $GPGGA,205559.00,4031.8131,N,12452.9239,W,2,13,0.5,26.6,M,-27.2,M,,*60
2023-07-17T20:56:00.4257372Z, 6cda8203-a249-e411-b0cc-f8bc1246af59, $GPGGA,205600.00,4031.8160,N,12452.9237,W,2,13,0.5,26.5,M,-27.2,M,,*66
2023-07-17T20:56:01.2163484Z, 6cda8203-a249-e411-b0cc-f8bc1246af59, $GPGGA,205601.00,4031.8188,N,12452.9236,W,2,13,0.5,26.3,M,-27.2,M,,*66
2023-07-17T20:56:03.0961877Z, 6cda8203-a249-e411-b0cc-f8bc1246af59, $GPGGA,205602.00,4031.8215,N,12452.9233,W,2,13,0.5,26.5,M,-27.2,M,,*61
2023-07-17T20:56:03.4267333Z, 6cda8203-a249-e411-b0cc-f8bc1246af59, $GPGGA,205603.00,4031.8241,N,12452.9227,W,2,13,0.5,27.0,M,-27.2,M,,*60
2023-07-17T20:56:04.2163430Z, 6cda8203-a249-e411-b0cc-f8bc1246af59, $GPGGA,205604.00,4031.8269,N,12452.9220,W,2,13,0.5,27.2,M,-27.2,M,,*68
