ACQ Timestamp (Server Time in UTC), MessageID, Data Value For: GNSS-6452-$GPGGA
2023-07-17T21:34:31.1061904Z, 6cda8203-a249-e411-b0cc-f8bc1246af59, $GPGGA,213430.00,4038.1664,N,12452.5456,W,2,11,0.8,23.5,M,-27.0,M,,*66
2023-07-17T21:34:31.4367493Z, 6cda8203-a249-e411-b0cc-f8bc1246af59, $GPGGA,213431.00,4038.1691,N,12452.5458,W,2,11,0.8,23.6,M,-27.0,M,,*60
2023-07-17T21:34:32.2661280Z, 6cda8203-a249-e411-b0cc-f8bc1246af59, $GPGGA,213432.00,4038.1716,N,12452.5459,W,2,12,0.8,23.8,M,-27.0,M,,*61
2023-07-17T21:34:33.2668238Z, 6cda8203-a249-e411-b0cc-f8bc1246af59, $GPGGA,213433.00,4038.1741,N,12452.5459,W,2,12,0.8,24.0,M,-27.0,M,,*6D
2023-07-17T21:34:34.4267880Z, 6cda8203-a249-e411-b0cc-f8bc1246af59, $GPGGA,213434.00,4038.1769,N,12452.5458,W,2,12,0.8,24.0,M,-27.0,M,,*61
2023-07-17T21:34:35.2571676Z, 6cda8203-a249-e411-b0cc-f8bc1246af59, $GPGGA,213435.00,4038.1799,N,12452.5457,W,2,12,0.8,23.8,M,-27.0,M,,*6F
2023-07-17T21:34:36.6670344Z, 6cda8203-a249-e411-b0cc-f8bc1246af59, $GPGGA,213436.00,4038.1826,N,12452.5459,W,2,12,0.8,23.6,M,-27.0,M,,*67
2023-07-17T21:34:37.2664595Z, 6cda8203-a249-e411-b0cc-f8bc1246af59, $GPGGA,213437.00,4038.1850,N,12452.5462,W,2,12,0.8,23.6,M,-27.0,M,,*6F
2023-07-17T21:34:38.4274376Z, 6cda8203-a249-e411-b0cc-f8bc1246af59, $GPGGA,213438.00,4038.1877,N,12452.5465,W,2,12,0.8,23.9,M,-27.0,M,,*6D
2023-07-17T21:34:39.2668047Z, 6cda8203-a249-e411-b0cc-f8bc1246af59, $GPGGA,213439.00,4038.1906,N,12452.5464,W,2,12,0.8,24.0,M,-27.0,M,,*64
2023-07-17T21:34:40.2674548Z, 6cda8203-a249-e411-b0cc-f8bc1246af59, $GPGGA,213440.00,4038.1935,N,12452.5464,W,2,12,0.8,23.8,M,-27.0,M,,*65
2023-07-17T21:34:41.2671159Z, 6cda8203-a249-e411-b0cc-f8bc1246af59, $GPGGA,213441.00,4038.1960,N,12452.5466,W,2,12,0.8,23.5,M,-27.0,M,,*6B
2023-07-17T21:34:42.9269354Z, 6cda8203-a249-e411-b0cc-f8bc1246af59, $GPGGA,213442.00,4038.1987,N,12452.5469,W,2,11,0.8,23.7,M,-27.0,M,,*6F
2023-07-17T21:34:43.2674316Z, 6cda8203-a249-e411-b0cc-f8bc1246af59, $GPGGA,213443.00,4038.2014,N,12452.5472,W,2,11,0.8,23.8,M,-27.0,M,,*6B
2023-07-17T21:34:44.2671288Z, 6cda8203-a249-e411-b0cc-f8bc1246af59, $GPGGA,213444.00,4038.2042,N,12452.5475,W,2,11,0.8,23.7,M,-27.0,M,,*67
2023-07-17T21:34:45.2677565Z, 6cda8203-a249-e411-b0cc-f8bc1246af59, $GPGGA,213445.00,4038.2068,N,12452.5478,W,2,11,0.8,23.5,M,-27.0,M,,*61
2023-07-17T21:34:47.1077986Z, 6cda8203-a249-e411-b0cc-f8bc1246af59, $GPGGA,213446.00,4038.2094,N,12452.5481,W,2,12,0.8,23.6,M,-27.0,M,,*67
2023-07-17T21:34:47.4473076Z, 6cda8203-a249-e411-b0cc-f8bc1246af59, $GPGGA,213447.00,4038.2122,N,12452.5482,W,2,11,0.8,23.7,M,-27.0,M,,*6B
2023-07-17T21:34:48.2677576Z, 6cda8203-a249-e411-b0cc-f8bc1246af59, $GPGGA,213448.00,4038.2152,N,12452.5482,W,2,11,0.8,23.5,M,-27.0,M,,*61
2023-07-17T21:34:50.1080449Z, 6cda8203-a249-e411-b0cc-f8bc1246af59, $GPGGA,213449.00,4038.2180,N,12452.5484,W,2,12,0.8,23.0,M,-27.0,M,,*6F
2023-07-17T21:34:50.4476640Z, 6cda8203-a249-e411-b0cc-f8bc1246af59, $GPGGA,213450.00,4038.2203,N,12452.5487,W,2,12,0.8,23.0,M,-27.0,M,,*6C
2023-07-17T21:34:51.2680875Z, 6cda8203-a249-e411-b0cc-f8bc1246af59, $GPGGA,213451.00,4038.2227,N,12452.5486,W,2,12,0.8,23.7,M,-27.0,M,,*6D
2023-07-17T21:34:52.4381282Z, 6cda8203-a249-e411-b0cc-f8bc1246af59, $GPGGA,213452.00,4038.2257,N,12452.5484,W,2,12,0.8,24.1,M,-27.0,M,,*6A
2023-07-17T21:34:53.2884217Z, 6cda8203-a249-e411-b0cc-f8bc1246af59, $GPGGA,213453.00,4038.2289,N,12452.5483,W,2,12,0.8,23.9,M,-27.0,M,,*60
2023-07-17T21:34:55.0877580Z, 6cda8203-a249-e411-b0cc-f8bc1246af59, $GPGGA,213454.00,4038.2318,N,12452.5484,W,2,12,0.8,23.2,M,-27.0,M,,*62
2023-07-17T21:34:55.7279630Z, 6cda8203-a249-e411-b0cc-f8bc1246af59, $GPGGA,213455.00,4038.2341,N,12452.5488,W,2,12,0.8,23.1,M,-27.0,M,,*60
2023-07-17T21:34:56.4379744Z, 6cda8203-a249-e411-b0cc-f8bc1246af59, $GPGGA,213456.00,4038.2366,N,12452.5490,W,2,12,0.8,23.5,M,-27.0,M,,*6B
2023-07-17T21:34:57.2683494Z, 6cda8203-a249-e411-b0cc-f8bc1246af59, $GPGGA,213457.00,4038.2395,N,12452.5490,W,2,12,0.8,23.9,M,-27.0,M,,*6A
2023-07-17T21:34:58.2779722Z, 6cda8203-a249-e411-b0cc-f8bc1246af59, $GPGGA,213458.00,4038.2426,N,12452.5489,W,2,12,0.8,23.8,M,-27.0,M,,*63
2023-07-17T21:34:59.2786234Z, 6cda8203-a249-e411-b0cc-f8bc1246af59, $GPGGA,213459.00,4038.2452,N,12452.5488,W,2,12,0.8,23.4,M,-27.0,M,,*6C
2023-07-17T21:35:00.2484325Z, 6cda8203-a249-e411-b0cc-f8bc1246af59, $GPGGA,213500.00,4038.2476,N,12452.5487,W,2,12,0.8,23.6,M,-27.0,M,,*6A
2023-07-17T21:35:01.2789446Z, 6cda8203-a249-e411-b0cc-f8bc1246af59, $GPGGA,213501.00,4038.2502,N,12452.5488,W,2,12,0.8,23.9,M,-27.0,M,,*69
2023-07-17T21:35:02.7286463Z, 6cda8203-a249-e411-b0cc-f8bc1246af59, $GPGGA,213502.00,4038.2531,N,12452.5490,W,2,12,0.8,23.9,M,-27.0,M,,*63
2023-07-17T21:35:03.4386080Z, 6cda8203-a249-e411-b0cc-f8bc1246af59, $GPGGA,213503.00,4038.2561,N,12452.5491,W,2,12,0.8,23.5,M,-27.0,M,,*6A
2023-07-17T21:35:04.2789426Z, 6cda8203-a249-e411-b0cc-f8bc1246af59, $GPGGA,213504.00,4038.2588,N,12452.5491,W,2,12,0.8,23.4,M,-27.0,M,,*6B
2023-07-17T21:35:05.2786250Z, 6cda8203-a249-e411-b0cc-f8bc1246af59, $GPGGA,213505.00,4038.2614,N,12452.5490,W,2,12,0.8,23.7,M,-27.0,M,,*6E
2023-07-17T21:35:06.2792650Z, 6cda8203-a249-e411-b0cc-f8bc1246af59, $GPGGA,213506.00,4038.2641,N,12452.5488,W,2,12,0.8,24.0,M,-27.0,M,,*64
2023-07-17T21:35:07.2888755Z, 6cda8203-a249-e411-b0cc-f8bc1246af59, $GPGGA,213507.00,4038.2668,N,12452.5489,W,2,12,0.8,24.1,M,-27.0,M,,*6E
2023-07-17T21:35:08.2785976Z, 6cda8203-a249-e411-b0cc-f8bc1246af59, $GPGGA,213508.00,4038.2696,N,12452.5491,W,2,12,0.8,24.1,M,-27.0,M,,*69
2023-07-17T21:35:09.7392499Z, 6cda8203-a249-e411-b0cc-f8bc1246af59, $GPGGA,213509.00,4038.2725,N,12452.5493,W,2,12,0.8,23.9,M,-27.0,M,,*6C
2023-07-17T21:35:10.4491637Z, 6cda8203-a249-e411-b0cc-f8bc1246af59, $GPGGA,213510.00,4038.2754,N,12452.5494,W,2,11,0.8,23.7,M,-27.0,M,,*68
2023-07-17T21:35:11.2796038Z, 6cda8203-a249-e411-b0cc-f8bc1246af59, $GPGGA,213511.00,4038.2780,N,12452.5493,W,2,11,0.8,23.7,M,-27.0,M,,*67
2023-07-17T21:35:12.2792548Z, 6cda8203-a249-e411-b0cc-f8bc1246af59, $GPGGA,213512.00,4038.2804,N,12452.5492,W,2,11,0.8,24.2,M,-27.0,M,,*64
2023-07-17T21:35:13.2789116Z, 6cda8203-a249-e411-b0cc-f8bc1246af59, $GPGGA,213513.00,4038.2831,N,12452.5491,W,2,11,0.8,24.5,M,-27.0,M,,*67
2023-07-17T21:35:14.2795767Z, 6cda8203-a249-e411-b0cc-f8bc1246af59, $GPGGA,213514.00,4038.2861,N,12452.5492,W,2,11,0.8,24.5,M,-27.0,M,,*66
2023-07-17T21:35:15.2792611Z, 6cda8203-a249-e411-b0cc-f8bc1246af59, $GPGGA,213515.00,4038.2890,N,12452.5495,W,2,12,0.8,24.1,M,-27.0,M,,*69
2023-07-17T21:35:16.7392178Z, 6cda8203-a249-e411-b0cc-f8bc1246af59, $GPGGA,213516.00,4038.2917,N,12452.5495,W,2,12,0.8,23.9,M,-27.0,M,,*6B
2023-07-17T21:35:17.4500861Z, 6cda8203-a249-e411-b0cc-f8bc1246af59, $GPGGA,213517.00,4038.2943,N,12452.5494,W,2,12,0.8,24.1,M,-27.0,M,,*65
2023-07-17T21:35:18.2795341Z, 6cda8203-a249-e411-b0cc-f8bc1246af59, $GPGGA,213518.00,4038.2969,N,12452.5494,W,2,11,0.8,24.3,M,-27.0,M,,*63
2023-07-17T21:35:19.2801819Z, 6cda8203-a249-e411-b0cc-f8bc1246af59, $GPGGA,213519.00,4038.2998,N,12452.5493,W,2,11,0.8,24.3,M,-27.0,M,,*6B
2023-07-17T21:35:21.0395763Z, 6cda8203-a249-e411-b0cc-f8bc1246af59, $GPGGA,213520.00,4038.3026,N,12452.5493,W,2,12,0.8,24.4,M,-27.0,M,,*68
2023-07-17T21:35:21.6399517Z, 6cda8203-a249-e411-b0cc-f8bc1246af59, $GPGGA,213521.00,4038.3054,N,12452.5491,W,2,11,0.8,24.6,M,-27.0,M,,*6F
2023-07-17T21:35:22.2801734Z, 6cda8203-a249-e411-b0cc-f8bc1246af59, $GPGGA,213522.00,4038.3080,N,12452.5491,W,2,11,0.8,24.8,M,-27.0,M,,*6B
2023-07-17T21:35:23.2798821Z, 6cda8203-a249-e411-b0cc-f8bc1246af59, $GPGGA,213523.00,4038.3108,N,12452.5492,W,2,12,0.8,24.8,M,-27.0,M,,*6B
2023-07-17T21:35:24.6300527Z, 6cda8203-a249-e411-b0cc-f8bc1246af59, $GPGGA,213524.00,4038.3137,N,12452.5495,W,2,12,0.8,24.5,M,-27.0,M,,*6A
2023-07-17T21:35:26.1106368Z, 6cda8203-a249-e411-b0cc-f8bc1246af59, $GPGGA,213525.00,4038.3165,N,12452.5497,W,2,12,0.8,24.4,M,-27.0,M,,*6F
2023-07-17T21:35:26.4501324Z, 6cda8203-a249-e411-b0cc-f8bc1246af59, $GPGGA,213526.00,4038.3192,N,12452.5497,W,2,12,0.8,24.6,M,-27.0,M,,*66
2023-07-17T21:35:27.2399863Z, 6cda8203-a249-e411-b0cc-f8bc1246af59, $GPGGA,213527.00,4038.3218,N,12452.5496,W,2,12,0.8,24.9,M,-27.0,M,,*68
2023-07-17T21:35:29.1209631Z, 6cda8203-a249-e411-b0cc-f8bc1246af59, $GPGGA,213528.00,4038.3245,N,12452.5496,W,2,12,0.8,25.1,M,-27.0,M,,*66
2023-07-17T21:35:29.4406099Z, 6cda8203-a249-e411-b0cc-f8bc1246af59, $GPGGA,213529.00,4038.3273,N,12452.5498,W,2,12,0.8,24.9,M,-27.0,M,,*65
2023-07-17T21:35:30.2401428Z, 6cda8203-a249-e411-b0cc-f8bc1246af59, $GPGGA,213530.00,4038.3301,N,12452.5499,W,2,12,0.8,24.6,M,-27.0,M,,*67
2023-07-17T21:35:32.1110173Z, 6cda8203-a249-e411-b0cc-f8bc1246af59, $GPGGA,213531.00,4038.3330,N,12452.5502,W,2,11,0.8,24.2,M,-27.0,M,,*60
2023-07-17T21:35:32.4505609Z, 6cda8203-a249-e411-b0cc-f8bc1246af59, $GPGGA,213532.00,4038.3357,N,12452.5504,W,2,11,0.8,24.0,M,-27.0,M,,*66
2023-07-17T21:35:34.1104214Z, 6cda8203-a249-e411-b0cc-f8bc1246af59, $GPGGA,213533.00,4038.3382,N,12452.5506,W,2,12,0.8,24.3,M,-27.0,M,,*6D
2023-07-17T21:35:34.4409784Z, 6cda8203-a249-e411-b0cc-f8bc1246af59, $GPGGA,213534.00,4038.3409,N,12452.5505,W,2,12,0.8,24.7,M,-27.0,M,,*69
2023-07-17T21:35:36.1107643Z, 6cda8203-a249-e411-b0cc-f8bc1246af59, $GPGGA,213535.00,4038.3438,N,12452.5503,W,2,12,0.8,24.7,M,-27.0,M,,*6C
2023-07-17T21:35:36.4512301Z, 6cda8203-a249-e411-b0cc-f8bc1246af59, $GPGGA,213536.00,4038.3467,N,12452.5503,W,2,12,0.8,24.3,M,-27.0,M,,*61
2023-07-17T21:35:37.2408556Z, 6cda8203-a249-e411-b0cc-f8bc1246af59, $GPGGA,213537.00,4038.3494,N,12452.5506,W,2,12,0.8,24.1,M,-27.0,M,,*6B
2023-07-17T21:35:39.1110302Z, 6cda8203-a249-e411-b0cc-f8bc1246af59, $GPGGA,213538.00,4038.3520,N,12452.5507,W,2,11,0.8,24.2,M,-27.0,M,,*6B
2023-07-17T21:35:39.4415632Z, 6cda8203-a249-e411-b0cc-f8bc1246af59, $GPGGA,213539.00,4038.3547,N,12452.5508,W,2,11,0.8,24.4,M,-27.0,M,,*62
2023-07-17T21:35:40.2416032Z, 6cda8203-a249-e411-b0cc-f8bc1246af59, $GPGGA,213540.00,4038.3576,N,12452.5508,W,2,11,0.8,24.3,M,-27.0,M,,*69
2023-07-17T21:35:42.1029963Z, 6cda8203-a249-e411-b0cc-f8bc1246af59, $GPGGA,213541.00,4038.3605,N,12452.5509,W,2,12,0.8,24.0,M,-27.0,M,,*6E
2023-07-17T21:35:42.4379069Z, 6cda8203-a249-e411-b0cc-f8bc1246af59, $GPGGA,213542.00,4038.3632,N,12452.5511,W,2,12,0.8,24.1,M,-27.0,M,,*61
2023-07-17T21:35:43.3750468Z, 6cda8203-a249-e411-b0cc-f8bc1246af59, $GPGGA,213543.00,4038.3660,N,12452.5511,W,2,12,0.8,24.4,M,-27.0,M,,*62
2023-07-17T21:35:44.2141982Z, 6cda8203-a249-e411-b0cc-f8bc1246af59, $GPGGA,213544.00,4038.3689,N,12452.5510,W,2,12,0.8,24.5,M,-27.0,M,,*62
2023-07-17T21:35:46.0841085Z, 6cda8203-a249-e411-b0cc-f8bc1246af59, $GPGGA,213545.00,4038.3718,N,12452.5511,W,2,12,0.8,24.3,M,-27.0,M,,*6D
2023-07-17T21:35:46.4245840Z, 6cda8203-a249-e411-b0cc-f8bc1246af59, $GPGGA,213546.00,4038.3745,N,12452.5512,W,2,12,0.8,24.2,M,-27.0,M,,*64
2023-07-17T21:35:48.0844117Z, 6cda8203-a249-e411-b0cc-f8bc1246af59, $GPGGA,213547.00,4038.3773,N,12452.5512,W,2,11,0.8,24.3,M,-27.0,M,,*62
2023-07-17T21:35:48.4249362Z, 6cda8203-a249-e411-b0cc-f8bc1246af59, $GPGGA,213548.00,4038.3802,N,12452.5512,W,2,11,0.8,24.3,M,-27.0,M,,*64
2023-07-17T21:35:49.3748099Z, 6cda8203-a249-e411-b0cc-f8bc1246af59, $GPGGA,213549.00,4038.3831,N,12452.5513,W,2,11,0.8,24.2,M,-27.0,M,,*65
2023-07-17T21:35:50.2241457Z, 6cda8203-a249-e411-b0cc-f8bc1246af59, $GPGGA,213550.00,4038.3858,N,12452.5515,W,2,12,0.8,24.0,M,-27.0,M,,*65
2023-07-17T21:35:52.0846386Z, 6cda8203-a249-e411-b0cc-f8bc1246af59, $GPGGA,213551.00,4038.3887,N,12452.5516,W,2,12,0.8,24.1,M,-27.0,M,,*64
2023-07-17T21:35:52.4251303Z, 6cda8203-a249-e411-b0cc-f8bc1246af59, $GPGGA,213552.00,4038.3916,N,12452.5516,W,2,12,0.8,24.0,M,-27.0,M,,*6F
2023-07-17T21:35:54.0849560Z, 6cda8203-a249-e411-b0cc-f8bc1246af59, $GPGGA,213553.00,4038.3944,N,12452.5515,W,2,12,0.8,24.0,M,-27.0,M,,*6A
2023-07-17T21:35:54.4244607Z, 6cda8203-a249-e411-b0cc-f8bc1246af59, $GPGGA,213554.00,4038.3972,N,12452.5514,W,2,12,0.8,24.0,M,-27.0,M,,*69
2023-07-17T21:35:56.0852865Z, 6cda8203-a249-e411-b0cc-f8bc1246af59, $GPGGA,213555.00,4038.3999,N,12452.5514,W,2,12,0.8,24.0,M,-27.0,M,,*6D
2023-07-17T21:35:56.4248002Z, 6cda8203-a249-e411-b0cc-f8bc1246af59, $GPGGA,213556.00,4038.4029,N,12452.5515,W,2,12,0.8,23.8,M,-27.0,M,,*65
2023-07-17T21:35:58.3156199Z, 6cda8203-a249-e411-b0cc-f8bc1246af59, $GPGGA,213557.00,4038.4057,N,12452.5517,W,2,12,0.8,23.6,M,-27.0,M,,*61
2023-07-17T21:35:58.6750410Z, 6cda8203-a249-e411-b0cc-f8bc1246af59, $GPGGA,213558.00,4038.4084,N,12452.5520,W,2,12,0.8,23.7,M,-27.0,M,,*65
2023-07-17T21:35:59.3750301Z, 6cda8203-a249-e411-b0cc-f8bc1246af59, $GPGGA,213559.00,4038.4112,N,12452.5520,W,2,12,0.8,24.0,M,-27.0,M,,*6A
2023-07-17T21:36:00.2253441Z, 6cda8203-a249-e411-b0cc-f8bc1246af59, $GPGGA,213600.00,4038.4141,N,12452.5519,W,2,12,0.8,24.2,M,-27.0,M,,*6B
2023-07-17T21:36:02.0853564Z, 6cda8203-a249-e411-b0cc-f8bc1246af59, $GPGGA,213601.00,4038.4170,N,12452.5520,W,2,11,0.8,24.2,M,-27.0,M,,*61
2023-07-17T21:36:02.4258433Z, 6cda8203-a249-e411-b0cc-f8bc1246af59, $GPGGA,213602.00,4038.4197,N,12452.5522,W,2,11,0.8,24.0,M,-27.0,M,,*6B
2023-07-17T21:36:04.1852735Z, 6cda8203-a249-e411-b0cc-f8bc1246af59, $GPGGA,213603.00,4038.4225,N,12452.5522,W,2,11,0.8,24.0,M,-27.0,M,,*60
2023-07-17T21:36:04.4252052Z, 6cda8203-a249-e411-b0cc-f8bc1246af59, $GPGGA,213604.00,4038.4254,N,12452.5521,W,2,11,0.8,24.0,M,-27.0,M,,*62
2023-07-17T21:36:06.0860686Z, 6cda8203-a249-e411-b0cc-f8bc1246af59, $GPGGA,213605.00,4038.4283,N,12452.5523,W,2,12,0.8,23.8,M,-27.0,M,,*67
2023-07-17T21:36:06.4260817Z, 6cda8203-a249-e411-b0cc-f8bc1246af59, $GPGGA,213606.00,4038.4310,N,12452.5525,W,2,11,0.8,23.6,M,-27.0,M,,*64
2023-07-17T21:36:07.2256592Z, 6cda8203-a249-e411-b0cc-f8bc1246af59, $GPGGA,213607.00,4038.4337,N,12452.5529,W,2,11,0.8,23.7,M,-27.0,M,,*6D
2023-07-17T21:36:09.0856078Z, 6cda8203-a249-e411-b0cc-f8bc1246af59, $GPGGA,213608.00,4038.4366,N,12452.5530,W,2,11,0.8,23.9,M,-27.0,M,,*60
2023-07-17T21:36:09.4260743Z, 6cda8203-a249-e411-b0cc-f8bc1246af59, $GPGGA,213609.00,4038.4396,N,12452.5528,W,2,11,0.8,24.0,M,-27.0,M,,*69
2023-07-17T21:36:10.6861157Z, 6cda8203-a249-e411-b0cc-f8bc1246af59, $GPGGA,213610.00,4038.4424,N,12452.5527,W,2,11,0.8,24.1,M,-27.0,M,,*61
2023-07-17T21:36:12.0860627Z, 6cda8203-a249-e411-b0cc-f8bc1246af59, $GPGGA,213611.00,4038.4450,N,12452.5529,W,2,12,0.8,24.1,M,-27.0,M,,*6E
2023-07-17T21:36:12.4265486Z, 6cda8203-a249-e411-b0cc-f8bc1246af59, $GPGGA,213612.00,4038.4478,N,12452.5531,W,2,12,0.8,24.3,M,-27.0,M,,*6C
2023-07-17T21:36:13.3757557Z, 6cda8203-a249-e411-b0cc-f8bc1246af59, $GPGGA,213613.00,4038.4507,N,12452.5533,W,2,12,0.8,24.3,M,-27.0,M,,*66
2023-07-17T21:36:14.2360290Z, 6cda8203-a249-e411-b0cc-f8bc1246af59, $GPGGA,213614.00,4038.4536,N,12452.5535,W,2,12,0.8,24.2,M,-27.0,M,,*64
2023-07-17T21:36:16.1859405Z, 6cda8203-a249-e411-b0cc-f8bc1246af59, $GPGGA,213615.00,4038.4565,N,12452.5534,W,2,12,0.8,24.3,M,-27.0,M,,*63
2023-07-17T21:36:16.6867368Z, 6cda8203-a249-e411-b0cc-f8bc1246af59, $GPGGA,213616.00,4038.4594,N,12452.5534,W,2,12,0.8,24.5,M,-27.0,M,,*68
2023-07-17T21:36:18.0867023Z, 6cda8203-a249-e411-b0cc-f8bc1246af59, $GPGGA,213617.00,4038.4623,N,12452.5531,W,2,12,0.8,24.5,M,-27.0,M,,*63
2023-07-17T21:36:18.4262049Z, 6cda8203-a249-e411-b0cc-f8bc1246af59, $GPGGA,213618.00,4038.4651,N,12452.5531,W,2,12,0.8,24.7,M,-27.0,M,,*6B
2023-07-17T21:36:19.3770887Z, 6cda8203-a249-e411-b0cc-f8bc1246af59, $GPGGA,213619.00,4038.4679,N,12452.5533,W,2,12,0.8,24.6,M,-27.0,M,,*63
2023-07-17T21:36:20.2363847Z, 6cda8203-a249-e411-b0cc-f8bc1246af59, $GPGGA,213620.00,4038.4709,N,12452.5536,W,2,12,0.8,24.4,M,-27.0,M,,*68
2023-07-17T21:36:21.2370259Z, 6cda8203-a249-e411-b0cc-f8bc1246af59, $GPGGA,213621.00,4038.4740,N,12452.5538,W,2,12,0.8,24.2,M,-27.0,M,,*6C
2023-07-17T21:36:23.0870109Z, 6cda8203-a249-e411-b0cc-f8bc1246af59, $GPGGA,213622.00,4038.4769,N,12452.5538,W,2,12,0.8,24.0,M,-27.0,M,,*66
2023-07-17T21:36:23.4265203Z, 6cda8203-a249-e411-b0cc-f8bc1246af59, $GPGGA,213623.00,4038.4794,N,12452.5536,W,2,12,0.8,24.3,M,-27.0,M,,*68
2023-07-17T21:36:24.2768370Z, 6cda8203-a249-e411-b0cc-f8bc1246af59, $GPGGA,213624.00,4038.4821,N,12452.5535,W,2,12,0.8,24.7,M,-27.0,M,,*69
2023-07-17T21:36:26.0870189Z, 6cda8203-a249-e411-b0cc-f8bc1246af59, $GPGGA,213625.00,4038.4851,N,12452.5532,W,2,12,0.8,24.8,M,-27.0,M,,*67
2023-07-17T21:36:26.4175731Z, 6cda8203-a249-e411-b0cc-f8bc1246af59, $GPGGA,213626.00,4038.4883,N,12452.5531,W,2,12,0.8,24.3,M,-27.0,M,,*63
2023-07-17T21:36:27.2370002Z, 6cda8203-a249-e411-b0cc-f8bc1246af59, $GPGGA,213627.00,4038.4910,N,12452.5535,W,2,11,0.8,23.7,M,-27.0,M,,*6D
2023-07-17T21:36:28.8271345Z, 6cda8203-a249-e411-b0cc-f8bc1246af59, $GPGGA,213628.00,4038.4935,N,12452.5538,W,2,11,0.8,24.0,M,-27.0,M,,*68
2023-07-17T21:36:30.0871661Z, 6cda8203-a249-e411-b0cc-f8bc1246af59, $GPGGA,213629.00,4038.4962,N,12452.5537,W,2,11,0.8,24.7,M,-27.0,M,,*63
2023-07-17T21:36:30.4177222Z, 6cda8203-a249-e411-b0cc-f8bc1246af59, $GPGGA,213630.00,4038.4992,N,12452.5533,W,2,11,0.8,25.2,M,-27.0,M,,*64
2023-07-17T21:36:31.2372211Z, 6cda8203-a249-e411-b0cc-f8bc1246af59, $GPGGA,213631.00,4038.5021,N,12452.5530,W,2,12,0.8,25.1,M,-27.0,M,,*66
2023-07-17T21:36:33.0871381Z, 6cda8203-a249-e411-b0cc-f8bc1246af59, $GPGGA,213632.00,4038.5048,N,12452.5530,W,2,12,0.8,24.8,M,-27.0,M,,*62
2023-07-17T21:36:33.4177136Z, 6cda8203-a249-e411-b0cc-f8bc1246af59, $GPGGA,213633.00,4038.5075,N,12452.5532,W,2,12,0.8,24.6,M,-27.0,M,,*61
2023-07-17T21:36:34.8375397Z, 6cda8203-a249-e411-b0cc-f8bc1246af59, $GPGGA,213634.00,4038.5103,N,12452.5534,W,2,11,0.8,24.4,M,-27.0,M,,*61
2023-07-17T21:36:36.0881423Z, 6cda8203-a249-e411-b0cc-f8bc1246af59, $GPGGA,213635.00,4038.5131,N,12452.5536,W,2,11,0.8,24.3,M,-27.0,M,,*64
2023-07-17T21:36:36.4276489Z, 6cda8203-a249-e411-b0cc-f8bc1246af59, $GPGGA,213636.00,4038.5157,N,12452.5535,W,2,12,0.8,24.4,M,-27.0,M,,*60
2023-07-17T21:36:37.2382419Z, 6cda8203-a249-e411-b0cc-f8bc1246af59, $GPGGA,213637.00,4038.5184,N,12452.5532,W,2,12,0.8,24.7,M,-27.0,M,,*6B
2023-07-17T21:36:38.2379281Z, 6cda8203-a249-e411-b0cc-f8bc1246af59, $GPGGA,213638.00,4038.5213,N,12452.5529,W,2,12,0.8,24.6,M,-27.0,M,,*62
2023-07-17T21:36:40.0879077Z, 6cda8203-a249-e411-b0cc-f8bc1246af59, $GPGGA,213639.00,4038.5243,N,12452.5529,W,2,12,0.8,24.1,M,-27.0,M,,*61
2023-07-17T21:36:40.8177260Z, 6cda8203-a249-e411-b0cc-f8bc1246af59, $GPGGA,213640.00,4038.5269,N,12452.5533,W,2,12,0.8,23.6,M,-27.0,M,,*6C
2023-07-17T21:36:41.2478513Z, 6cda8203-a249-e411-b0cc-f8bc1246af59, $GPGGA,213641.00,4038.5293,N,12452.5537,W,2,12,0.8,23.8,M,-27.0,M,,*62
2023-07-17T21:36:42.2485576Z, 6cda8203-a249-e411-b0cc-f8bc1246af59, $GPGGA,213642.00,4038.5321,N,12452.5536,W,2,12,0.8,24.4,M,-27.0,M,,*63
2023-07-17T21:36:43.4085251Z, 6cda8203-a249-e411-b0cc-f8bc1246af59, $GPGGA,213643.00,4038.5352,N,12452.5534,W,2,12,0.8,24.4,M,-27.0,M,,*64
2023-07-17T21:36:44.2379881Z, 6cda8203-a249-e411-b0cc-f8bc1246af59, $GPGGA,213644.00,4038.5380,N,12452.5532,W,2,12,0.8,23.9,M,-27.0,M,,*60
2023-07-17T21:36:45.2386440Z, 6cda8203-a249-e411-b0cc-f8bc1246af59, $GPGGA,213645.00,4038.5406,N,12452.5533,W,2,12,0.8,23.5,M,-27.0,M,,*65
2023-07-17T21:36:47.1683216Z, 6cda8203-a249-e411-b0cc-f8bc1246af59, $GPGGA,213646.00,4038.5431,N,12452.5533,W,2,12,0.8,23.7,M,-27.0,M,,*60
2023-07-17T21:36:47.4182282Z, 6cda8203-a249-e411-b0cc-f8bc1246af59, $GPGGA,213647.00,4038.5460,N,12452.5532,W,2,12,0.8,23.8,M,-27.0,M,,*6B
2023-07-17T21:36:48.2386733Z, 6cda8203-a249-e411-b0cc-f8bc1246af59, $GPGGA,213648.00,4038.5489,N,12452.5532,W,2,12,0.8,23.5,M,-27.0,M,,*6E
2023-07-17T21:36:50.0887988Z, 6cda8203-a249-e411-b0cc-f8bc1246af59, $GPGGA,213649.00,4038.5516,N,12452.5534,W,2,12,0.8,23.1,M,-27.0,M,,*6A
2023-07-17T21:36:50.4183597Z, 6cda8203-a249-e411-b0cc-f8bc1246af59, $GPGGA,213650.00,4038.5540,N,12452.5536,W,2,12,0.8,23.1,M,-27.0,M,,*63
2023-07-17T21:36:51.2487765Z, 6cda8203-a249-e411-b0cc-f8bc1246af59, $GPGGA,213651.00,4038.5565,N,12452.5536,W,2,12,0.8,23.6,M,-27.0,M,,*62
2023-07-17T21:36:52.2494166Z, 6cda8203-a249-e411-b0cc-f8bc1246af59, $GPGGA,213652.00,4038.5593,N,12452.5536,W,2,12,0.8,23.8,M,-27.0,M,,*66
2023-07-17T21:36:53.7389643Z, 6cda8203-a249-e411-b0cc-f8bc1246af59, $GPGGA,213653.00,4038.5622,N,12452.5537,W,2,12,0.8,23.5,M,-27.0,M,,*62
2023-07-17T21:36:54.2895715Z, 6cda8203-a249-e411-b0cc-f8bc1246af59, $GPGGA,213654.00,4038.5649,N,12452.5539,W,2,12,0.8,23.4,M,-27.0,M,,*67
2023-07-17T21:36:55.2494145Z, 6cda8203-a249-e411-b0cc-f8bc1246af59, $GPGGA,213655.00,4038.5674,N,12452.5540,W,2,12,0.8,23.5,M,-27.0,M,,*67
2023-07-17T21:36:56.4193273Z, 6cda8203-a249-e411-b0cc-f8bc1246af59, $GPGGA,213656.00,4038.5699,N,12452.5539,W,2,12,0.8,24.0,M,-27.0,M,,*6B
2023-07-17T21:36:57.2488399Z, 6cda8203-a249-e411-b0cc-f8bc1246af59, $GPGGA,213657.00,4038.5728,N,12452.5539,W,2,12,0.8,24.3,M,-27.0,M,,*62
2023-07-17T21:36:58.2495040Z, 6cda8203-a249-e411-b0cc-f8bc1246af59, $GPGGA,213658.00,4038.5757,N,12452.5540,W,2,12,0.8,23.8,M,-27.0,M,,*67
2023-07-17T21:36:59.9799946Z, 6cda8203-a249-e411-b0cc-f8bc1246af59, $GPGGA,213659.00,4038.5785,N,12452.5541,W,2,12,0.8,23.7,M,-27.0,M,,*67
2023-07-17T21:37:00.6600227Z, 6cda8203-a249-e411-b0cc-f8bc1246af59, $GPGGA,213700.00,4038.5811,N,12452.5543,W,2,12,0.8,23.5,M,-27.0,M,,*68
2023-07-17T21:37:01.2594554Z, 6cda8203-a249-e411-b0cc-f8bc1246af59, $GPGGA,213701.00,4038.5836,N,12452.5544,W,2,12,0.8,23.6,M,-27.0,M,,*68
2023-07-17T21:37:02.2600867Z, 6cda8203-a249-e411-b0cc-f8bc1246af59, $GPGGA,213702.00,4038.5861,N,12452.5545,W,2,12,0.8,23.7,M,-27.0,M,,*69
2023-07-17T21:37:03.4200791Z, 6cda8203-a249-e411-b0cc-f8bc1246af59, $GPGGA,213703.00,4038.5888,N,12452.5546,W,2,12,0.8,23.6,M,-27.0,M,,*6D
2023-07-17T21:37:04.2495089Z, 6cda8203-a249-e411-b0cc-f8bc1246af59, $GPGGA,213704.00,4038.5916,N,12452.5549,W,2,12,0.8,23.5,M,-27.0,M,,*60
2023-07-17T21:37:05.2600767Z, 6cda8203-a249-e411-b0cc-f8bc1246af59, $GPGGA,213705.00,4038.5942,N,12452.5550,W,2,12,0.8,23.4,M,-27.0,M,,*69
2023-07-17T21:37:06.2597762Z, 6cda8203-a249-e411-b0cc-f8bc1246af59, $GPGGA,213706.00,4038.5968,N,12452.5551,W,2,12,0.8,23.7,M,-27.0,M,,*60
2023-07-17T21:37:07.6596905Z, 6cda8203-a249-e411-b0cc-f8bc1246af59, $GPGGA,213707.00,4038.5996,N,12452.5550,W,2,12,0.8,23.9,M,-27.0,M,,*6F
2023-07-17T21:37:08.2600953Z, 6cda8203-a249-e411-b0cc-f8bc1246af59, $GPGGA,213708.00,4038.6024,N,12452.5552,W,2,12,0.8,23.2,M,-27.0,M,,*6A
2023-07-17T21:37:09.2598835Z, 6cda8203-a249-e411-b0cc-f8bc1246af59, $GPGGA,213709.00,4038.6049,N,12452.5553,W,2,12,0.8,23.1,M,-27.0,M,,*62
2023-07-17T21:37:10.4198331Z, 6cda8203-a249-e411-b0cc-f8bc1246af59, $GPGGA,213710.00,4038.6075,N,12452.5555,W,2,12,0.8,23.2,M,-27.0,M,,*60
2023-07-17T21:37:11.2601712Z, 6cda8203-a249-e411-b0cc-f8bc1246af59, $GPGGA,213711.00,4038.6103,N,12452.5556,W,2,12,0.8,23.6,M,-27.0,M,,*66
2023-07-17T21:37:12.2608488Z, 6cda8203-a249-e411-b0cc-f8bc1246af59, $GPGGA,213712.00,4038.6133,N,12452.5557,W,2,12,0.8,23.3,M,-27.0,M,,*62
2023-07-17T21:37:13.9207606Z, 6cda8203-a249-e411-b0cc-f8bc1246af59, $GPGGA,213713.00,4038.6161,N,12452.5558,W,2,12,0.8,23.2,M,-27.0,M,,*6A
2023-07-17T21:37:14.2603036Z, 6cda8203-a249-e411-b0cc-f8bc1246af59, $GPGGA,213714.00,4038.6187,N,12452.5555,W,2,12,0.8,23.5,M,-27.0,M,,*6F
2023-07-17T21:37:15.2609257Z, 6cda8203-a249-e411-b0cc-f8bc1246af59, $GPGGA,213715.00,4038.6214,N,12452.5553,W,2,12,0.8,23.9,M,-27.0,M,,*6D
2023-07-17T21:37:16.2606346Z, 6cda8203-a249-e411-b0cc-f8bc1246af59, $GPGGA,213716.00,4038.6242,N,12452.5553,W,2,12,0.8,23.8,M,-27.0,M,,*6C
2023-07-17T21:37:17.4206410Z, 6cda8203-a249-e411-b0cc-f8bc1246af59, $GPGGA,213717.00,4038.6271,N,12452.5555,W,2,12,0.8,23.3,M,-27.0,M,,*60
2023-07-17T21:37:18.2609876Z, 6cda8203-a249-e411-b0cc-f8bc1246af59, $GPGGA,213718.00,4038.6300,N,12452.5556,W,2,11,0.8,23.0,M,-27.0,M,,*6B
2023-07-17T21:37:19.2606627Z, 6cda8203-a249-e411-b0cc-f8bc1246af59, $GPGGA,213719.00,4038.6328,N,12452.5556,W,2,11,0.8,23.0,M,-27.0,M,,*60
2023-07-17T21:37:20.8408414Z, 6cda8203-a249-e411-b0cc-f8bc1246af59, $GPGGA,213720.00,4038.6355,N,12452.5556,W,2,11,0.8,23.1,M,-27.0,M,,*61
2023-07-17T21:37:21.2612110Z, 6cda8203-a249-e411-b0cc-f8bc1246af59, $GPGGA,213721.00,4038.6382,N,12452.5556,W,2,11,0.8,23.2,M,-27.0,M,,*69
2023-07-17T21:37:22.2608891Z, 6cda8203-a249-e411-b0cc-f8bc1246af59, $GPGGA,213722.00,4038.6411,N,12452.5555,W,2,10,0.8,23.2,M,-27.0,M,,*65
2023-07-17T21:37:23.4009709Z, 6cda8203-a249-e411-b0cc-f8bc1246af59, $GPGGA,213723.00,4038.6442,N,12452.5552,W,2,10,0.8,23.0,M,-27.0,M,,*67
2023-07-17T21:37:24.3011138Z, 6cda8203-a249-e411-b0cc-f8bc1246af59, $GPGGA,213724.00,4038.6471,N,12452.5552,W,2,10,0.8,22.5,M,-27.0,M,,*64
2023-07-17T21:37:25.2609331Z, 6cda8203-a249-e411-b0cc-f8bc1246af59, $GPGGA,213725.00,4038.6499,N,12452.5555,W,2,12,0.8,22.3,M,-27.0,M,,*60
2023-07-17T21:37:26.9814486Z, 6cda8203-a249-e411-b0cc-f8bc1246af59, $GPGGA,213726.00,4038.6525,N,12452.5558,W,2,12,0.8,22.4,M,-27.0,M,,*6F
2023-07-17T21:37:27.6714476Z, 6cda8203-a249-e411-b0cc-f8bc1246af59, $GPGGA,213727.00,4038.6552,N,12452.5559,W,2,12,0.8,22.7,M,-27.0,M,,*6C
2023-07-17T21:37:28.2718377Z, 6cda8203-a249-e411-b0cc-f8bc1246af59, $GPGGA,213728.00,4038.6581,N,12452.5558,W,2,11,0.8,22.9,M,-27.0,M,,*61
2023-07-17T21:37:29.2714295Z, 6cda8203-a249-e411-b0cc-f8bc1246af59, $GPGGA,213729.00,4038.6612,N,12452.5558,W,2,11,0.8,22.6,M,-27.0,M,,*66
2023-07-17T21:37:31.0915669Z, 6cda8203-a249-e411-b0cc-f8bc1246af59, $GPGGA,213730.00,4038.6641,N,12452.5559,W,2,12,0.8,22.1,M,-27.0,M,,*6D
2023-07-17T21:37:31.4221216Z, 6cda8203-a249-e411-b0cc-f8bc1246af59, $GPGGA,213731.00,4038.6664,N,12452.5561,W,2,12,0.8,22.0,M,-27.0,M,,*61
2023-07-17T21:37:32.3819565Z, 6cda8203-a249-e411-b0cc-f8bc1246af59, $GPGGA,213732.00,4038.6689,N,12452.5563,W,2,12,0.8,22.5,M,-27.0,M,,*66
2023-07-17T21:37:33.8516077Z, 6cda8203-a249-e411-b0cc-f8bc1246af59, $GPGGA,213733.00,4038.6718,N,12452.5565,W,2,12,0.8,22.8,M,-27.0,M,,*65
2023-07-17T21:37:35.0922070Z, 6cda8203-a249-e411-b0cc-f8bc1246af59, $GPGGA,213734.00,4038.6750,N,12452.5566,W,2,12,0.8,22.6,M,-27.0,M,,*63
2023-07-17T21:37:35.4317352Z, 6cda8203-a249-e411-b0cc-f8bc1246af59, $GPGGA,213735.00,4038.6778,N,12452.5568,W,2,11,0.8,22.1,M,-27.0,M,,*62
2023-07-17T21:37:37.0925274Z, 6cda8203-a249-e411-b0cc-f8bc1246af59, $GPGGA,213736.00,4038.6804,N,12452.5569,W,2,11,0.8,22.1,M,-27.0,M,,*64
2023-07-17T21:37:37.4221156Z, 6cda8203-a249-e411-b0cc-f8bc1246af59, $GPGGA,213737.00,4038.6830,N,12452.5570,W,2,11,0.8,22.5,M,-27.0,M,,*6E
