ACQ Timestamp (Server Time in UTC), MessageID, Data Value For: GNSS-6452-$GPGGA
2023-09-10T00:00:00.0901109Z, 6cda8203-a249-e411-b0cc-f8bc1246af59, $GPGGA,235959.00,4737.4026,N,12222.9503,W,2,10,0.8,14.5,M,-18.0,M,,*68
2023-09-10T00:00:00.6905114Z, 6cda8203-a249-e411-b0cc-f8bc1246af59, $GPGGA,000000.00,4737.4030,N,12222.9503,W,2,10,0.8,14.3,M,-18.0,M,,*68
2023-09-10T00:00:02.0904305Z, 6cda8203-a249-e411-b0cc-f8bc1246af59, $GPGGA,000001.00,4737.4034,N,12222.9503,W,2,10,0.8,14.2,M,-18.0,M,,*6C
2023-09-10T00:00:02.6908313Z, 6cda8203-a249-e411-b0cc-f8bc1246af59, $GPGGA,000002.00,4737.4039,N,12222.9503,W,2,10,0.8,14.0,M,-18.0,M,,*60
2023-09-10T00:00:04.0910791Z, 6cda8203-a249-e411-b0cc-f8bc1246af59, $GPGGA,000003.00,4737.4043,N,12222.9502,W,2,10,0.8,13.9,M,-18.0,M,,*63
2023-09-10T00:00:04.6904744Z, 6cda8203-a249-e411-b0cc-f8bc1246af59, $GPGGA,000004.00,4737.4047,N,12222.9501,W,2,10,0.8,13.9,M,-18.0,M,,*63
2023-09-10T00:00:06.1143906Z, 6cda8203-a249-e411-b0cc-f8bc1246af59, $GPGGA,000005.00,4737.4052,N,12222.9499,W,2,10,0.8,13.8,M,-18.0,M,,*67
2023-09-10T00:00:06.6908192Z, 6cda8203-a249-e411-b0cc-f8bc1246af59, $GPGGA,000006.00,4737.4057,N,12222.9498,W,2,10,0.8,13.8,M,-18.0,M,,*60
2023-09-10T00:00:08.2709475Z, 6cda8203-a249-e411-b0cc-f8bc1246af59, $GPGGA,000007.00,4737.4061,N,12222.9496,W,2,10,0.8,13.8,M,-18.0,M,,*6A
2023-09-10T00:00:08.6911361Z, 6cda8203-a249-e411-b0cc-f8bc1246af59, $GPGGA,000008.00,4737.4066,N,12222.9496,W,2,10,0.8,13.6,M,-18.0,M,,*6C
2023-09-10T00:00:10.0910545Z, 6cda8203-a249-e411-b0cc-f8bc1246af59, $GPGGA,000009.00,4737.4071,N,12222.9495,W,2,10,0.8,13.6,M,-18.0,M,,*68
2023-09-10T00:00:10.6914627Z, 6cda8203-a249-e411-b0cc-f8bc1246af59, $GPGGA,000010.00,4737.4075,N,12222.9493,W,2,10,0.8,13.5,M,-18.0,M,,*61
2023-09-10T00:00:12.0909189Z, 6cda8203-a249-e411-b0cc-f8bc1246af59, $GPGGA,000011.00,4737.4080,N,12222.9491,W,2,10,0.8,13.5,M,-18.0,M,,*68
2023-09-10T00:00:12.6909528Z, 6cda8203-a249-e411-b0cc-f8bc1246af59, $GPGGA,000012.00,4737.4084,N,12222.9489,W,2,10,0.8,13.5,M,-18.0,M,,*66
2023-09-10T00:00:14.3716647Z, 6cda8203-a249-e411-b0cc-f8bc1246af59, $GPGGA,000013.00,4737.4089,N,12222.9487,W,2,10,0.8,13.5,M,-18.0,M,,*64
2023-09-10T00:00:14.7410687Z, 6cda8203-a249-e411-b0cc-f8bc1246af59, $GPGGA,000014.00,4737.4093,N,12222.9485,W,2,10,0.8,13.5,M,-18.0,M,,*6A
2023-09-10T00:00:16.0911836Z, 6cda8203-a249-e411-b0cc-f8bc1246af59, $GPGGA,000015.00,4737.4097,N,12222.9484,W,2,10,0.8,13.5,M,-18.0,M,,*6E
2023-09-10T00:00:16.6917387Z, 6cda8203-a249-e411-b0cc-f8bc1246af59, $GPGGA,000016.00,4737.4102,N,12222.9483,W,2,10,0.8,13.5,M,-18.0,M,,*67
2023-09-10T00:00:18.0916544Z, 6cda8203-a249-e411-b0cc-f8bc1246af59, $GPGGA,000017.00,4737.4106,N,12222.9482,W,2,10,0.8,13.6,M,-18.0,M,,*60
2023-09-10T00:00:18.7021148Z, 6cda8203-a249-e411-b0cc-f8bc1246af59, $GPGGA,000018.00,4737.4111,N,12222.9480,W,2,10,0.8,13.6,M,-18.0,M,,*6B
2023-09-10T00:00:20.0919679Z, 6cda8203-a249-e411-b0cc-f8bc1246af59, $GPGGA,000019.00,4737.4115,N,12222.9478,W,2,10,0.8,13.6,M,-18.0,M,,*69
2023-09-10T00:00:20.6923703Z, 6cda8203-a249-e411-b0cc-f8bc1246af59, $GPGGA,000020.00,4737.4120,N,12222.9477,W,2,10,0.8,13.7,M,-18.0,M,,*6B
2023-09-10T00:00:22.0917047Z, 6cda8203-a249-e411-b0cc-f8bc1246af59, $GPGGA,000021.00,4737.4125,N,12222.9476,W,2,10,0.8,13.7,M,-18.0,M,,*6E
2023-09-10T00:00:22.7021948Z, 6cda8203-a249-e411-b0cc-f8bc1246af59, $GPGGA,000022.00,4737.4130,N,12222.9475,W,2,09,0.8,13.8,M,-18.0,M,,*6D
2023-09-10T00:00:24.0926483Z, 6cda8203-a249-e411-b0cc-f8bc1246af59, $GPGGA,000023.00,4737.4135,N,12222.9474,W,2,09,0.8,13.8,M,-18.0,M,,*68
2023-09-10T00:00:24.7019775Z, 6cda8203-a249-e411-b0cc-f8bc1246af59, $GPGGA,000024.00,4737.4140,N,12222.9473,W,2,10,0.8,13.8,M,-18.0,M,,*62
2023-09-10T00:00:26.0919676Z, 6cda8203-a249-e411-b0cc-f8bc1246af59, $GPGGA,000025.00,4737.4145,N,12222.9472,W,2,10,0.8,13.9,M,-18.0,M,,*66
2023-09-10T00:00:26.7023524Z, 6cda8203-a249-e411-b0cc-f8bc1246af59, $GPGGA,000026.00,4737.4150,N,12222.9471,W,2,10,0.8,13.8,M,-18.0,M,,*63
2023-09-10T00:00:28.0922945Z, 6cda8203-a249-e411-b0cc-f8bc1246af59, $GPGGA,000027.00,4737.4155,N,12222.9470,W,2,10,0.8,13.9,M,-18.0,M,,*67
2023-09-10T00:00:28.7026712Z, 6cda8203-a249-e411-b0cc-f8bc1246af59, $GPGGA,000028.00,4737.4160,N,12222.9470,W,2,10,0.8,13.9,M,-18.0,M,,*6E
2023-09-10T00:00:30.0928976Z, 6cda8203-a249-e411-b0cc-f8bc1246af59, $GPGGA,000029.00,4737.4165,N,12222.9470,W,2,10,0.8,13.9,M,-18.0,M,,*6A
2023-09-10T00:00:30.7022670Z, 6cda8203-a249-e411-b0cc-f8bc1246af59, $GPGGA,000030.00,4737.4170,N,12222.9469,W,2,10,0.8,13.9,M,-18.0,M,,*6E
2023-09-10T00:00:32.0932201Z, 6cda8203-a249-e411-b0cc-f8bc1246af59, $GPGGA,000031.00,4737.4176,N,12222.9469,W,2,10,0.8,14.0,M,-18.0,M,,*67
2023-09-10T00:00:32.7025822Z, 6cda8203-a249-e411-b0cc-f8bc1246af59, $GPGGA,000032.00,4737.4181,N,12222.9467,W,2,10,0.8,14.0,M,-18.0,M,,*62
2023-09-10T00:00:34.0926318Z, 6cda8203-a249-e411-b0cc-f8bc1246af59, $GPGGA,000033.00,4737.4186,N,12222.9466,W,2,10,0.8,14.0,M,-18.0,M,,*65
2023-09-10T00:00:34.7030154Z, 6cda8203-a249-e411-b0cc-f8bc1246af59, $GPGGA,000034.00,4737.4191,N,12222.9466,W,2,10,0.8,14.0,M,-18.0,M,,*64
2023-09-10T00:00:36.3226963Z, 6cda8203-a249-e411-b0cc-f8bc1246af59, $GPGGA,000035.00,4737.4196,N,12222.9465,W,2,10,0.8,14.1,M,-18.0,M,,*60
2023-09-10T00:00:36.7030845Z, 6cda8203-a249-e411-b0cc-f8bc1246af59, $GPGGA,000036.00,4737.4201,N,12222.9464,W,2,10,0.8,14.1,M,-18.0,M,,*6F
2023-09-10T00:00:38.0932809Z, 6cda8203-a249-e411-b0cc-f8bc1246af59, $GPGGA,000037.00,4737.4207,N,12222.9463,W,2,10,0.8,14.2,M,-18.0,M,,*6C
2023-09-10T00:00:38.7036541Z, 6cda8203-a249-e411-b0cc-f8bc1246af59, $GPGGA,000038.00,4737.4212,N,12222.9462,W,2,10,0.8,14.2,M,-18.0,M,,*66
2023-09-10T00:00:40.0936061Z, 6cda8203-a249-e411-b0cc-f8bc1246af59, $GPGGA,000039.00,4737.4217,N,12222.9460,W,2,10,0.8,14.3,M,-18.0,M,,*61
2023-09-10T00:00:40.7029766Z, 6cda8203-a249-e411-b0cc-f8bc1246af59, $GPGGA,000040.00,4737.4222,N,12222.9459,W,2,10,0.8,14.3,M,-18.0,M,,*63
2023-09-10T00:00:42.0936984Z, 6cda8203-a249-e411-b0cc-f8bc1246af59, $GPGGA,000041.00,4737.4227,N,12222.9457,W,2,10,0.8,14.3,M,-18.0,M,,*69
2023-09-10T00:00:42.7030497Z, 6cda8203-a249-e411-b0cc-f8bc1246af59, $GPGGA,000042.00,4737.4231,N,12222.9456,W,2,10,0.8,14.2,M,-18.0,M,,*6D
2023-09-10T00:00:44.0934324Z, 6cda8203-a249-e411-b0cc-f8bc1246af59, $GPGGA,000043.00,4737.4236,N,12222.9454,W,2,10,0.8,14.2,M,-18.0,M,,*69
2023-09-10T00:00:44.7032712Z, 6cda8203-a249-e411-b0cc-f8bc1246af59, $GPGGA,000044.00,4737.4240,N,12222.9454,W,2,10,0.8,14.3,M,-18.0,M,,*6E
2023-09-10T00:00:46.0934639Z, 6cda8203-a249-e411-b0cc-f8bc1246af59, $GPGGA,000045.00,4737.4245,N,12222.9452,W,2,10,0.8,14.4,M,-18.0,M,,*6B
2023-09-10T00:00:46.7040736Z, 6cda8203-a249-e411-b0cc-f8bc1246af59, $GPGGA,000046.00,4737.4249,N,12222.9451,W,2,10,0.8,14.4,M,-18.0,M,,*67
2023-09-10T00:00:48.1737732Z, 6cda8203-a249-e411-b0cc-f8bc1246af59, $GPGGA,000047.00,4737.4253,N,12222.9449,W,2,10,0.8,14.5,M,-18.0,M,,*65
2023-09-10T00:00:48.5640741Z, 6cda8203-a249-e411-b0cc-f8bc1246af59, $GPGGA,000048.00,4737.4258,N,12222.9447,W,2,10,0.8,14.5,M,-18.0,M,,*6F
2023-09-10T00:00:49.9137286Z, 6cda8203-a249-e411-b0cc-f8bc1246af59, $GPGGA,000049.00,4737.4262,N,12222.9445,W,2,10,0.8,14.6,M,-18.0,M,,*66
2023-09-10T00:00:51.0937555Z, 6cda8203-a249-e411-b0cc-f8bc1246af59, $GPGGA,000050.00,4737.4267,N,12222.9443,W,2,10,0.8,14.7,M,-18.0,M,,*6C
2023-09-10T00:00:51.7339684Z, 6cda8203-a249-e411-b0cc-f8bc1246af59, $GPGGA,000051.00,4737.4271,N,12222.9441,W,2,10,0.8,14.8,M,-18.0,M,,*67
2023-09-10T00:00:53.0944779Z, 6cda8203-a249-e411-b0cc-f8bc1246af59, $GPGGA,000052.00,4737.4276,N,12222.9440,W,2,10,0.8,14.8,M,-18.0,M,,*62
2023-09-10T00:00:53.3344304Z, 6cda8203-a249-e411-b0cc-f8bc1246af59, $GPGGA,000053.00,4737.4281,N,12222.9438,W,2,10,0.8,14.9,M,-18.0,M,,*65
2023-09-10T00:00:54.7146686Z, 6cda8203-a249-e411-b0cc-f8bc1246af59, $GPGGA,000054.00,4737.4286,N,12222.9436,W,2,10,0.8,15.0,M,-18.0,M,,*63
2023-09-10T00:00:56.0943819Z, 6cda8203-a249-e411-b0cc-f8bc1246af59, $GPGGA,000055.00,4737.4291,N,12222.9434,W,2,10,0.8,15.1,M,-18.0,M,,*67
2023-09-10T00:00:56.7150011Z, 6cda8203-a249-e411-b0cc-f8bc1246af59, $GPGGA,000056.00,4737.4296,N,12222.9432,W,2,10,0.8,15.1,M,-18.0,M,,*65
2023-09-10T00:00:58.0950144Z, 6cda8203-a249-e411-b0cc-f8bc1246af59, $GPGGA,000057.00,4737.4302,N,12222.9430,W,2,10,0.8,15.2,M,-18.0,M,,*69
2023-09-10T00:00:58.3349556Z, 6cda8203-a249-e411-b0cc-f8bc1246af59, $GPGGA,000058.00,4737.4307,N,12222.9428,W,2,10,0.8,15.3,M,-18.0,M,,*6B
2023-09-10T00:00:59.7348999Z, 6cda8203-a249-e411-b0cc-f8bc1246af59, $GPGGA,000059.00,4737.4312,N,12222.9426,W,2,10,0.8,15.3,M,-18.0,M,,*60
2023-09-10T00:01:01.0949993Z, 6cda8203-a249-e411-b0cc-f8bc1246af59, $GPGGA,000100.00,4737.4317,N,12222.9425,W,2,10,0.8,15.4,M,-18.0,M,,*6C
2023-09-10T00:01:01.3349439Z, 6cda8203-a249-e411-b0cc-f8bc1246af59, $GPGGA,000101.00,4737.4322,N,12222.9423,W,2,09,0.8,15.3,M,-18.0,M,,*62
2023-09-10T00:01:02.7145368Z, 6cda8203-a249-e411-b0cc-f8bc1246af59, $GPGGA,000102.00,4737.4326,N,12222.9422,W,2,09,0.8,15.4,M,-18.0,M,,*63
2023-09-10T00:01:04.0945328Z, 6cda8203-a249-e411-b0cc-f8bc1246af59, $GPGGA,000103.00,4737.4331,N,12222.9420,W,2,09,0.8,15.4,M,-18.0,M,,*66
2023-09-10T00:01:04.7347758Z, 6cda8203-a249-e411-b0cc-f8bc1246af59, $GPGGA,000104.00,4737.4336,N,12222.9419,W,2,09,0.8,15.5,M,-18.0,M,,*6D
2023-09-10T00:01:06.0953820Z, 6cda8203-a249-e411-b0cc-f8bc1246af59, $GPGGA,000105.00,4737.4341,N,12222.9418,W,2,09,0.8,15.6,M,-18.0,M,,*6E
2023-09-10T00:01:06.7256290Z, 6cda8203-a249-e411-b0cc-f8bc1246af59, $GPGGA,000106.00,4737.4345,N,12222.9417,W,2,09,0.8,15.7,M,-18.0,M,,*67
2023-09-10T00:01:08.0956984Z, 6cda8203-a249-e411-b0cc-f8bc1246af59, $GPGGA,000107.00,4737.4350,N,12222.9415,W,2,09,0.8,15.8,M,-18.0,M,,*6F
2023-09-10T00:01:08.3357140Z, 6cda8203-a249-e411-b0cc-f8bc1246af59, $GPGGA,000108.00,4737.4355,N,12222.9413,W,2,09,0.8,15.9,M,-18.0,M,,*62
2023-09-10T00:01:09.7358705Z, 6cda8203-a249-e411-b0cc-f8bc1246af59, $GPGGA,000109.00,4737.4361,N,12222.9411,W,2,10,0.8,16.0,M,-18.0,M,,*64
2023-09-10T00:01:11.0959572Z, 6cda8203-a249-e411-b0cc-f8bc1246af59, $GPGGA,000110.00,4737.4366,N,12222.9408,W,2,09,0.8,16.1,M,-18.0,M,,*6A
2023-09-10T00:01:11.9253650Z, 6cda8203-a249-e411-b0cc-f8bc1246af59, $GPGGA,000111.00,4737.4371,N,12222.9406,W,2,09,0.8,16.1,M,-18.0,M,,*63
2023-09-10T00:01:13.0958263Z, 6cda8203-a249-e411-b0cc-f8bc1246af59, $GPGGA,000112.00,4737.4376,N,12222.9405,W,2,09,0.8,16.2,M,-18.0,M,,*67
2023-09-10T00:01:13.7260823Z, 6cda8203-a249-e411-b0cc-f8bc1246af59, $GPGGA,000113.00,4737.4381,N,12222.9403,W,2,10,0.8,16.3,M,-18.0,M,,*61
2023-09-10T00:01:15.0956004Z, 6cda8203-a249-e411-b0cc-f8bc1246af59, $GPGGA,000114.00,4737.4386,N,12222.9400,W,2,10,0.8,16.4,M,-18.0,M,,*65
2023-09-10T00:01:15.7258317Z, 6cda8203-a249-e411-b0cc-f8bc1246af59, $GPGGA,000115.00,4737.4391,N,12222.9398,W,2,10,0.8,16.4,M,-18.0,M,,*64
2023-09-10T00:01:17.1955587Z, 6cda8203-a249-e411-b0cc-f8bc1246af59, $GPGGA,000116.00,4737.4397,N,12222.9396,W,2,10,0.8,16.4,M,-18.0,M,,*6F
2023-09-10T00:01:17.7262787Z, 6cda8203-a249-e411-b0cc-f8bc1246af59, $GPGGA,000117.00,4737.4402,N,12222.9395,W,2,10,0.8,16.4,M,-18.0,M,,*66
2023-09-10T00:01:19.1156074Z, 6cda8203-a249-e411-b0cc-f8bc1246af59, $GPGGA,000118.00,4737.4407,N,12222.9393,W,2,09,0.8,16.4,M,-18.0,M,,*62
2023-09-10T00:01:19.7361880Z, 6cda8203-a249-e411-b0cc-f8bc1246af59, $GPGGA,000119.00,4737.4412,N,12222.9392,W,2,09,0.8,16.5,M,-18.0,M,,*67
2023-09-10T00:01:21.0964290Z, 6cda8203-a249-e411-b0cc-f8bc1246af59, $GPGGA,000120.00,4737.4418,N,12222.9390,W,2,10,0.8,16.4,M,-18.0,M,,*6C
2023-09-10T00:01:21.7267050Z, 6cda8203-a249-e411-b0cc-f8bc1246af59, $GPGGA,000121.00,4737.4423,N,12222.9389,W,2,09,0.8,16.5,M,-18.0,M,,*64
2023-09-10T00:01:23.1166862Z, 6cda8203-a249-e411-b0cc-f8bc1246af59, $GPGGA,000122.00,4737.4428,N,12222.9388,W,2,09,0.8,16.4,M,-18.0,M,,*6C
2023-09-10T00:01:23.7263792Z, 6cda8203-a249-e411-b0cc-f8bc1246af59, $GPGGA,000123.00,4737.4434,N,12222.9386,W,2,09,0.8,16.4,M,-18.0,M,,*6E
2023-09-10T00:01:25.0966571Z, 6cda8203-a249-e411-b0cc-f8bc1246af59, $GPGGA,000124.00,4737.4439,N,12222.9386,W,2,09,0.8,16.3,M,-18.0,M,,*63
2023-09-10T00:01:25.7269441Z, 6cda8203-a249-e411-b0cc-f8bc1246af59, $GPGGA,000125.00,4737.4444,N,12222.9385,W,2,10,0.8,16.3,M,-18.0,M,,*63
2023-09-10T00:01:27.0969845Z, 6cda8203-a249-e411-b0cc-f8bc1246af59, $GPGGA,000126.00,4737.4448,N,12222.9384,W,2,10,0.8,16.3,M,-18.0,M,,*6D
2023-09-10T00:01:27.7471552Z, 6cda8203-a249-e411-b0cc-f8bc1246af59, $GPGGA,000127.00,4737.4453,N,12222.9384,W,2,10,0.8,16.4,M,-18.0,M,,*61
2023-09-10T00:01:29.0963065Z, 6cda8203-a249-e411-b0cc-f8bc1246af59, $GPGGA,000128.00,4737.4458,N,12222.9383,W,2,10,0.8,16.3,M,-18.0,M,,*65
2023-09-10T00:01:29.7337968Z, 6cda8203-a249-e411-b0cc-f8bc1246af59, $GPGGA,000129.00,4737.4463,N,12222.9382,W,2,09,0.8,16.4,M,-18.0,M,,*62
2023-09-10T00:01:31.0948447Z, 6cda8203-a249-e411-b0cc-f8bc1246af59, $GPGGA,000130.00,4737.4468,N,12222.9381,W,2,09,0.8,16.4,M,-18.0,M,,*62
2023-09-10T00:01:31.3232622Z, 6cda8203-a249-e411-b0cc-f8bc1246af59, $GPGGA,000131.00,4737.4472,N,12222.9379,W,2,09,0.8,16.4,M,-18.0,M,,*6F
2023-09-10T00:01:32.7236356Z, 6cda8203-a249-e411-b0cc-f8bc1246af59, $GPGGA,000132.00,4737.4477,N,12222.9378,W,2,09,0.8,16.4,M,-18.0,M,,*68
2023-09-10T00:01:34.2231023Z, 6cda8203-a249-e411-b0cc-f8bc1246af59, $GPGGA,000133.00,4737.4481,N,12222.9376,W,2,09,0.8,16.5,M,-18.0,M,,*6F
2023-09-10T00:01:34.6233620Z, 6cda8203-a249-e411-b0cc-f8bc1246af59, $GPGGA,000134.00,4737.4487,N,12222.9374,W,2,10,0.8,16.5,M,-18.0,M,,*64
2023-09-10T00:01:35.7331308Z, 6cda8203-a249-e411-b0cc-f8bc1246af59, $GPGGA,000135.00,4737.4491,N,12222.9372,W,2,09,0.8,16.5,M,-18.0,M,,*6C
2023-09-10T00:01:37.0832900Z, 6cda8203-a249-e411-b0cc-f8bc1246af59, $GPGGA,000136.00,4737.4496,N,12222.9370,W,2,09,0.8,16.5,M,-18.0,M,,*6A
2023-09-10T00:01:37.7235407Z, 6cda8203-a249-e411-b0cc-f8bc1246af59, $GPGGA,000137.00,4737.4501,N,12222.9368,W,2,09,0.8,16.4,M,-18.0,M,,*6C
2023-09-10T00:01:39.0936332Z, 6cda8203-a249-e411-b0cc-f8bc1246af59, $GPGGA,000138.00,4737.4505,N,12222.9366,W,2,10,0.8,16.2,M,-18.0,M,,*67
2023-09-10T00:01:39.3335688Z, 6cda8203-a249-e411-b0cc-f8bc1246af59, $GPGGA,000139.00,4737.4509,N,12222.9364,W,2,10,0.8,16.1,M,-18.0,M,,*6B
2023-09-10T00:01:40.8241979Z, 6cda8203-a249-e411-b0cc-f8bc1246af59, $GPGGA,000140.00,4737.4515,N,12222.9362,W,2,10,0.8,16.0,M,-18.0,M,,*6F
2023-09-10T00:01:42.0837478Z, 6cda8203-a249-e411-b0cc-f8bc1246af59, $GPGGA,000141.00,4737.4520,N,12222.9361,W,2,10,0.8,15.8,M,-18.0,M,,*60
2023-09-10T00:01:42.3240466Z, 6cda8203-a249-e411-b0cc-f8bc1246af59, $GPGGA,000142.00,4737.4524,N,12222.9359,W,2,10,0.8,15.7,M,-18.0,M,,*63
2023-09-10T00:01:43.7341384Z, 6cda8203-a249-e411-b0cc-f8bc1246af59, $GPGGA,000143.00,4737.4529,N,12222.9357,W,2,10,0.8,15.5,M,-18.0,M,,*63
2023-09-10T00:01:45.0842708Z, 6cda8203-a249-e411-b0cc-f8bc1246af59, $GPGGA,000144.00,4737.4534,N,12222.9356,W,2,10,0.8,15.4,M,-18.0,M,,*68
2023-09-10T00:01:45.7239351Z, 6cda8203-a249-e411-b0cc-f8bc1246af59, $GPGGA,000145.00,4737.4539,N,12222.9354,W,2,10,0.8,15.3,M,-18.0,M,,*61
2023-09-10T00:01:47.1040954Z, 6cda8203-a249-e411-b0cc-f8bc1246af59, $GPGGA,000146.00,4737.4544,N,12222.9353,W,2,09,1.0,15.2,M,-18.0,M,,*6F
2023-09-10T00:01:47.3343567Z, 6cda8203-a249-e411-b0cc-f8bc1246af59, $GPGGA,000147.00,4737.4549,N,12222.9351,W,2,08,1.3,15.1,M,-18.0,M,,*60
2023-09-10T00:01:48.7348065Z, 6cda8203-a249-e411-b0cc-f8bc1246af59, $GPGGA,000148.00,4737.4554,N,12222.9349,W,2,08,1.3,15.0,M,-18.0,M,,*6B
2023-09-10T00:01:50.0844765Z, 6cda8203-a249-e411-b0cc-f8bc1246af59, $GPGGA,000149.00,4737.4559,N,12222.9346,W,2,09,0.8,15.0,M,-18.0,M,,*63
2023-09-10T00:01:50.7248970Z, 6cda8203-a249-e411-b0cc-f8bc1246af59, $GPGGA,000150.00,4737.4565,N,12222.9344,W,2,10,0.8,15.0,M,-18.0,M,,*6E
2023-09-10T00:01:52.2442788Z, 6cda8203-a249-e411-b0cc-f8bc1246af59, $GPGGA,000151.00,4737.4570,N,12222.9342,W,2,10,0.8,14.9,M,-18.0,M,,*65
2023-09-10T00:01:52.6345770Z, 6cda8203-a249-e411-b0cc-f8bc1246af59, $GPGGA,000152.00,4737.4575,N,12222.9340,W,2,10,0.8,14.9,M,-18.0,M,,*61
2023-09-10T00:01:53.7348791Z, 6cda8203-a249-e411-b0cc-f8bc1246af59, $GPGGA,000153.00,4737.4580,N,12222.9338,W,2,09,0.8,14.9,M,-18.0,M,,*6D
2023-09-10T00:01:55.0843948Z, 6cda8203-a249-e411-b0cc-f8bc1246af59, $GPGGA,000154.00,4737.4585,N,12222.9336,W,2,09,0.8,14.9,M,-18.0,M,,*61
2023-09-10T00:01:55.7246175Z, 6cda8203-a249-e411-b0cc-f8bc1246af59, $GPGGA,000155.00,4737.4591,N,12222.9334,W,2,09,0.8,14.9,M,-18.0,M,,*67
2023-09-10T00:01:57.0954000Z, 6cda8203-a249-e411-b0cc-f8bc1246af59, $GPGGA,000156.00,4737.4596,N,12222.9332,W,2,10,0.8,14.8,M,-18.0,M,,*6C
2023-09-10T00:01:57.3353604Z, 6cda8203-a249-e411-b0cc-f8bc1246af59, $GPGGA,000157.00,4737.4602,N,12222.9330,W,2,10,0.8,14.9,M,-18.0,M,,*60
2023-09-10T00:01:58.8350116Z, 6cda8203-a249-e411-b0cc-f8bc1246af59, $GPGGA,000158.00,4737.4607,N,12222.9329,W,2,09,0.8,14.9,M,-18.0,M,,*6A
2023-09-10T00:02:00.0856057Z, 6cda8203-a249-e411-b0cc-f8bc1246af59, $GPGGA,000159.00,4737.4612,N,12222.9327,W,2,09,0.8,15.0,M,-18.0,M,,*69
2023-09-10T00:02:00.7248409Z, 6cda8203-a249-e411-b0cc-f8bc1246af59, $GPGGA,000200.00,4737.4617,N,12222.9325,W,2,09,1.0,15.0,M,-18.0,M,,*68
2023-09-10T00:02:02.1048473Z, 6cda8203-a249-e411-b0cc-f8bc1246af59, $GPGGA,000201.00,4737.4623,N,12222.9323,W,2,10,0.8,15.0,M,-18.0,M,,*69
2023-09-10T00:02:02.3348485Z, 6cda8203-a249-e411-b0cc-f8bc1246af59, $GPGGA,000202.00,4737.4628,N,12222.9321,W,2,10,0.8,14.9,M,-18.0,M,,*6B
2023-09-10T00:02:03.7351505Z, 6cda8203-a249-e411-b0cc-f8bc1246af59, $GPGGA,000203.00,4737.4634,N,12222.9318,W,2,10,0.8,14.9,M,-18.0,M,,*6D
2023-09-10T00:02:05.0853983Z, 6cda8203-a249-e411-b0cc-f8bc1246af59, $GPGGA,000204.00,4737.4639,N,12222.9316,W,2,10,0.8,14.9,M,-18.0,M,,*69
2023-09-10T00:02:05.7355545Z, 6cda8203-a249-e411-b0cc-f8bc1246af59, $GPGGA,000205.00,4737.4644,N,12222.9314,W,2,10,0.8,14.9,M,-18.0,M,,*60
2023-09-10T00:02:07.1057687Z, 6cda8203-a249-e411-b0cc-f8bc1246af59, $GPGGA,000206.00,4737.4649,N,12222.9313,W,2,10,0.8,14.9,M,-18.0,M,,*69
2023-09-10T00:02:07.3357707Z, 6cda8203-a249-e411-b0cc-f8bc1246af59, $GPGGA,000207.00,4737.4654,N,12222.9311,W,2,10,0.8,14.9,M,-18.0,M,,*66
2023-09-10T00:02:08.7361841Z, 6cda8203-a249-e411-b0cc-f8bc1246af59, $GPGGA,000208.00,4737.4659,N,12222.9309,W,2,10,0.8,14.8,M,-18.0,M,,*6C
2023-09-10T00:02:10.2058219Z, 6cda8203-a249-e411-b0cc-f8bc1246af59, $GPGGA,000209.00,4737.4664,N,12222.9307,W,2,10,0.8,14.9,M,-18.0,M,,*6C
2023-09-10T00:02:10.6458600Z, 6cda8203-a249-e411-b0cc-f8bc1246af59, $GPGGA,000210.00,4737.4669,N,12222.9304,W,2,10,0.8,15.0,M,-18.0,M,,*62
2023-09-10T00:02:11.7456782Z, 6cda8203-a249-e411-b0cc-f8bc1246af59, $GPGGA,000211.00,4737.4675,N,12222.9302,W,2,10,0.8,15.1,M,-18.0,M,,*69
2023-09-10T00:02:13.1257842Z, 6cda8203-a249-e411-b0cc-f8bc1246af59, $GPGGA,000212.00,4737.4680,N,12222.9299,W,2,10,0.8,15.1,M,-18.0,M,,*63
2023-09-10T00:02:13.7361776Z, 6cda8203-a249-e411-b0cc-f8bc1246af59, $GPGGA,000213.00,4737.4686,N,12222.9297,W,2,10,0.8,15.2,M,-18.0,M,,*69
2023-09-10T00:02:15.1063070Z, 6cda8203-a249-e411-b0cc-f8bc1246af59, $GPGGA,000214.00,4737.4691,N,12222.9295,W,2,10,0.8,15.1,M,-18.0,M,,*69
2023-09-10T00:02:15.3465848Z, 6cda8203-a249-e411-b0cc-f8bc1246af59, $GPGGA,000215.00,4737.4696,N,12222.9293,W,2,09,0.8,15.2,M,-18.0,M,,*62
2023-09-10T00:02:16.8361244Z, 6cda8203-a249-e411-b0cc-f8bc1246af59, $GPGGA,000216.00,4737.4701,N,12222.9292,W,2,09,0.8,15.1,M,-18.0,M,,*6C
2023-09-10T00:02:18.0866956Z, 6cda8203-a249-e411-b0cc-f8bc1246af59, $GPGGA,000217.00,4737.4705,N,12222.9290,W,2,09,0.8,15.0,M,-18.0,M,,*6A
2023-09-10T00:02:18.3266540Z, 6cda8203-a249-e411-b0cc-f8bc1246af59, $GPGGA,000218.00,4737.4710,N,12222.9288,W,2,09,0.8,15.0,M,-18.0,M,,*68
2023-09-10T00:02:19.7564349Z, 6cda8203-a249-e411-b0cc-f8bc1246af59, $GPGGA,000219.00,4737.4715,N,12222.9287,W,2,09,0.8,15.0,M,-18.0,M,,*63
2023-09-10T00:02:21.0966235Z, 6cda8203-a249-e411-b0cc-f8bc1246af59, $GPGGA,000220.00,4737.4720,N,12222.9286,W,2,09,0.8,15.0,M,-18.0,M,,*6E
2023-09-10T00:02:21.7470591Z, 6cda8203-a249-e411-b0cc-f8bc1246af59, $GPGGA,000221.00,4737.4724,N,12222.9285,W,2,09,0.8,15.0,M,-18.0,M,,*68
2023-09-10T00:02:23.0963981Z, 6cda8203-a249-e411-b0cc-f8bc1246af59, $GPGGA,000222.00,4737.4729,N,12222.9283,W,2,09,0.8,15.0,M,-18.0,M,,*60
2023-09-10T00:02:23.3265898Z, 6cda8203-a249-e411-b0cc-f8bc1246af59, $GPGGA,000223.00,4737.4733,N,12222.9281,W,2,09,0.8,15.0,M,-18.0,M,,*68
2023-09-10T00:02:24.7573887Z, 6cda8203-a249-e411-b0cc-f8bc1246af59, $GPGGA,000224.00,4737.4739,N,12222.9279,W,2,09,0.8,15.1,M,-18.0,M,,*63
2023-09-10T00:02:26.0965777Z, 6cda8203-a249-e411-b0cc-f8bc1246af59, $GPGGA,000225.00,4737.4743,N,12222.9277,W,2,10,0.8,15.1,M,-18.0,M,,*69
2023-09-10T00:02:26.7467547Z, 6cda8203-a249-e411-b0cc-f8bc1246af59, $GPGGA,000226.00,4737.4748,N,12222.9276,W,2,10,0.8,15.1,M,-18.0,M,,*60
2023-09-10T00:02:28.1875308Z, 6cda8203-a249-e411-b0cc-f8bc1246af59, $GPGGA,000227.00,4737.4752,N,12222.9274,W,2,10,0.8,15.2,M,-18.0,M,,*6B
2023-09-10T00:02:28.6474970Z, 6cda8203-a249-e411-b0cc-f8bc1246af59, $GPGGA,000228.00,4737.4757,N,12222.9272,W,2,10,0.8,15.2,M,-18.0,M,,*67
2023-09-10T00:02:29.2471454Z, 6cda8203-a249-e411-b0cc-f8bc1246af59, $GPGGA,000229.00,4737.4762,N,12222.9271,W,2,10,0.8,15.3,M,-18.0,M,,*62
2023-09-10T00:02:30.7468960Z, 6cda8203-a249-e411-b0cc-f8bc1246af59, $GPGGA,000230.00,4737.4767,N,12222.9270,W,2,10,0.8,15.4,M,-18.0,M,,*69
2023-09-10T00:02:32.0970543Z, 6cda8203-a249-e411-b0cc-f8bc1246af59, $GPGGA,000231.00,4737.4772,N,12222.9268,W,2,10,0.8,15.4,M,-18.0,M,,*65
2023-09-10T00:02:32.3370593Z, 6cda8203-a249-e411-b0cc-f8bc1246af59, $GPGGA,000232.00,4737.4777,N,12222.9267,W,2,10,0.8,15.5,M,-18.0,M,,*6D
2023-09-10T00:02:33.7470715Z, 6cda8203-a249-e411-b0cc-f8bc1246af59, $GPGGA,000233.00,4737.4781,N,12222.9265,W,2,10,0.8,15.5,M,-18.0,M,,*67
2023-09-10T00:02:35.1071846Z, 6cda8203-a249-e411-b0cc-f8bc1246af59, $GPGGA,000234.00,4737.4786,N,12222.9264,W,2,10,0.8,15.6,M,-18.0,M,,*65
2023-09-10T00:02:35.3471325Z, 6cda8203-a249-e411-b0cc-f8bc1246af59, $GPGGA,000235.00,4737.4791,N,12222.9262,W,2,10,0.8,15.6,M,-18.0,M,,*64
2023-09-10T00:02:36.7480586Z, 6cda8203-a249-e411-b0cc-f8bc1246af59, $GPGGA,000236.00,4737.4796,N,12222.9261,W,2,10,0.8,15.7,M,-18.0,M,,*62
2023-09-10T00:02:38.1181449Z, 6cda8203-a249-e411-b0cc-f8bc1246af59, $GPGGA,000237.00,4737.4801,N,12222.9260,W,2,09,0.8,15.7,M,-18.0,M,,*6B
2023-09-10T00:02:38.3481409Z, 6cda8203-a249-e411-b0cc-f8bc1246af59, $GPGGA,000238.00,4737.4806,N,12222.9259,W,2,09,0.8,15.7,M,-18.0,M,,*69
2023-09-10T00:02:39.7480697Z, 6cda8203-a249-e411-b0cc-f8bc1246af59, $GPGGA,000239.00,4737.4810,N,12222.9259,W,2,09,0.8,15.6,M,-18.0,M,,*6E
2023-09-10T00:02:41.0982234Z, 6cda8203-a249-e411-b0cc-f8bc1246af59, $GPGGA,000240.00,4737.4815,N,12222.9258,W,2,09,0.8,15.6,M,-18.0,M,,*64
2023-09-10T00:02:41.3381854Z, 6cda8203-a249-e411-b0cc-f8bc1246af59, $GPGGA,000241.00,4737.4819,N,12222.9257,W,2,09,0.8,15.7,M,-18.0,M,,*67
2023-09-10T00:02:42.7580140Z, 6cda8203-a249-e411-b0cc-f8bc1246af59, $GPGGA,000242.00,4737.4824,N,12222.9257,W,2,09,0.8,15.7,M,-18.0,M,,*6A
2023-09-10T00:02:44.0981999Z, 6cda8203-a249-e411-b0cc-f8bc1246af59, $GPGGA,000243.00,4737.4829,N,12222.9256,W,2,09,0.8,15.7,M,-18.0,M,,*67
2023-09-10T00:02:44.7483923Z, 6cda8203-a249-e411-b0cc-f8bc1246af59, $GPGGA,000244.00,4737.4834,N,12222.9255,W,2,09,0.8,15.7,M,-18.0,M,,*6F
2023-09-10T00:02:46.2787438Z, 6cda8203-a249-e411-b0cc-f8bc1246af59, $GPGGA,000245.00,4737.4838,N,12222.9255,W,2,09,0.8,15.7,M,-18.0,M,,*62
2023-09-10T00:02:46.6580680Z, 6cda8203-a249-e411-b0cc-f8bc1246af59, $GPGGA,000246.00,4737.4842,N,12222.9253,W,2,09,0.8,15.6,M,-18.0,M,,*6B
2023-09-10T00:02:47.2584702Z, 6cda8203-a249-e411-b0cc-f8bc1246af59, $GPGGA,000247.00,4737.4847,N,12222.9253,W,2,08,1.3,15.6,M,-18.0,M,,*64
2023-09-10T00:02:48.7490353Z, 6cda8203-a249-e411-b0cc-f8bc1246af59, $GPGGA,000248.00,4737.4852,N,12222.9252,W,2,08,1.3,15.5,M,-18.0,M,,*6D
2023-09-10T00:02:50.1091112Z, 6cda8203-a249-e411-b0cc-f8bc1246af59, $GPGGA,000249.00,4737.4856,N,12222.9252,W,2,08,1.3,15.5,M,-18.0,M,,*68
2023-09-10T00:02:50.3391350Z, 6cda8203-a249-e411-b0cc-f8bc1246af59, $GPGGA,000250.00,4737.4860,N,12222.9252,W,2,09,0.8,15.4,M,-18.0,M,,*6F
2023-09-10T00:02:51.7490169Z, 6cda8203-a249-e411-b0cc-f8bc1246af59, $GPGGA,000251.00,4737.4864,N,12222.9251,W,2,09,0.8,15.4,M,-18.0,M,,*69
2023-09-10T00:02:53.1091223Z, 6cda8203-a249-e411-b0cc-f8bc1246af59, $GPGGA,000252.00,4737.4869,N,12222.9250,W,2,09,0.8,15.4,M,-18.0,M,,*66
2023-09-10T00:02:53.3490759Z, 6cda8203-a249-e411-b0cc-f8bc1246af59, $GPGGA,000253.00,4737.4874,N,12222.9250,W,2,10,0.8,15.3,M,-18.0,M,,*64
2023-09-10T00:02:54.7490031Z, 6cda8203-a249-e411-b0cc-f8bc1246af59, $GPGGA,000254.00,4737.4878,N,12222.9249,W,2,09,0.8,15.3,M,-18.0,M,,*6F
2023-09-10T00:02:56.0891938Z, 6cda8203-a249-e411-b0cc-f8bc1246af59, $GPGGA,000255.00,4737.4883,N,12222.9249,W,2,09,0.8,15.3,M,-18.0,M,,*6A
2023-09-10T00:02:56.4187682Z, 6cda8203-a249-e411-b0cc-f8bc1246af59, $GPGGA,000256.00,4737.4888,N,12222.9249,W,2,10,0.8,15.3,M,-18.0,M,,*6A
2023-09-10T00:02:58.1094356Z, 6cda8203-a249-e411-b0cc-f8bc1246af59, $GPGGA,000257.00,4737.4892,N,12222.9248,W,2,10,0.8,15.2,M,-18.0,M,,*60
2023-09-10T00:02:58.8392652Z, 6cda8203-a249-e411-b0cc-f8bc1246af59, $GPGGA,000258.00,4737.4897,N,12222.9246,W,2,10,0.8,15.2,M,-18.0,M,,*64
2023-09-10T00:03:00.1097507Z, 6cda8203-a249-e411-b0cc-f8bc1246af59, $GPGGA,000259.00,4737.4902,N,12222.9245,W,2,10,0.8,15.1,M,-18.0,M,,*68
2023-09-10T00:03:00.3496888Z, 6cda8203-a249-e411-b0cc-f8bc1246af59, $GPGGA,000300.00,4737.4906,N,12222.9245,W,2,10,0.8,15.0,M,-18.0,M,,*60
2023-09-10T00:03:01.7595791Z, 6cda8203-a249-e411-b0cc-f8bc1246af59, $GPGGA,000301.00,4737.4911,N,12222.9244,W,2,10,0.8,15.0,M,-18.0,M,,*66
2023-09-10T00:03:03.1097406Z, 6cda8203-a249-e411-b0cc-f8bc1246af59, $GPGGA,000302.00,4737.4915,N,12222.9243,W,2,10,0.8,14.8,M,-18.0,M,,*6F
2023-09-10T00:03:03.3491849Z, 6cda8203-a249-e411-b0cc-f8bc1246af59, $GPGGA,000303.00,4737.4919,N,12222.9242,W,2,09,0.8,14.6,M,-18.0,M,,*65
2023-09-10T00:03:05.1095634Z, 6cda8203-a249-e411-b0cc-f8bc1246af59, $GPGGA,000304.00,4737.4924,N,12222.9241,W,2,09,0.8,14.5,M,-18.0,M,,*6C
2023-09-10T00:03:05.3495099Z, 6cda8203-a249-e411-b0cc-f8bc1246af59, $GPGGA,000305.00,4737.4928,N,12222.9241,W,2,09,0.8,14.4,M,-18.0,M,,*60
2023-09-10T00:03:06.7593971Z, 6cda8203-a249-e411-b0cc-f8bc1246af59, $GPGGA,000306.00,4737.4932,N,12222.9240,W,2,10,0.8,14.4,M,-18.0,M,,*61
2023-09-10T00:03:08.1095513Z, 6cda8203-a249-e411-b0cc-f8bc1246af59, $GPGGA,000307.00,4737.4937,N,12222.9239,W,2,09,0.8,14.3,M,-18.0,M,,*64
2023-09-10T00:03:08.3495029Z, 6cda8203-a249-e411-b0cc-f8bc1246af59, $GPGGA,000308.00,4737.4942,N,12222.9238,W,2,09,0.8,14.2,M,-18.0,M,,*69
2023-09-10T00:03:09.7603932Z, 6cda8203-a249-e411-b0cc-f8bc1246af59, $GPGGA,000309.00,4737.4947,N,12222.9236,W,2,09,0.8,14.1,M,-18.0,M,,*60
2023-09-10T00:03:11.1902061Z, 6cda8203-a249-e411-b0cc-f8bc1246af59, $GPGGA,000310.00,4737.4951,N,12222.9235,W,2,10,0.8,14.1,M,-18.0,M,,*64
2023-09-10T00:03:11.3504925Z, 6cda8203-a249-e411-b0cc-f8bc1246af59, $GPGGA,000311.00,4737.4956,N,12222.9234,W,2,10,0.8,14.0,M,-18.0,M,,*62
2023-09-10T00:03:13.1197882Z, 6cda8203-a249-e411-b0cc-f8bc1246af59, $GPGGA,000312.00,4737.4961,N,12222.9233,W,2,10,0.8,14.0,M,-18.0,M,,*62
2023-09-10T00:03:13.3501826Z, 6cda8203-a249-e411-b0cc-f8bc1246af59, $GPGGA,000313.00,4737.4966,N,12222.9231,W,2,10,0.8,13.9,M,-18.0,M,,*68
2023-09-10T00:03:14.7600592Z, 6cda8203-a249-e411-b0cc-f8bc1246af59, $GPGGA,000314.00,4737.4971,N,12222.9230,W,2,10,0.8,13.8,M,-18.0,M,,*69
2023-09-10T00:03:16.1205310Z, 6cda8203-a249-e411-b0cc-f8bc1246af59, $GPGGA,000315.00,4737.4975,N,12222.9229,W,2,09,0.8,13.7,M,-18.0,M,,*63
2023-09-10T00:03:16.7707290Z, 6cda8203-a249-e411-b0cc-f8bc1246af59, $GPGGA,000316.00,4737.4979,N,12222.9227,W,2,09,0.8,13.6,M,-18.0,M,,*63
2023-09-10T00:03:18.1208515Z, 6cda8203-a249-e411-b0cc-f8bc1246af59, $GPGGA,000317.00,4737.4984,N,12222.9227,W,2,09,0.8,13.6,M,-18.0,M,,*60
2023-09-10T00:03:18.3508774Z, 6cda8203-a249-e411-b0cc-f8bc1246af59, $GPGGA,000318.00,4737.4988,N,12222.9225,W,2,09,0.8,13.5,M,-18.0,M,,*62
2023-09-10T00:03:20.1212058Z, 6cda8203-a249-e411-b0cc-f8bc1246af59, $GPGGA,000319.00,4737.4993,N,12222.9225,W,2,09,0.8,13.3,M,-18.0,M,,*6F
2023-09-10T00:03:20.3512368Z, 6cda8203-a249-e411-b0cc-f8bc1246af59, $GPGGA,000320.00,4737.4998,N,12222.9224,W,2,09,0.8,13.2,M,-18.0,M,,*6E
2023-09-10T00:03:21.3708194Z, 6cda8203-a249-e411-b0cc-f8bc1246af59, $GPGGA,000321.00,4737.5002,N,12222.9223,W,2,09,0.8,13.0,M,-18.0,M,,*61
2023-09-10T00:03:22.7707104Z, 6cda8203-a249-e411-b0cc-f8bc1246af59, $GPGGA,000322.00,4737.5006,N,12222.9222,W,2,09,0.8,12.9,M,-18.0,M,,*6F
2023-09-10T00:03:24.1215225Z, 6cda8203-a249-e411-b0cc-f8bc1246af59, $GPGGA,000323.00,4737.5010,N,12222.9221,W,2,09,0.8,13.0,M,-18.0,M,,*62
2023-09-10T00:03:24.3515070Z, 6cda8203-a249-e411-b0cc-f8bc1246af59, $GPGGA,000324.00,4737.5015,N,12222.9220,W,2,10,0.8,12.9,M,-18.0,M,,*61
2023-09-10T00:03:26.1208343Z, 6cda8203-a249-e411-b0cc-f8bc1246af59, $GPGGA,000325.00,4737.5019,N,12222.9219,W,2,10,0.8,12.8,M,-18.0,M,,*67
2023-09-10T00:03:26.3607735Z, 6cda8203-a249-e411-b0cc-f8bc1246af59, $GPGGA,000326.00,4737.5023,N,12222.9219,W,2,10,0.8,12.8,M,-18.0,M,,*6D
2023-09-10T00:03:27.7716522Z, 6cda8203-a249-e411-b0cc-f8bc1246af59, $GPGGA,000327.00,4737.5028,N,12222.9217,W,2,10,0.8,12.7,M,-18.0,M,,*66
2023-09-10T00:03:29.1218163Z, 6cda8203-a249-e411-b0cc-f8bc1246af59, $GPGGA,000328.00,4737.5032,N,12222.9216,W,2,10,0.8,12.6,M,-18.0,M,,*62
2023-09-10T00:03:29.8018887Z, 6cda8203-a249-e411-b0cc-f8bc1246af59, $GPGGA,000329.00,4737.5036,N,12222.9214,W,2,10,0.8,12.6,M,-18.0,M,,*65
2023-09-10T00:03:30.7716639Z, 6cda8203-a249-e411-b0cc-f8bc1246af59, $GPGGA,000330.00,4737.5040,N,12222.9212,W,2,10,0.8,12.6,M,-18.0,M,,*6A
2023-09-10T00:03:32.1211570Z, 6cda8203-a249-e411-b0cc-f8bc1246af59, $GPGGA,000331.00,4737.5044,N,12222.9211,W,2,10,0.8,12.6,M,-18.0,M,,*6C
2023-09-10T00:03:32.3621225Z, 6cda8203-a249-e411-b0cc-f8bc1246af59, $GPGGA,000332.00,4737.5049,N,12222.9209,W,2,10,0.8,12.5,M,-18.0,M,,*68
2023-09-10T00:03:34.1217495Z, 6cda8203-a249-e411-b0cc-f8bc1246af59, $GPGGA,000333.00,4737.5054,N,12222.9207,W,2,10,0.8,12.5,M,-18.0,M,,*6B
2023-09-10T00:03:34.3617113Z, 6cda8203-a249-e411-b0cc-f8bc1246af59, $GPGGA,000334.00,4737.5058,N,12222.9204,W,2,10,0.8,12.5,M,-18.0,M,,*63
2023-09-10T00:03:36.1320120Z, 6cda8203-a249-e411-b0cc-f8bc1246af59, $GPGGA,000335.00,4737.5064,N,12222.9201,W,2,09,0.8,12.4,M,-18.0,M,,*61
2023-09-10T00:03:36.3620319Z, 6cda8203-a249-e411-b0cc-f8bc1246af59, $GPGGA,000336.00,4737.5069,N,12222.9199,W,2,09,0.8,12.4,M,-18.0,M,,*6D
2023-09-10T00:03:37.3716458Z, 6cda8203-a249-e411-b0cc-f8bc1246af59, $GPGGA,000337.00,4737.5075,N,12222.9196,W,2,08,1.3,12.3,M,-18.0,M,,*62
2023-09-10T00:03:38.7725824Z, 6cda8203-a249-e411-b0cc-f8bc1246af59, $GPGGA,000338.00,4737.5080,N,12222.9194,W,2,09,1.0,12.3,M,-18.0,M,,*67
2023-09-10T00:03:40.1326563Z, 6cda8203-a249-e411-b0cc-f8bc1246af59, $GPGGA,000339.00,4737.5085,N,12222.9191,W,2,10,0.8,12.3,M,-18.0,M,,*67
2023-09-10T00:03:40.3626794Z, 6cda8203-a249-e411-b0cc-f8bc1246af59, $GPGGA,000340.00,4737.5090,N,12222.9189,W,2,10,0.8,12.2,M,-18.0,M,,*65
2023-09-10T00:03:41.7725750Z, 6cda8203-a249-e411-b0cc-f8bc1246af59, $GPGGA,000341.00,4737.5096,N,12222.9187,W,2,10,0.8,12.1,M,-18.0,M,,*6F
2023-09-10T00:03:43.1326418Z, 6cda8203-a249-e411-b0cc-f8bc1246af59, $GPGGA,000342.00,4737.5101,N,12222.9185,W,2,10,0.8,12.0,M,-18.0,M,,*60
2023-09-10T00:03:43.3626668Z, 6cda8203-a249-e411-b0cc-f8bc1246af59, $GPGGA,000343.00,4737.5106,N,12222.9184,W,2,10,0.8,12.0,M,-18.0,M,,*67
2023-09-10T00:03:44.7824954Z, 6cda8203-a249-e411-b0cc-f8bc1246af59, $GPGGA,000344.00,4737.5112,N,12222.9181,W,2,10,0.8,11.9,M,-18.0,M,,*6A
2023-09-10T00:03:46.1326530Z, 6cda8203-a249-e411-b0cc-f8bc1246af59, $GPGGA,000345.00,4737.5117,N,12222.9180,W,2,10,0.8,11.9,M,-18.0,M,,*6F
2023-09-10T00:03:46.3626579Z, 6cda8203-a249-e411-b0cc-f8bc1246af59, $GPGGA,000346.00,4737.5122,N,12222.9177,W,2,10,0.8,11.9,M,-18.0,M,,*62
2023-09-10T00:03:48.1329747Z, 6cda8203-a249-e411-b0cc-f8bc1246af59, $GPGGA,000347.00,4737.5128,N,12222.9176,W,2,10,0.8,11.8,M,-18.0,M,,*69
2023-09-10T00:03:48.3729106Z, 6cda8203-a249-e411-b0cc-f8bc1246af59, $GPGGA,000348.00,4737.5133,N,12222.9173,W,2,10,0.8,11.8,M,-18.0,M,,*69
2023-09-10T00:03:49.3725888Z, 6cda8203-a249-e411-b0cc-f8bc1246af59, $GPGGA,000349.00,4737.5139,N,12222.9171,W,2,10,0.8,11.7,M,-18.0,M,,*6F
2023-09-10T00:03:50.7827065Z, 6cda8203-a249-e411-b0cc-f8bc1246af59, $GPGGA,000350.00,4737.5144,N,12222.9169,W,2,10,0.8,11.7,M,-18.0,M,,*64
2023-09-10T00:03:52.1331015Z, 6cda8203-a249-e411-b0cc-f8bc1246af59, $GPGGA,000351.00,4737.5149,N,12222.9166,W,2,10,0.8,11.7,M,-18.0,M,,*67
2023-09-10T00:03:52.3730414Z, 6cda8203-a249-e411-b0cc-f8bc1246af59, $GPGGA,000352.00,4737.5155,N,12222.9165,W,2,10,0.8,11.5,M,-18.0,M,,*68
2023-09-10T00:03:53.7830192Z, 6cda8203-a249-e411-b0cc-f8bc1246af59, $GPGGA,000353.00,4737.5160,N,12222.9163,W,2,10,0.8,11.4,M,-18.0,M,,*68
2023-09-10T00:03:55.1331464Z, 6cda8203-a249-e411-b0cc-f8bc1246af59, $GPGGA,000354.00,4737.5166,N,12222.9162,W,2,10,0.8,11.3,M,-18.0,M,,*6F
2023-09-10T00:03:55.3761782Z, 6cda8203-a249-e411-b0cc-f8bc1246af59, $GPGGA,000355.00,4737.5170,N,12222.9161,W,2,10,0.8,11.1,M,-18.0,M,,*68
2023-09-10T00:03:56.7835740Z, 6cda8203-a249-e411-b0cc-f8bc1246af59, $GPGGA,000356.00,4737.5175,N,12222.9159,W,2,10,0.8,11.0,M,-18.0,M,,*64
2023-09-10T00:03:57.1230730Z, 6cda8203-a249-e411-b0cc-f8bc1246af59, $GPGGA,000357.00,4737.5180,N,12222.9158,W,2,10,0.8,11.0,M,-18.0,M,,*6E
2023-09-10T00:03:58.7833857Z, 6cda8203-a249-e411-b0cc-f8bc1246af59, $GPGGA,000358.00,4737.5185,N,12222.9156,W,2,10,0.8,10.9,M,-18.0,M,,*62
2023-09-10T00:04:00.1339149Z, 6cda8203-a249-e411-b0cc-f8bc1246af59, $GPGGA,000359.00,4737.5190,N,12222.9154,W,2,10,0.8,10.9,M,-18.0,M,,*65
2023-09-10T00:04:00.3738500Z, 6cda8203-a249-e411-b0cc-f8bc1246af59, $GPGGA,000400.00,4737.5196,N,12222.9153,W,2,10,0.8,10.9,M,-18.0,M,,*6F
2023-09-10T00:04:01.7837686Z, 6cda8203-a249-e411-b0cc-f8bc1246af59, $GPGGA,000401.00,4737.5201,N,12222.9151,W,2,10,0.8,10.9,M,-18.0,M,,*61
2023-09-10T00:04:03.1339479Z, 6cda8203-a249-e411-b0cc-f8bc1246af59, $GPGGA,000402.00,4737.5206,N,12222.9149,W,2,10,0.8,10.9,M,-18.0,M,,*6C
2023-09-10T00:04:03.3739093Z, 6cda8203-a249-e411-b0cc-f8bc1246af59, $GPGGA,000403.00,4737.5212,N,12222.9147,W,2,10,0.8,10.9,M,-18.0,M,,*66
2023-09-10T00:04:04.7839113Z, 6cda8203-a249-e411-b0cc-f8bc1246af59, $GPGGA,000404.00,4737.5217,N,12222.9146,W,2,10,0.8,10.9,M,-18.0,M,,*65
2023-09-10T00:04:06.1341203Z, 6cda8203-a249-e411-b0cc-f8bc1246af59, $GPGGA,000405.00,4737.5223,N,12222.9144,W,2,10,0.8,11.0,M,-18.0,M,,*69
2023-09-10T00:04:06.3740840Z, 6cda8203-a249-e411-b0cc-f8bc1246af59, $GPGGA,000406.00,4737.5229,N,12222.9142,W,2,09,1.0,10.9,M,-18.0,M,,*6F
2023-09-10T00:04:07.8737900Z, 6cda8203-a249-e411-b0cc-f8bc1246af59, $GPGGA,000407.00,4737.5234,N,12222.9141,W,2,09,1.0,10.8,M,-18.0,M,,*60
2023-09-10T00:04:08.7842943Z, 6cda8203-a249-e411-b0cc-f8bc1246af59, $GPGGA,000408.00,4737.5240,N,12222.9141,W,2,09,1.0,10.7,M,-18.0,M,,*63
2023-09-10T00:04:09.1238038Z, 6cda8203-a249-e411-b0cc-f8bc1246af59, $GPGGA,000409.00,4737.5245,N,12222.9141,W,2,10,0.8,10.6,M,-18.0,M,,*67
2023-09-10T00:04:10.2441682Z, 6cda8203-a249-e411-b0cc-f8bc1246af59, $GPGGA,000410.00,4737.5251,N,12222.9140,W,2,10,0.8,10.6,M,-18.0,M,*6B
2023-09-10T00:04:11.7845292Z, 6cda8203-a249-e411-b0cc-f8bc1246af59, $GPGGA,000411.00,4737.5257,N,12222.9140,W,2,10,0.8,10.6,M,-18.0,M,,*6C
2023-09-10T00:04:13.1445890Z, 6cda8203-a249-e411-b0cc-f8bc1246af59, $GPGGA,000412.00,4737.5262,N,12222.9140,W,2,10,0.8,10.6,M,-18.0,M,,*69
2023-09-10T00:04:13.3746156Z, 6cda8203-a249-e411-b0cc-f8bc1246af59, $GPGGA,000413.00,4737.5267,N,12222.9139,W,2,09,1.0,10.5,M,-18.0,M,,*61
2023-09-10T00:04:14.9444967Z, 6cda8203-a249-e411-b0cc-f8bc1246af59, $GPGGA,000414.00,4737.5273,N,12222.9137,W,2,09,1.0,10.6,M,-18.0,M,,*6E
2023-09-10T00:04:16.1442845Z, 6cda8203-a249-e411-b0cc-f8bc1246af59, $GPGGA,000415.00,4737.5279,N,12222.9137,W,2,10,0.8,10.5,M,-18.0,M,,*67
2023-09-10T00:04:16.3750237Z, 6cda8203-a249-e411-b0cc-f8bc1246af59, $GPGGA,000416.00,4737.5285,N,12222.9136,W,2,10,0.8,10.5,M,-18.0,M,,*66
2023-09-10T00:04:18.1444571Z, 6cda8203-a249-e411-b0cc-f8bc1246af59, $GPGGA,000417.00,4737.5290,N,12222.9135,W,2,10,0.8,10.3,M,-18.0,M,,*66
2023-09-10T00:04:18.3843949Z, 6cda8203-a249-e411-b0cc-f8bc1246af59, $GPGGA,000418.00,4737.5296,N,12222.9133,W,2,10,0.8,10.2,M,-18.0,M,,*68
2023-09-10T00:04:20.0649167Z, 6cda8203-a249-e411-b0cc-f8bc1246af59, $GPGGA,000419.00,4737.5301,N,12222.9131,W,2,10,0.8,10.2,M,-18.0,M,,*64
2023-09-10T00:04:20.7947346Z, 6cda8203-a249-e411-b0cc-f8bc1246af59, $GPGGA,000420.00,4737.5307,N,12222.9130,W,2,10,0.8,10.1,M,-18.0,M,,*6A
2023-09-10T00:04:22.1449175Z, 6cda8203-a249-e411-b0cc-f8bc1246af59, $GPGGA,000421.00,4737.5312,N,12222.9130,W,2,10,0.8,10.0,M,-18.0,M,,*6E
2023-09-10T00:04:22.3848476Z, 6cda8203-a249-e411-b0cc-f8bc1246af59, $GPGGA,000422.00,4737.5317,N,12222.9129,W,2,10,0.8,9.9,M,-18.0,M,,*51
2023-09-10T00:04:23.2451537Z, 6cda8203-a249-e411-b0cc-f8bc1246af59, $GPGGA,000423.00,4737.5322,N,12222.9129,W,2,10,0.8,9.8,M,-18.0,M,,*57
2023-09-10T00:04:24.7956049Z, 6cda8203-a249-e411-b0cc-f8bc1246af59, $GPGGA,000424.00,4737.5326,N,12222.9128,W,2,10,0.8,9.8,M,-18.0,M,,*55
2023-09-10T00:04:25.1350936Z, 6cda8203-a249-e411-b0cc-f8bc1246af59, $GPGGA,000425.00,4737.5331,N,12222.9127,W,2,10,0.8,9.7,M,-18.0,M,,*52
2023-09-10T00:04:26.2453167Z, 6cda8203-a249-e411-b0cc-f8bc1246af59, $GPGGA,000426.00,4737.5336,N,12222.9127,W,2,10,0.8,9.7,M,-18.0,M,,*56
2023-09-10T00:04:27.7956176Z, 6cda8203-a249-e411-b0cc-f8bc1246af59, $GPGGA,000427.00,4737.5340,N,12222.9126,W,2,10,0.8,9.8,M,-18.0,M,,*58
2023-09-10T00:04:28.1351125Z, 6cda8203-a249-e411-b0cc-f8bc1246af59, $GPGGA,000428.00,4737.5344,N,12222.9126,W,2,10,0.8,9.8,M,-18.0,M,,*53
2023-09-10T00:04:29.2452957Z, 6cda8203-a249-e411-b0cc-f8bc1246af59, $GPGGA,000429.00,4737.5349,N,12222.9125,W,2,10,0.8,9.9,M,-18.0,M,,*5D
2023-09-10T00:04:30.7956038Z, 6cda8203-a249-e411-b0cc-f8bc1246af59, $GPGGA,000430.00,4737.5354,N,12222.9125,W,2,10,0.8,9.9,M,-18.0,M,,*59
2023-09-10T00:04:31.1361012Z, 6cda8203-a249-e411-b0cc-f8bc1246af59, $GPGGA,000431.00,4737.5358,N,12222.9124,W,2,10,0.8,10.1,M,-18.0,M,,*65
2023-09-10T00:04:32.2462853Z, 6cda8203-a249-e411-b0cc-f8bc1246af59, $GPGGA,000432.00,4737.5363,N,12222.9123,W,2,10,0.8,10.2,M,-18.0,M,,*6A
2023-09-10T00:04:33.7962878Z, 6cda8203-a249-e411-b0cc-f8bc1246af59, $GPGGA,000433.00,4737.5368,N,12222.9121,W,2,10,0.8,10.3,M,-18.0,M,,*63
2023-09-10T00:04:34.7762139Z, 6cda8203-a249-e411-b0cc-f8bc1246af59, $GPGGA,000434.00,4737.5372,N,12222.9120,W,2,10,0.8,10.3,M,-18.0,M,,*6E
2023-09-10T00:04:35.2461874Z, 6cda8203-a249-e411-b0cc-f8bc1246af59, $GPGGA,000435.00,4737.5377,N,12222.9119,W,2,10,0.8,10.3,M,-18.0,M,,*60
2023-09-10T00:04:36.7964758Z, 6cda8203-a249-e411-b0cc-f8bc1246af59, $GPGGA,000436.00,4737.5382,N,12222.9119,W,2,10,0.8,10.3,M,-18.0,M,,*69
2023-09-10T00:04:37.1359679Z, 6cda8203-a249-e411-b0cc-f8bc1246af59, $GPGGA,000437.00,4737.5386,N,12222.9119,W,2,10,0.8,10.3,M,-18.0,M,,*6C
2023-09-10T00:04:38.2663643Z, 6cda8203-a249-e411-b0cc-f8bc1246af59, $GPGGA,000438.00,4737.5391,N,12222.9118,W,2,10,0.8,10.3,M,-18.0,M,,*64
2023-09-10T00:04:39.7968216Z, 6cda8203-a249-e411-b0cc-f8bc1246af59, $GPGGA,000439.00,4737.5396,N,12222.9118,W,2,10,0.8,10.4,M,-18.0,M,,*65
2023-09-10T00:04:40.1363245Z, 6cda8203-a249-e411-b0cc-f8bc1246af59, $GPGGA,000440.00,4737.5401,N,12222.9118,W,2,10,0.8,10.4,M,-18.0,M,,*62
2023-09-10T00:04:41.2664201Z, 6cda8203-a249-e411-b0cc-f8bc1246af59, $GPGGA,000441.00,4737.5405,N,12222.9118,W,2,10,0.8,10.3,M,-18.0,M,,*60
2023-09-10T00:04:42.2561363Z, 6cda8203-a249-e411-b0cc-f8bc1246af59, $GPGGA,000442.00,4737.5410,N,12222.9117,W,2,10,0.8,10.4,M,-18.0,M,,*6F
2023-09-10T00:04:43.7962063Z, 6cda8203-a249-e411-b0cc-f8bc1246af59, $GPGGA,000443.00,4737.5414,N,12222.9117,W,2,10,0.8,10.3,M,-18.0,M,,*6D
2023-09-10T00:04:44.1367459Z, 6cda8203-a249-e411-b0cc-f8bc1246af59, $GPGGA,000444.00,4737.5419,N,12222.9117,W,2,10,0.8,10.3,M,-18.0,M,,*67
2023-09-10T00:04:45.2568824Z, 6cda8203-a249-e411-b0cc-f8bc1246af59, $GPGGA,000445.00,4737.5424,N,12222.9117,W,2,10,0.8,10.3,M,-18.0,M,,*68
2023-09-10T00:04:46.7972211Z, 6cda8203-a249-e411-b0cc-f8bc1246af59, $GPGGA,000446.00,4737.5428,N,12222.9117,W,2,10,0.8,10.3,M,-18.0,M,,*67
2023-09-10T00:04:47.1372961Z, 6cda8203-a249-e411-b0cc-f8bc1246af59, $GPGGA,000447.00,4737.5433,N,12222.9117,W,2,10,0.8,10.3,M,-18.0,M,,*6C
2023-09-10T00:04:48.2573589Z, 6cda8203-a249-e411-b0cc-f8bc1246af59, $GPGGA,000448.00,4737.5438,N,12222.9117,W,2,10,0.8,10.3,M,-18.0,M,,*68
2023-09-10T00:04:49.2572721Z, 6cda8203-a249-e411-b0cc-f8bc1246af59, $GPGGA,000449.00,4737.5442,N,12222.9117,W,2,10,0.8,10.4,M,-18.0,M,,*63
2023-09-10T00:04:50.2374837Z, 6cda8203-a249-e411-b0cc-f8bc1246af59, $GPGGA,000450.00,4737.5447,N,12222.9117,W,2,10,0.8,10.4,M,-18.0,M,,*6E
2023-09-10T00:04:51.2570783Z, 6cda8203-a249-e411-b0cc-f8bc1246af59, $GPGGA,000451.00,4737.5452,N,12222.9116,W,2,10,0.8,10.5,M,-18.0,M,,*6B
2023-09-10T00:04:52.8073754Z, 6cda8203-a249-e411-b0cc-f8bc1246af59, $GPGGA,000452.00,4737.5457,N,12222.9116,W,2,10,0.8,10.6,M,-18.0,M,,*6E
2023-09-10T00:04:53.1468861Z, 6cda8203-a249-e411-b0cc-f8bc1246af59, $GPGGA,000453.00,4737.5462,N,12222.9115,W,2,10,0.8,10.7,M,-18.0,M,,*6B
2023-09-10T00:04:54.2575927Z, 6cda8203-a249-e411-b0cc-f8bc1246af59, $GPGGA,000454.00,4737.5467,N,12222.9115,W,2,10,0.8,10.8,M,-18.0,M,,*66
2023-09-10T00:04:55.8078917Z, 6cda8203-a249-e411-b0cc-f8bc1246af59, $GPGGA,000455.00,4737.5472,N,12222.9114,W,2,10,0.8,10.9,M,-18.0,M,,*63
2023-09-10T00:04:56.7876291Z, 6cda8203-a249-e411-b0cc-f8bc1246af59, $GPGGA,000456.00,4737.5477,N,12222.9113,W,2,10,0.8,10.9,M,-18.0,M,,*62
2023-09-10T00:04:57.2575940Z, 6cda8203-a249-e411-b0cc-f8bc1246af59, $GPGGA,000457.00,4737.5482,N,12222.9112,W,2,10,0.8,11.0,M,-18.0,M,,*60
2023-09-10T00:04:58.8079298Z, 6cda8203-a249-e411-b0cc-f8bc1246af59, $GPGGA,000458.00,4737.5487,N,12222.9111,W,2,10,0.8,11.0,M,-18.0,M,,*69
2023-09-10T00:05:00.0978230Z, 6cda8203-a249-e411-b0cc-f8bc1246af59, $GPGGA,000459.00,4737.5493,N,12222.9110,W,2,10,0.8,11.1,M,-18.0,M,,*6D
2023-09-10T00:05:00.4174247Z, 6cda8203-a249-e411-b0cc-f8bc1246af59, $GPGGA,000500.00,4737.5498,N,12222.9110,W,2,10,0.8,11.0,M,-18.0,M,,*6A
2023-09-10T00:05:02.0983299Z, 6cda8203-a249-e411-b0cc-f8bc1246af59, $GPGGA,000501.00,4737.5503,N,12222.9110,W,2,10,0.8,11.0,M,-18.0,M,,*68
2023-09-10T00:05:02.3283422Z, 6cda8203-a249-e411-b0cc-f8bc1246af59, $GPGGA,000502.00,4737.5508,N,12222.9110,W,2,10,0.8,11.0,M,-18.0,M,,*60
2023-09-10T00:05:04.0980260Z, 6cda8203-a249-e411-b0cc-f8bc1246af59, $GPGGA,000503.00,4737.5513,N,12222.9110,W,2,10,0.8,11.0,M,-18.0,M,,*6B
2023-09-10T00:05:04.4177996Z, 6cda8203-a249-e411-b0cc-f8bc1246af59, $GPGGA,000504.00,4737.5518,N,12222.9110,W,2,10,0.8,11.0,M,-18.0,M,,*67
2023-09-10T00:05:06.0985221Z, 6cda8203-a249-e411-b0cc-f8bc1246af59, $GPGGA,000505.00,4737.5524,N,12222.9111,W,2,10,0.8,10.9,M,-18.0,M,,*60
2023-09-10T00:05:06.4182401Z, 6cda8203-a249-e411-b0cc-f8bc1246af59, $GPGGA,000506.00,4737.5529,N,12222.9112,W,2,10,0.8,10.9,M,-18.0,M,,*6D
2023-09-10T00:05:08.0984496Z, 6cda8203-a249-e411-b0cc-f8bc1246af59, $GPGGA,000507.00,4737.5534,N,12222.9112,W,2,10,0.8,10.9,M,-18.0,M,,*60
2023-09-10T00:05:08.7984538Z, 6cda8203-a249-e411-b0cc-f8bc1246af59, $GPGGA,000508.00,4737.5539,N,12222.9113,W,2,10,0.8,10.9,M,-18.0,M,,*63
2023-09-10T00:05:09.2180215Z, 6cda8203-a249-e411-b0cc-f8bc1246af59, $GPGGA,000509.00,4737.5545,N,12222.9113,W,2,10,0.8,10.8,M,-18.0,M,,*68
2023-09-10T00:05:11.0988726Z, 6cda8203-a249-e411-b0cc-f8bc1246af59, $GPGGA,000510.00,4737.5550,N,12222.9114,W,2,10,0.8,10.7,M,-18.0,M,,*6C
2023-09-10T00:05:11.4185063Z, 6cda8203-a249-e411-b0cc-f8bc1246af59, $GPGGA,000511.00,4737.5555,N,12222.9115,W,2,10,0.8,10.7,M,-18.0,M,,*69
2023-09-10T00:05:12.2190376Z, 6cda8203-a249-e411-b0cc-f8bc1246af59, $GPGGA,000512.00,4737.5560,N,12222.9115,W,2,10,0.8,10.7,M,-18.0,M,,*6C
2023-09-10T00:05:14.0983519Z, 6cda8203-a249-e411-b0cc-f8bc1246af59, $GPGGA,000513.00,4737.5565,N,12222.9115,W,2,10,0.8,10.7,M,-18.0,M,,*68
2023-09-10T00:05:14.8590274Z, 6cda8203-a249-e411-b0cc-f8bc1246af59, $GPGGA,000514.00,4737.5570,N,12222.9115,W,2,10,0.8,10.8,M,-18.0,M,,*64
2023-09-10T00:05:16.0986538Z, 6cda8203-a249-e411-b0cc-f8bc1246af59, $GPGGA,000515.00,4737.5576,N,12222.9115,W,2,10,0.8,10.9,M,-18.0,M,,*62
2023-09-10T00:05:16.4193025Z, 6cda8203-a249-e411-b0cc-f8bc1246af59, $GPGGA,000516.00,4737.5581,N,12222.9116,W,2,10,0.8,11.0,M,-18.0,M,,*62
2023-09-10T00:05:18.0993656Z, 6cda8203-a249-e411-b0cc-f8bc1246af59, $GPGGA,000517.00,4737.5586,N,12222.9117,W,2,10,0.8,11.1,M,-18.0,M,,*64
2023-09-10T00:05:18.4196005Z, 6cda8203-a249-e411-b0cc-f8bc1246af59, $GPGGA,000518.00,4737.5591,N,12222.9117,W,2,10,0.8,11.3,M,-18.0,M,,*6F
2023-09-10T00:05:19.2191387Z, 6cda8203-a249-e411-b0cc-f8bc1246af59, $GPGGA,000519.00,4737.5597,N,12222.9117,W,2,10,0.8,11.3,M,-18.0,M,,*68
2023-09-10T00:05:21.0989419Z, 6cda8203-a249-e411-b0cc-f8bc1246af59, $GPGGA,000520.00,4737.5602,N,12222.9116,W,2,10,0.8,11.3,M,-18.0,M,,*6C
2023-09-10T00:05:21.4195948Z, 6cda8203-a249-e411-b0cc-f8bc1246af59, $GPGGA,000521.00,4737.5607,N,12222.9116,W,2,10,0.8,11.4,M,-18.0,M,,*6F
2023-09-10T00:05:22.2190862Z, 6cda8203-a249-e411-b0cc-f8bc1246af59, $GPGGA,000522.00,4737.5612,N,12222.9115,W,2,10,0.8,11.3,M,-18.0,M,,*6C
2023-09-10T00:05:24.0999410Z, 6cda8203-a249-e411-b0cc-f8bc1246af59, $GPGGA,000523.00,4737.5618,N,12222.9114,W,2,10,0.8,11.4,M,-18.0,M,,*61
2023-09-10T00:05:24.4198847Z, 6cda8203-a249-e411-b0cc-f8bc1246af59, $GPGGA,000524.00,4737.5624,N,12222.9114,W,2,10,0.8,11.5,M,-18.0,M,,*68
2023-09-10T00:05:25.9997206Z, 6cda8203-a249-e411-b0cc-f8bc1246af59, $GPGGA,000525.00,4737.5630,N,12222.9113,W,2,10,0.8,11.8,M,-18.0,M,,*66
2023-09-10T00:05:26.6896959Z, 6cda8203-a249-e411-b0cc-f8bc1246af59, $GPGGA,000526.00,4737.5636,N,12222.9113,W,2,10,0.8,11.9,M,-18.0,M,,*62
2023-09-10T00:05:28.0996018Z, 6cda8203-a249-e411-b0cc-f8bc1246af59, $GPGGA,000527.00,4737.5641,N,12222.9112,W,2,10,0.8,12.0,M,-18.0,M,,*68
2023-09-10T00:05:28.4202229Z, 6cda8203-a249-e411-b0cc-f8bc1246af59, $GPGGA,000528.00,4737.5647,N,12222.9112,W,2,10,0.8,12.0,M,-18.0,M,,*61
2023-09-10T00:05:29.2296893Z, 6cda8203-a249-e411-b0cc-f8bc1246af59, $GPGGA,000529.00,4737.5653,N,12222.9112,W,2,10,0.8,12.1,M,-18.0,M,,*64
2023-09-10T00:05:31.0995790Z, 6cda8203-a249-e411-b0cc-f8bc1246af59, $GPGGA,000530.00,4737.5658,N,12222.9112,W,2,10,0.8,12.1,M,-18.0,M,,*67
2023-09-10T00:05:31.4202143Z, 6cda8203-a249-e411-b0cc-f8bc1246af59, $GPGGA,000531.00,4737.5663,N,12222.9113,W,2,10,0.8,12.2,M,-18.0,M,,*6C
2023-09-10T00:05:32.7397030Z, 6cda8203-a249-e411-b0cc-f8bc1246af59, $GPGGA,000532.00,4737.5668,N,12222.9112,W,2,10,0.8,12.2,M,-18.0,M,,*65
2023-09-10T00:05:34.1005720Z, 6cda8203-a249-e411-b0cc-f8bc1246af59, $GPGGA,000533.00,4737.5673,N,12222.9112,W,2,10,0.8,12.2,M,-18.0,M,,*6E
2023-09-10T00:05:34.4204831Z, 6cda8203-a249-e411-b0cc-f8bc1246af59, $GPGGA,000534.00,4737.5679,N,12222.9113,W,2,10,0.8,12.3,M,-18.0,M,,*63
2023-09-10T00:05:36.1006822Z, 6cda8203-a249-e411-b0cc-f8bc1246af59, $GPGGA,000535.00,4737.5684,N,12222.9113,W,2,10,0.8,12.3,M,-18.0,M,,*60
2023-09-10T00:05:36.4203475Z, 6cda8203-a249-e411-b0cc-f8bc1246af59, $GPGGA,000536.00,4737.5689,N,12222.9113,W,2,11,0.8,12.5,M,-18.0,M,,*69
2023-09-10T00:05:38.1000824Z, 6cda8203-a249-e411-b0cc-f8bc1246af59, $GPGGA,000537.00,4737.5694,N,12222.9114,W,2,11,0.8,12.7,M,-18.0,M,,*61
2023-09-10T00:05:38.4207257Z, 6cda8203-a249-e411-b0cc-f8bc1246af59, $GPGGA,000538.00,4737.5700,N,12222.9114,W,2,11,0.8,12.7,M,-18.0,M,,*62
2023-09-10T00:05:39.2260566Z, 6cda8203-a249-e411-b0cc-f8bc1246af59, $GPGGA,000539.00,4737.5705,N,12222.9114,W,2,11,0.8,12.8,M,-18.0,M,,*69
2023-09-10T00:05:41.0865111Z, 6cda8203-a249-e411-b0cc-f8bc1246af59, $GPGGA,000540.00,4737.5710,N,12222.9114,W,2,11,0.8,12.9,M,-18.0,M,,*62
2023-09-10T00:05:41.4071461Z, 6cda8203-a249-e411-b0cc-f8bc1246af59, $GPGGA,000541.00,4737.5715,N,12222.9113,W,2,11,0.8,12.9,M,-18.0,M,,*61
2023-09-10T00:05:42.2174963Z, 6cda8203-a249-e411-b0cc-f8bc1246af59, $GPGGA,000542.00,4737.5721,N,12222.9113,W,2,11,0.8,13.0,M,-18.0,M,,*6D
2023-09-10T00:05:44.1767420Z, 6cda8203-a249-e411-b0cc-f8bc1246af59, $GPGGA,000543.00,4737.5726,N,12222.9112,W,2,11,0.8,13.0,M,-18.0,M,,*6A
2023-09-10T00:05:44.6273420Z, 6cda8203-a249-e411-b0cc-f8bc1246af59, $GPGGA,000544.00,4737.5732,N,12222.9112,W,2,11,0.8,13.1,M,-18.0,M,,*69
2023-09-10T00:05:45.2167827Z, 6cda8203-a249-e411-b0cc-f8bc1246af59, $GPGGA,000545.00,4737.5737,N,12222.9111,W,2,11,0.8,13.2,M,-18.0,M,,*6D
2023-09-10T00:05:47.0869333Z, 6cda8203-a249-e411-b0cc-f8bc1246af59, $GPGGA,000546.00,4737.5743,N,12222.9111,W,2,11,0.8,13.2,M,-18.0,M,,*6D
2023-09-10T00:05:47.4075627Z, 6cda8203-a249-e411-b0cc-f8bc1246af59, $GPGGA,000547.00,4737.5748,N,12222.9111,W,2,11,0.8,13.2,M,-18.0,M,,*67
2023-09-10T00:05:48.2170094Z, 6cda8203-a249-e411-b0cc-f8bc1246af59, $GPGGA,000548.00,4737.5754,N,12222.9111,W,2,11,0.8,13.1,M,-18.0,M,,*66
2023-09-10T00:05:50.2276777Z, 6cda8203-a249-e411-b0cc-f8bc1246af59, $GPGGA,000549.00,4737.5759,N,12222.9110,W,2,11,0.8,13.1,M,-18.0,M,,*6B
2023-09-10T00:05:50.6279216Z, 6cda8203-a249-e411-b0cc-f8bc1246af59, $GPGGA,000550.00,4737.5765,N,12222.9111,W,2,11,0.8,13.1,M,-18.0,M,,*6D
2023-09-10T00:05:51.2176365Z, 6cda8203-a249-e411-b0cc-f8bc1246af59, $GPGGA,000551.00,4737.5770,N,12222.9111,W,2,11,0.8,13.2,M,-18.0,M,,*6B
2023-09-10T00:05:53.0874903Z, 6cda8203-a249-e411-b0cc-f8bc1246af59, $GPGGA,000552.00,4737.5776,N,12222.9112,W,2,11,0.8,13.2,M,-18.0,M,,*6D
2023-09-10T00:05:53.4078294Z, 6cda8203-a249-e411-b0cc-f8bc1246af59, $GPGGA,000553.00,4737.5781,N,12222.9113,W,2,11,0.8,13.2,M,-18.0,M,,*65
2023-09-10T00:05:54.2183158Z, 6cda8203-a249-e411-b0cc-f8bc1246af59, $GPGGA,000554.00,4737.5787,N,12222.9114,W,2,11,0.8,13.3,M,-18.0,M,,*62
2023-09-10T00:05:56.2678730Z, 6cda8203-a249-e411-b0cc-f8bc1246af59, $GPGGA,000555.00,4737.5792,N,12222.9114,W,2,11,0.8,13.3,M,-18.0,M,,*67
2023-09-10T00:05:56.6282960Z, 6cda8203-a249-e411-b0cc-f8bc1246af59, $GPGGA,000556.00,4737.5797,N,12222.9115,W,2,11,0.8,13.4,M,-18.0,M,,*67
2023-09-10T00:05:57.2893422Z, 6cda8203-a249-e411-b0cc-f8bc1246af59, $GPGGA,000557.00,4737.5802,N,12222.9115,W,2,11,0.8,13.4,M,-18.0,M,,*65
2023-09-10T00:05:59.0886443Z, 6cda8203-a249-e411-b0cc-f8bc1246af59, $GPGGA,000558.00,4737.5808,N,12222.9115,W,2,11,0.8,13.4,M,-18.0,M,,*60
2023-09-10T00:05:59.4082820Z, 6cda8203-a249-e411-b0cc-f8bc1246af59, $GPGGA,000559.00,4737.5813,N,12222.9115,W,2,11,0.8,13.5,M,-18.0,M,,*6A
2023-09-10T00:06:00.2286403Z, 6cda8203-a249-e411-b0cc-f8bc1246af59, $GPGGA,000600.00,4737.5818,N,12222.9115,W,2,11,0.8,13.7,M,-18.0,M,,*6C
2023-09-10T00:06:01.2283312Z, 6cda8203-a249-e411-b0cc-f8bc1246af59, $GPGGA,000601.00,4737.5823,N,12222.9115,W,2,11,0.8,13.8,M,-18.0,M,,*6A
2023-09-10T00:06:03.0883083Z, 6cda8203-a249-e411-b0cc-f8bc1246af59, $GPGGA,000602.00,4737.5828,N,12222.9115,W,2,11,0.8,13.9,M,-18.0,M,,*63
2023-09-10T00:06:03.4089494Z, 6cda8203-a249-e411-b0cc-f8bc1246af59, $GPGGA,000603.00,4737.5833,N,12222.9116,W,2,11,0.8,14.0,M,-18.0,M,,*65
2023-09-10T00:06:04.2288939Z, 6cda8203-a249-e411-b0cc-f8bc1246af59, $GPGGA,000604.00,4737.5837,N,12222.9116,W,2,11,0.8,14.0,M,-18.0,M,,*66
2023-09-10T00:06:05.3891208Z, 6cda8203-a249-e411-b0cc-f8bc1246af59, $GPGGA,000605.00,4737.5842,N,12222.9116,W,2,11,0.8,14.2,M,-18.0,M,,*67
2023-09-10T00:06:06.2284407Z, 6cda8203-a249-e411-b0cc-f8bc1246af59, $GPGGA,000606.00,4737.5847,N,12222.9116,W,2,11,0.8,14.3,M,-18.0,M,,*60
2023-09-10T00:06:07.2292037Z, 6cda8203-a249-e411-b0cc-f8bc1246af59, $GPGGA,000607.00,4737.5852,N,12222.9115,W,2,11,0.8,14.5,M,-18.0,M,,*60
2023-09-10T00:06:08.8984775Z, 6cda8203-a249-e411-b0cc-f8bc1246af59, $GPGGA,000608.00,4737.5857,N,12222.9115,W,2,11,0.8,14.7,M,-18.0,M,,*68
2023-09-10T00:06:09.2290641Z, 6cda8203-a249-e411-b0cc-f8bc1246af59, $GPGGA,000609.00,4737.5862,N,12222.9115,W,2,11,0.8,14.9,M,-18.0,M,,*61
2023-09-10T00:06:10.2287057Z, 6cda8203-a249-e411-b0cc-f8bc1246af59, $GPGGA,000610.00,4737.5867,N,12222.9114,W,2,11,0.8,15.1,M,-18.0,M,,*64
2023-09-10T00:06:11.3986039Z, 6cda8203-a249-e411-b0cc-f8bc1246af59, $GPGGA,000611.00,4737.5872,N,12222.9113,W,2,11,0.8,14.7,M,-18.0,M,,*61
2023-09-10T00:06:12.2290387Z, 6cda8203-a249-e411-b0cc-f8bc1246af59, $GPGGA,000612.00,4737.5877,N,12222.9112,W,2,11,0.8,14.9,M,-18.0,M,,*68
2023-09-10T00:06:13.2297053Z, 6cda8203-a249-e411-b0cc-f8bc1246af59, $GPGGA,000613.00,4737.5882,N,12222.9112,W,2,11,0.8,15.1,M,-18.0,M,,*6A
2023-09-10T00:06:14.3996385Z, 6cda8203-a249-e411-b0cc-f8bc1246af59, $GPGGA,000614.00,4737.5886,N,12222.9111,W,2,11,0.8,14.8,M,-18.0,M,,*62
2023-09-10T00:06:15.8194796Z, 6cda8203-a249-e411-b0cc-f8bc1246af59, $GPGGA,000615.00,4737.5890,N,12222.9110,W,2,11,0.8,15.0,M,-18.0,M,,*6C
2023-09-10T00:06:16.2396116Z, 6cda8203-a249-e411-b0cc-f8bc1246af59, $GPGGA,000616.00,4737.5895,N,12222.9109,W,2,11,0.8,15.1,M,-18.0,M,,*63
2023-09-10T00:06:17.3996262Z, 6cda8203-a249-e411-b0cc-f8bc1246af59, $GPGGA,000617.00,4737.5900,N,12222.9109,W,2,11,0.8,15.1,M,-18.0,M,,*6F
2023-09-10T00:06:18.2300181Z, 6cda8203-a249-e411-b0cc-f8bc1246af59, $GPGGA,000618.00,4737.5904,N,12222.9108,W,2,11,0.8,15.1,M,-18.0,M,,*65
2023-09-10T00:06:20.0894850Z, 6cda8203-a249-e411-b0cc-f8bc1246af59, $GPGGA,000619.00,4737.5909,N,12222.9108,W,2,11,0.8,15.0,M,-18.0,M,,*68
2023-09-10T00:06:20.4101197Z, 6cda8203-a249-e411-b0cc-f8bc1246af59, $GPGGA,000620.00,4737.5914,N,12222.9108,W,2,11,0.8,15.0,M,-18.0,M,,*6E
2023-09-10T00:06:21.9198254Z, 6cda8203-a249-e411-b0cc-f8bc1246af59, $GPGGA,000621.00,4737.5918,N,12222.9107,W,2,11,0.8,15.0,M,-18.0,M,,*6C
2023-09-10T00:06:22.3997677Z, 6cda8203-a249-e411-b0cc-f8bc1246af59, $GPGGA,000622.00,4737.5923,N,12222.9107,W,2,11,0.8,15.0,M,-18.0,M,,*67
2023-09-10T00:06:23.2400714Z, 6cda8203-a249-e411-b0cc-f8bc1246af59, $GPGGA,000623.00,4737.5928,N,12222.9106,W,2,11,0.8,15.3,M,-18.0,M,,*6F
2023-09-10T00:06:24.2397606Z, 6cda8203-a249-e411-b0cc-f8bc1246af59, $GPGGA,000624.00,4737.5932,N,12222.9106,W,2,11,0.8,15.3,M,-18.0,M,,*63
2023-09-10T00:06:25.4003717Z, 6cda8203-a249-e411-b0cc-f8bc1246af59, $GPGGA,000625.00,4737.5936,N,12222.9105,W,2,11,0.8,15.5,M,-18.0,M,,*63
2023-09-10T00:06:26.2396965Z, 6cda8203-a249-e411-b0cc-f8bc1246af59, $GPGGA,000626.00,4737.5941,N,12222.9105,W,2,11,0.8,15.5,M,-18.0,M,,*60
2023-09-10T00:06:27.2403630Z, 6cda8203-a249-e411-b0cc-f8bc1246af59, $GPGGA,000627.00,4737.5946,N,12222.9104,W,2,11,0.8,15.5,M,-18.0,M,,*67
2023-09-10T00:06:28.4003536Z, 6cda8203-a249-e411-b0cc-f8bc1246af59, $GPGGA,000628.00,4737.5950,N,12222.9103,W,2,11,0.8,15.4,M,-18.0,M,,*69
2023-09-10T00:06:29.2446663Z, 6cda8203-a249-e411-b0cc-f8bc1246af59, $GPGGA,000629.00,4737.5954,N,12222.9102,W,2,11,0.8,15.4,M,-18.0,M,,*6D
2023-09-10T00:06:30.2403517Z, 6cda8203-a249-e411-b0cc-f8bc1246af59, $GPGGA,000630.00,4737.5957,N,12222.9101,W,2,11,0.8,15.3,M,-18.0,M,,*62
2023-09-10T00:06:31.4003497Z, 6cda8203-a249-e411-b0cc-f8bc1246af59, $GPGGA,000631.00,4737.5961,N,12222.9100,W,2,11,0.8,15.3,M,-18.0,M,,*67
2023-09-10T00:06:32.2443685Z, 6cda8203-a249-e411-b0cc-f8bc1246af59, $GPGGA,000632.00,4737.5965,N,12222.9098,W,2,11,0.8,15.2,M,-18.0,M,,*61
2023-09-10T00:06:33.2404496Z, 6cda8203-a249-e411-b0cc-f8bc1246af59, $GPGGA,000633.00,4737.5969,N,12222.9096,W,2,11,0.8,15.2,M,-18.0,M,,*62
2023-09-10T00:06:34.7708055Z, 6cda8203-a249-e411-b0cc-f8bc1246af59, $GPGGA,000634.00,4737.5974,N,12222.9094,W,2,11,0.8,15.2,M,-18.0,M,,*6B
2023-09-10T00:06:35.2407722Z, 6cda8203-a249-e411-b0cc-f8bc1246af59, $GPGGA,000635.00,4737.5978,N,12222.9092,W,2,11,0.8,14.8,M,-18.0,M,,*6B
2023-09-10T00:06:36.2404277Z, 6cda8203-a249-e411-b0cc-f8bc1246af59, $GPGGA,000636.00,4737.5983,N,12222.9089,W,2,11,0.8,14.8,M,-18.0,M,,*66
2023-09-10T00:06:37.4106286Z, 6cda8203-a249-e411-b0cc-f8bc1246af59, $GPGGA,000637.00,4737.5986,N,12222.9087,W,2,11,0.8,14.5,M,-18.0,M,,*61
2023-09-10T00:06:38.2609494Z, 6cda8203-a249-e411-b0cc-f8bc1246af59, $GPGGA,000638.00,4737.5990,N,12222.9086,W,2,11,0.8,14.5,M,-18.0,M,,*68
2023-09-10T00:06:39.2415205Z, 6cda8203-a249-e411-b0cc-f8bc1246af59, $GPGGA,000639.00,4737.5995,N,12222.9084,W,2,11,0.8,14.5,M,-18.0,M,,*6E
2023-09-10T00:06:41.0207792Z, 6cda8203-a249-e411-b0cc-f8bc1246af59, $GPGGA,000640.00,4737.6000,N,12222.9082,W,2,11,0.8,14.5,M,-18.0,M,,*60
2023-09-10T00:06:41.6510479Z, 6cda8203-a249-e411-b0cc-f8bc1246af59, $GPGGA,000641.00,4737.6006,N,12222.9079,W,2,11,0.8,14.6,M,-18.0,M,,*60
2023-09-10T00:06:42.2514324Z, 6cda8203-a249-e411-b0cc-f8bc1246af59, $GPGGA,000642.00,4737.6011,N,12222.9077,W,2,11,0.8,14.7,M,-18.0,M,,*6A
2023-09-10T00:06:44.0912377Z, 6cda8203-a249-e411-b0cc-f8bc1246af59, $GPGGA,000643.00,4737.6015,N,12222.9076,W,2,11,0.8,14.5,M,-18.0,M,,*6C
2023-09-10T00:06:44.4118755Z, 6cda8203-a249-e411-b0cc-f8bc1246af59, $GPGGA,000644.00,4737.6019,N,12222.9074,W,2,11,0.8,14.3,M,-18.0,M,,*63
2023-09-10T00:06:45.2413680Z, 6cda8203-a249-e411-b0cc-f8bc1246af59, $GPGGA,000645.00,4737.6024,N,12222.9073,W,2,11,0.8,14.2,M,-18.0,M,,*6A
2023-09-10T00:06:47.2716213Z, 6cda8203-a249-e411-b0cc-f8bc1246af59, $GPGGA,000646.00,4737.6028,N,12222.9072,W,2,11,0.8,14.1,M,-18.0,M,,*67
2023-09-10T00:06:47.6519648Z, 6cda8203-a249-e411-b0cc-f8bc1246af59, $GPGGA,000647.00,4737.6032,N,12222.9071,W,2,11,0.8,13.9,M,-18.0,M,,*61
2023-09-10T00:06:48.2513527Z, 6cda8203-a249-e411-b0cc-f8bc1246af59, $GPGGA,000648.00,4737.6036,N,12222.9070,W,2,11,0.8,13.8,M,-18.0,M,,*6A
2023-09-10T00:06:49.4113543Z, 6cda8203-a249-e411-b0cc-f8bc1246af59, $GPGGA,000649.00,4737.6040,N,12222.9069,W,2,11,0.8,13.8,M,-18.0,M,,*62
2023-09-10T00:06:50.2516880Z, 6cda8203-a249-e411-b0cc-f8bc1246af59, $GPGGA,000650.00,4737.6044,N,12222.9069,W,2,11,0.8,13.7,M,-18.0,M,,*61
2023-09-10T00:06:51.2515607Z, 6cda8203-a249-e411-b0cc-f8bc1246af59, $GPGGA,000651.00,4737.6048,N,12222.9068,W,2,11,0.8,13.6,M,-18.0,M,,*6C
2023-09-10T00:06:52.4115316Z, 6cda8203-a249-e411-b0cc-f8bc1246af59, $GPGGA,000652.00,4737.6051,N,12222.9068,W,2,11,0.8,13.4,M,-18.0,M,,*65
2023-09-10T00:06:53.8821744Z, 6cda8203-a249-e411-b0cc-f8bc1246af59, $GPGGA,000653.00,4737.6055,N,12222.9068,W,2,11,0.8,13.3,M,-18.0,M,,*67
2023-09-10T00:06:54.2517561Z, 6cda8203-a249-e411-b0cc-f8bc1246af59, $GPGGA,000654.00,4737.6059,N,12222.9067,W,2,11,0.8,13.2,M,-18.0,M,,*62
2023-09-10T00:06:55.2722028Z, 6cda8203-a249-e411-b0cc-f8bc1246af59, $GPGGA,000655.00,4737.6063,N,12222.9066,W,2,11,0.8,13.1,M,-18.0,M,,*68
2023-09-10T00:06:56.2519429Z, 6cda8203-a249-e411-b0cc-f8bc1246af59, $GPGGA,000656.00,4737.6067,N,12222.9065,W,2,10,0.8,12.9,M,-18.0,M,,*64
2023-09-10T00:06:57.4126919Z, 6cda8203-a249-e411-b0cc-f8bc1246af59, $GPGGA,000657.00,4737.6070,N,12222.9065,W,2,10,0.8,12.8,M,-18.0,M,,*62
2023-09-10T00:06:58.2522535Z, 6cda8203-a249-e411-b0cc-f8bc1246af59, $GPGGA,000658.00,4737.6074,N,12222.9064,W,2,10,0.8,12.7,M,-18.0,M,,*67
2023-09-10T00:06:59.2529011Z, 6cda8203-a249-e411-b0cc-f8bc1246af59, $GPGGA,000659.00,4737.6078,N,12222.9063,W,2,11,0.8,12.7,M,-18.0,M,,*6C
2023-09-10T00:07:00.8221610Z, 6cda8203-a249-e411-b0cc-f8bc1246af59, $GPGGA,000700.00,4737.6081,N,12222.9063,W,2,11,0.8,12.6,M,-18.0,M,,*66
2023-09-10T00:07:01.2522914Z, 6cda8203-a249-e411-b0cc-f8bc1246af59, $GPGGA,000701.00,4737.6085,N,12222.9062,W,2,11,0.8,12.5,M,-18.0,M,,*61
2023-09-10T00:07:02.2523845Z, 6cda8203-a249-e411-b0cc-f8bc1246af59, $GPGGA,000702.00,4737.6089,N,12222.9062,W,2,11,0.8,12.3,M,-18.0,M,,*68
2023-09-10T00:07:03.3924323Z, 6cda8203-a249-e411-b0cc-f8bc1246af59, $GPGGA,000703.00,4737.6092,N,12222.9063,W,2,11,0.8,12.1,M,-18.0,M,,*60
2023-09-10T00:07:04.2527036Z, 6cda8203-a249-e411-b0cc-f8bc1246af59, $GPGGA,000704.00,4737.6095,N,12222.9063,W,2,11,0.8,12.0,M,-18.0,M,,*61
2023-09-10T00:07:06.0925604Z, 6cda8203-a249-e411-b0cc-f8bc1246af59, $GPGGA,000705.00,4737.6098,N,12222.9063,W,2,11,0.8,12.0,M,-18.0,M,,*6D
2023-09-10T00:07:06.8930804Z, 6cda8203-a249-e411-b0cc-f8bc1246af59, $GPGGA,000706.00,4737.6102,N,12222.9063,W,2,11,0.8,11.8,M,-18.0,M,,*67
