ACQ Timestamp (Server Time in UTC), MessageID, Data Value For: GNSS-6452-$GPGGA
2023-07-30T00:00:00.0889575Z, 6cda8203-a249-e411-b0cc-f8bc1246af59, $GPGGA,235959.00,4106.1499,N,12428.7626,W,2,10,0.8,13.7,M,-25.9,M,,*6D
2023-07-30T00:00:00.4185243Z, 6cda8203-a249-e411-b0cc-f8bc1246af59, $GPGGA,000000.00,4106.1509,N,12428.7628,W,2,10,0.8,13.7,M,-25.9,M,,*6A
2023-07-30T00:00:01.2290103Z, 6cda8203-a249-e411-b0cc-f8bc1246af59, $GPGGA,000001.00,4106.1518,N,12428.7630,W,2,09,0.8,13.9,M,-25.9,M,,*64
2023-07-30T00:00:03.0890253Z, 6cda8203-a249-e411-b0cc-f8bc1246af59, $GPGGA,000002.00,4106.1528,N,12428.7629,W,2,10,0.8,13.9,M,-25.9,M,,*64
2023-07-30T00:00:03.4086602Z, 6cda8203-a249-e411-b0cc-f8bc1246af59, $GPGGA,000003.00,4106.1539,N,12428.7629,W,2,11,0.8,13.7,M,-25.9,M,,*6A
2023-07-30T00:00:04.2191600Z, 6cda8203-a249-e411-b0cc-f8bc1246af59, $GPGGA,000004.00,4106.1550,N,12428.7630,W,2,11,0.8,13.5,M,-25.9,M,,*68
2023-07-30T00:00:06.0890023Z, 6cda8203-a249-e411-b0cc-f8bc1246af59, $GPGGA,000005.00,4106.1559,N,12428.7631,W,2,11,0.8,13.3,M,-25.9,M,,*67
2023-07-30T00:00:06.4185671Z, 6cda8203-a249-e411-b0cc-f8bc1246af59, $GPGGA,000006.00,4106.1567,N,12428.7632,W,2,11,0.8,13.4,M,-25.9,M,,*6D
2023-07-30T00:00:07.3689839Z, 6cda8203-a249-e411-b0cc-f8bc1246af59, $GPGGA,000007.00,4106.1575,N,12428.7633,W,2,11,0.8,13.5,M,-25.9,M,,*6F
2023-07-30T00:00:08.2292310Z, 6cda8203-a249-e411-b0cc-f8bc1246af59, $GPGGA,000008.00,4106.1585,N,12428.7631,W,2,10,0.8,13.5,M,-25.9,M,,*6C
2023-07-30T00:00:10.0891656Z, 6cda8203-a249-e411-b0cc-f8bc1246af59, $GPGGA,000009.00,4106.1595,N,12428.7629,W,2,10,0.8,13.5,M,-25.9,M,,*65
2023-07-30T00:00:10.4097895Z, 6cda8203-a249-e411-b0cc-f8bc1246af59, $GPGGA,000010.00,4106.1605,N,12428.7628,W,2,10,0.8,13.3,M,-25.9,M,,*60
2023-07-30T00:00:11.7799758Z, 6cda8203-a249-e411-b0cc-f8bc1246af59, $GPGGA,000011.00,4106.1615,N,12428.7629,W,2,10,0.8,13.2,M,-25.9,M,,*60
2023-07-30T00:00:12.2290068Z, 6cda8203-a249-e411-b0cc-f8bc1246af59, $GPGGA,000012.00,4106.1626,N,12428.7630,W,2,10,0.8,13.1,M,-25.9,M,,*68
2023-07-30T00:00:14.0826951Z, 6cda8203-a249-e411-b0cc-f8bc1246af59, $GPGGA,000013.00,4106.1636,N,12428.7631,W,2,10,0.8,13.3,M,-25.9,M,,*6B
2023-07-30T00:00:14.4199407Z, 6cda8203-a249-e411-b0cc-f8bc1246af59, $GPGGA,000014.00,4106.1646,N,12428.7630,W,2,11,0.8,13.5,M,-25.9,M,,*6D
2023-07-30T00:00:15.2294447Z, 6cda8203-a249-e411-b0cc-f8bc1246af59, $GPGGA,000015.00,4106.1656,N,12428.7627,W,2,11,0.8,13.6,M,-25.9,M,,*68
2023-07-30T00:00:17.0896432Z, 6cda8203-a249-e411-b0cc-f8bc1246af59, $GPGGA,000016.00,4106.1667,N,12428.7623,W,2,11,0.8,13.5,M,-25.9,M,,*6E
2023-07-30T00:00:17.8095481Z, 6cda8203-a249-e411-b0cc-f8bc1246af59, $GPGGA,000017.00,4106.1678,N,12428.7622,W,2,11,0.8,13.0,M,-25.9,M,,*65
2023-07-30T00:00:18.2297434Z, 6cda8203-a249-e411-b0cc-f8bc1246af59, $GPGGA,000018.00,4106.1688,N,12428.7623,W,2,10,0.8,12.6,M,-25.9,M,,*62
2023-07-30T00:00:19.2303812Z, 6cda8203-a249-e411-b0cc-f8bc1246af59, $GPGGA,000019.00,4106.1697,N,12428.7625,W,2,10,0.8,12.5,M,-25.9,M,,*68
2023-07-30T00:00:20.4003257Z, 6cda8203-a249-e411-b0cc-f8bc1246af59, $GPGGA,000020.00,4106.1706,N,12428.7626,W,2,10,0.8,12.8,M,-25.9,M,,*65
2023-07-30T00:00:21.2297198Z, 6cda8203-a249-e411-b0cc-f8bc1246af59, $GPGGA,000021.00,4106.1716,N,12428.7623,W,2,11,0.8,13.0,M,-25.9,M,,*68
2023-07-30T00:00:23.0906276Z, 6cda8203-a249-e411-b0cc-f8bc1246af59, $GPGGA,000022.00,4106.1726,N,12428.7621,W,2,11,0.8,13.1,M,-25.9,M,,*6B
2023-07-30T00:00:23.9101017Z, 6cda8203-a249-e411-b0cc-f8bc1246af59, $GPGGA,000023.00,4106.1738,N,12428.7620,W,2,11,0.8,12.9,M,-25.9,M,,*6D
2023-07-30T00:00:24.3999592Z, 6cda8203-a249-e411-b0cc-f8bc1246af59, $GPGGA,000024.00,4106.1748,N,12428.7620,W,2,10,0.8,12.8,M,-25.9,M,,*6D
2023-07-30T00:00:25.2403098Z, 6cda8203-a249-e411-b0cc-f8bc1246af59, $GPGGA,000025.00,4106.1758,N,12428.7621,W,2,10,0.8,12.5,M,-25.9,M,,*61
2023-07-30T00:00:26.2399730Z, 6cda8203-a249-e411-b0cc-f8bc1246af59, $GPGGA,000026.00,4106.1767,N,12428.7620,W,2,10,0.8,12.3,M,-25.9,M,,*69
2023-07-30T00:00:27.4009387Z, 6cda8203-a249-e411-b0cc-f8bc1246af59, $GPGGA,000027.00,4106.1776,N,12428.7619,W,2,11,0.8,12.3,M,-25.9,M,,*63
2023-07-30T00:00:28.2307516Z, 6cda8203-a249-e411-b0cc-f8bc1246af59, $GPGGA,000028.00,4106.1785,N,12428.7619,W,2,12,0.8,12.1,M,-25.9,M,,*61
2023-07-30T00:00:29.2403185Z, 6cda8203-a249-e411-b0cc-f8bc1246af59, $GPGGA,000029.00,4106.1795,N,12428.7619,W,2,12,0.8,12.0,M,-25.9,M,,*60
2023-07-30T00:00:30.4003269Z, 6cda8203-a249-e411-b0cc-f8bc1246af59, $GPGGA,000030.00,4106.1804,N,12428.7620,W,2,12,0.8,12.0,M,-25.9,M,,*65
2023-07-30T00:00:31.2506359Z, 6cda8203-a249-e411-b0cc-f8bc1246af59, $GPGGA,000031.00,4106.1814,N,12428.7621,W,2,11,0.8,12.0,M,-25.9,M,,*67
2023-07-30T00:00:32.2413172Z, 6cda8203-a249-e411-b0cc-f8bc1246af59, $GPGGA,000032.00,4106.1824,N,12428.7621,W,2,11,0.8,12.1,M,-25.9,M,,*66
2023-07-30T00:00:34.0913137Z, 6cda8203-a249-e411-b0cc-f8bc1246af59, $GPGGA,000033.00,4106.1833,N,12428.7620,W,2,12,0.8,12.1,M,-25.9,M,,*63
2023-07-30T00:00:34.4109313Z, 6cda8203-a249-e411-b0cc-f8bc1246af59, $GPGGA,000034.00,4106.1842,N,12428.7620,W,2,12,0.8,12.0,M,-25.9,M,,*63
2023-07-30T00:00:35.2413327Z, 6cda8203-a249-e411-b0cc-f8bc1246af59, $GPGGA,000035.00,4106.1850,N,12428.7621,W,2,12,0.8,12.0,M,-25.9,M,,*60
2023-07-30T00:00:36.6412501Z, 6cda8203-a249-e411-b0cc-f8bc1246af59, $GPGGA,000036.00,4106.1858,N,12428.7621,W,2,11,0.8,12.1,M,-25.9,M,,*69
2023-07-30T00:00:37.2416306Z, 6cda8203-a249-e411-b0cc-f8bc1246af59, $GPGGA,000037.00,4106.1868,N,12428.7621,W,2,11,0.8,12.2,M,-25.9,M,,*68
2023-07-30T00:00:38.2413710Z, 6cda8203-a249-e411-b0cc-f8bc1246af59, $GPGGA,000038.00,4106.1878,N,12428.7620,W,2,11,0.8,12.1,M,-25.9,M,,*64
2023-07-30T00:00:40.0913320Z, 6cda8203-a249-e411-b0cc-f8bc1246af59, $GPGGA,000039.00,4106.1888,N,12428.7620,W,2,11,0.8,12.0,M,-25.9,M,,*6B
2023-07-30T00:00:40.4109646Z, 6cda8203-a249-e411-b0cc-f8bc1246af59, $GPGGA,000040.00,4106.1897,N,12428.7620,W,2,10,0.8,11.8,M,-25.9,M,,*61
2023-07-30T00:00:41.2413679Z, 6cda8203-a249-e411-b0cc-f8bc1246af59, $GPGGA,000041.00,4106.1905,N,12428.7621,W,2,11,0.8,11.7,M,-25.9,M,,*65
2023-07-30T00:00:43.0913261Z, 6cda8203-a249-e411-b0cc-f8bc1246af59, $GPGGA,000042.00,4106.1914,N,12428.7622,W,2,11,0.8,11.7,M,-25.9,M,,*65
2023-07-30T00:00:43.4219039Z, 6cda8203-a249-e411-b0cc-f8bc1246af59, $GPGGA,000043.00,4106.1923,N,12428.7621,W,2,11,0.8,11.7,M,-25.9,M,,*63
2023-07-30T00:00:44.2413641Z, 6cda8203-a249-e411-b0cc-f8bc1246af59, $GPGGA,000044.00,4106.1933,N,12428.7619,W,2,12,0.8,11.7,M,-25.9,M,,*6D
2023-07-30T00:00:46.0923321Z, 6cda8203-a249-e411-b0cc-f8bc1246af59, $GPGGA,000045.00,4106.1943,N,12428.7617,W,2,12,0.8,11.6,M,-25.9,M,,*64
2023-07-30T00:00:46.4119542Z, 6cda8203-a249-e411-b0cc-f8bc1246af59, $GPGGA,000046.00,4106.1952,N,12428.7615,W,2,11,0.8,11.5,M,-25.9,M,,*65
2023-07-30T00:00:47.2423495Z, 6cda8203-a249-e411-b0cc-f8bc1246af59, $GPGGA,000047.00,4106.1961,N,12428.7614,W,2,12,0.8,11.2,M,-25.9,M,,*61
2023-07-30T00:00:48.2420198Z, 6cda8203-a249-e411-b0cc-f8bc1246af59, $GPGGA,000048.00,4106.1971,N,12428.7614,W,2,12,0.8,11.3,M,-25.9,M,,*6E
2023-07-30T00:00:49.4119304Z, 6cda8203-a249-e411-b0cc-f8bc1246af59, $GPGGA,000049.00,4106.1982,N,12428.7616,W,2,12,0.8,11.2,M,-25.9,M,,*60
2023-07-30T00:00:50.2522932Z, 6cda8203-a249-e411-b0cc-f8bc1246af59, $GPGGA,000050.00,4106.1992,N,12428.7616,W,2,12,0.8,11.3,M,-25.9,M,,*68
2023-07-30T00:00:51.2532307Z, 6cda8203-a249-e411-b0cc-f8bc1246af59, $GPGGA,000051.00,4106.2003,N,12428.7615,W,2,12,0.8,11.6,M,-25.9,M,,*6D
2023-07-30T00:00:52.4119475Z, 6cda8203-a249-e411-b0cc-f8bc1246af59, $GPGGA,000052.00,4106.2013,N,12428.7612,W,2,12,0.8,11.9,M,-25.9,M,,*67
2023-07-30T00:00:53.2423504Z, 6cda8203-a249-e411-b0cc-f8bc1246af59, $GPGGA,000053.00,4106.2025,N,12428.7608,W,2,11,0.8,12.1,M,-25.9,M,,*60
2023-07-30T00:00:54.2519411Z, 6cda8203-a249-e411-b0cc-f8bc1246af59, $GPGGA,000054.00,4106.2036,N,12428.7606,W,2,11,0.8,12.0,M,-25.9,M,,*6A
2023-07-30T00:00:56.0929582Z, 6cda8203-a249-e411-b0cc-f8bc1246af59, $GPGGA,000055.00,4106.2046,N,12428.7607,W,2,11,0.8,11.9,M,-25.9,M,,*67
2023-07-30T00:00:56.4126135Z, 6cda8203-a249-e411-b0cc-f8bc1246af59, $GPGGA,000056.00,4106.2056,N,12428.7609,W,2,11,0.8,11.9,M,-25.9,M,,*6B
2023-07-30T00:00:57.2530195Z, 6cda8203-a249-e411-b0cc-f8bc1246af59, $GPGGA,000057.00,4106.2066,N,12428.7610,W,2,11,0.8,11.9,M,-25.9,M,,*61
2023-07-30T00:00:58.4129604Z, 6cda8203-a249-e411-b0cc-f8bc1246af59, $GPGGA,000058.00,4106.2076,N,12428.7610,W,2,11,0.8,12.0,M,-25.9,M,,*65
2023-07-30T00:00:59.2533167Z, 6cda8203-a249-e411-b0cc-f8bc1246af59, $GPGGA,000059.00,4106.2087,N,12428.7609,W,2,11,0.8,12.0,M,-25.9,M,,*62
2023-07-30T00:01:00.2529642Z, 6cda8203-a249-e411-b0cc-f8bc1246af59, $GPGGA,000100.00,4106.2097,N,12428.7607,W,2,12,0.8,12.2,M,-25.9,M,,*61
2023-07-30T00:01:01.9426037Z, 6cda8203-a249-e411-b0cc-f8bc1246af59, $GPGGA,000101.00,4106.2107,N,12428.7606,W,2,12,0.8,12.2,M,-25.9,M,,*69
2023-07-30T00:01:02.2632685Z, 6cda8203-a249-e411-b0cc-f8bc1246af59, $GPGGA,000102.00,4106.2117,N,12428.7605,W,2,11,0.8,12.2,M,-25.9,M,,*6B
2023-07-30T00:01:03.2529507Z, 6cda8203-a249-e411-b0cc-f8bc1246af59, $GPGGA,000103.00,4106.2126,N,12428.7605,W,2,11,0.8,12.1,M,-25.9,M,,*6B
2023-07-30T00:01:05.0929472Z, 6cda8203-a249-e411-b0cc-f8bc1246af59, $GPGGA,000104.00,4106.2136,N,12428.7605,W,2,12,0.8,12.0,M,-25.9,M,,*6F
2023-07-30T00:01:05.4135769Z, 6cda8203-a249-e411-b0cc-f8bc1246af59, $GPGGA,000105.00,4106.2145,N,12428.7606,W,2,12,0.8,11.9,M,-25.9,M,,*63
2023-07-30T00:01:06.2529393Z, 6cda8203-a249-e411-b0cc-f8bc1246af59, $GPGGA,000106.00,4106.2154,N,12428.7606,W,2,12,0.8,12.0,M,-25.9,M,,*6A
2023-07-30T00:01:07.2536128Z, 6cda8203-a249-e411-b0cc-f8bc1246af59, $GPGGA,000107.00,4106.2163,N,12428.7607,W,2,12,0.8,12.1,M,-25.9,M,,*6F
2023-07-30T00:01:08.6634736Z, 6cda8203-a249-e411-b0cc-f8bc1246af59, $GPGGA,000108.00,4106.2173,N,12428.7608,W,2,12,0.8,12.2,M,-25.9,M,,*6D
2023-07-30T00:01:09.2539378Z, 6cda8203-a249-e411-b0cc-f8bc1246af59, $GPGGA,000109.00,4106.2183,N,12428.7608,W,2,12,0.8,12.3,M,-25.9,M,,*62
2023-07-30T00:01:10.2536005Z, 6cda8203-a249-e411-b0cc-f8bc1246af59, $GPGGA,000110.00,4106.2193,N,12428.7606,W,2,12,0.8,12.5,M,-25.9,M,,*63
2023-07-30T00:01:11.2233943Z, 6cda8203-a249-e411-b0cc-f8bc1246af59, $GPGGA,000111.00,4106.2202,N,12428.7604,W,2,11,0.8,12.7,M,-25.9,M,,*6A
2023-07-30T00:01:12.2539409Z, 6cda8203-a249-e411-b0cc-f8bc1246af59, $GPGGA,000112.00,4106.2211,N,12428.7604,W,2,11,0.8,12.6,M,-25.9,M,,*6A
2023-07-30T00:01:13.2535959Z, 6cda8203-a249-e411-b0cc-f8bc1246af59, $GPGGA,000113.00,4106.2221,N,12428.7605,W,2,11,0.8,12.4,M,-25.9,M,,*6B
2023-07-30T00:01:14.2034818Z, 6cda8203-a249-e411-b0cc-f8bc1246af59, $GPGGA,000114.00,4106.2231,N,12428.7607,W,2,11,0.8,12.4,M,-25.9,M,,*6F
2023-07-30T00:01:15.8244829Z, 6cda8203-a249-e411-b0cc-f8bc1246af59, $GPGGA,000115.00,4106.2241,N,12428.7608,W,2,11,0.8,12.4,M,-25.9,M,,*66
2023-07-30T00:01:17.0939361Z, 6cda8203-a249-e411-b0cc-f8bc1246af59, $GPGGA,000116.00,4106.2251,N,12428.7607,W,2,11,0.8,12.6,M,-25.9,M,,*69
2023-07-30T00:01:17.4145595Z, 6cda8203-a249-e411-b0cc-f8bc1246af59, $GPGGA,000117.00,4106.2261,N,12428.7605,W,2,11,0.8,12.9,M,-25.9,M,,*66
2023-07-30T00:01:19.0945847Z, 6cda8203-a249-e411-b0cc-f8bc1246af59, $GPGGA,000118.00,4106.2270,N,12428.7604,W,2,12,0.8,12.9,M,-25.9,M,,*6B
2023-07-30T00:01:19.4142350Z, 6cda8203-a249-e411-b0cc-f8bc1246af59, $GPGGA,000119.00,4106.2279,N,12428.7605,W,2,12,0.8,12.7,M,-25.9,M,,*6C
2023-07-30T00:01:20.2038028Z, 6cda8203-a249-e411-b0cc-f8bc1246af59, $GPGGA,000120.00,4106.2288,N,12428.7605,W,2,12,0.8,12.5,M,-25.9,M,,*6A
2023-07-30T00:01:22.0945947Z, 6cda8203-a249-e411-b0cc-f8bc1246af59, $GPGGA,000121.00,4106.2298,N,12428.7606,W,2,12,0.8,12.4,M,-25.9,M,,*68
2023-07-30T00:01:22.4142212Z, 6cda8203-a249-e411-b0cc-f8bc1246af59, $GPGGA,000122.00,4106.2307,N,12428.7606,W,2,12,0.8,12.4,M,-25.9,M,,*6C
2023-07-30T00:01:23.2047946Z, 6cda8203-a249-e411-b0cc-f8bc1246af59, $GPGGA,000123.00,4106.2315,N,12428.7606,W,2,12,0.8,12.5,M,-25.9,M,,*6F
2023-07-30T00:01:25.0945760Z, 6cda8203-a249-e411-b0cc-f8bc1246af59, $GPGGA,000124.00,4106.2323,N,12428.7605,W,2,12,0.8,12.5,M,-25.9,M,,*6E
2023-07-30T00:01:25.4141975Z, 6cda8203-a249-e411-b0cc-f8bc1246af59, $GPGGA,000125.00,4106.2330,N,12428.7605,W,2,12,0.8,12.5,M,-25.9,M,,*6D
2023-07-30T00:01:27.2343272Z, 6cda8203-a249-e411-b0cc-f8bc1246af59, $GPGGA,000126.00,4106.2341,N,12428.7606,W,2,12,0.8,12.4,M,-25.9,M,,*6A
2023-07-30T00:01:27.6644436Z, 6cda8203-a249-e411-b0cc-f8bc1246af59, $GPGGA,000127.00,4106.2351,N,12428.7606,W,2,12,0.8,12.2,M,-25.9,M,,*6C
2023-07-30T00:01:29.0952321Z, 6cda8203-a249-e411-b0cc-f8bc1246af59, $GPGGA,000128.00,4106.2360,N,12428.7606,W,2,12,0.8,12.0,M,-25.9,M,,*63
2023-07-30T00:01:29.4148976Z, 6cda8203-a249-e411-b0cc-f8bc1246af59, $GPGGA,000129.00,4106.2368,N,12428.7606,W,2,12,0.8,12.2,M,-25.9,M,,*68
2023-07-30T00:01:30.2153724Z, 6cda8203-a249-e411-b0cc-f8bc1246af59, $GPGGA,000130.00,4106.2377,N,12428.7606,W,2,12,0.8,12.3,M,-25.9,M,,*6F
2023-07-30T00:01:32.0952480Z, 6cda8203-a249-e411-b0cc-f8bc1246af59, $GPGGA,000131.00,4106.2386,N,12428.7607,W,2,12,0.8,12.2,M,-25.9,M,,*60
2023-07-30T00:01:32.4148706Z, 6cda8203-a249-e411-b0cc-f8bc1246af59, $GPGGA,000132.00,4106.2395,N,12428.7608,W,2,12,0.8,12.0,M,-25.9,M,,*6C
2023-07-30T00:01:34.0955690Z, 6cda8203-a249-e411-b0cc-f8bc1246af59, $GPGGA,000133.00,4106.2404,N,12428.7610,W,2,11,0.8,12.0,M,-25.9,M,,*68
2023-07-30T00:01:34.4152102Z, 6cda8203-a249-e411-b0cc-f8bc1246af59, $GPGGA,000134.00,4106.2413,N,12428.7611,W,2,11,0.8,11.9,M,-25.9,M,,*62
2023-07-30T00:01:36.0949049Z, 6cda8203-a249-e411-b0cc-f8bc1246af59, $GPGGA,000135.00,4106.2422,N,12428.7611,W,2,11,0.8,11.9,M,-25.9,M,,*61
2023-07-30T00:01:36.4155382Z, 6cda8203-a249-e411-b0cc-f8bc1246af59, $GPGGA,000136.00,4106.2433,N,12428.7611,W,2,12,0.8,11.9,M,-25.9,M,,*61
2023-07-30T00:01:38.0952277Z, 6cda8203-a249-e411-b0cc-f8bc1246af59, $GPGGA,000137.00,4106.2443,N,12428.7610,W,2,12,0.8,11.8,M,-25.9,M,,*67
2023-07-30T00:01:38.4158676Z, 6cda8203-a249-e411-b0cc-f8bc1246af59, $GPGGA,000138.00,4106.2452,N,12428.7610,W,2,12,0.8,11.9,M,-25.9,M,,*69
2023-07-30T00:01:40.0955482Z, 6cda8203-a249-e411-b0cc-f8bc1246af59, $GPGGA,000139.00,4106.2460,N,12428.7609,W,2,11,0.8,11.9,M,-25.9,M,,*62
2023-07-30T00:01:40.4161872Z, 6cda8203-a249-e411-b0cc-f8bc1246af59, $GPGGA,000140.00,4106.2469,N,12428.7611,W,2,11,0.8,11.8,M,-25.9,M,,*6D
2023-07-30T00:01:42.0958949Z, 6cda8203-a249-e411-b0cc-f8bc1246af59, $GPGGA,000141.00,4106.2479,N,12428.7612,W,2,11,0.8,11.6,M,-25.9,M,,*60
2023-07-30T00:01:42.4155301Z, 6cda8203-a249-e411-b0cc-f8bc1246af59, $GPGGA,000142.00,4106.2490,N,12428.7612,W,2,11,0.8,11.5,M,-25.9,M,,*67
2023-07-30T00:01:44.2654983Z, 6cda8203-a249-e411-b0cc-f8bc1246af59, $GPGGA,000143.00,4106.2501,N,12428.7612,W,2,11,0.8,11.6,M,-25.9,M,,*6C
2023-07-30T00:01:44.6259233Z, 6cda8203-a249-e411-b0cc-f8bc1246af59, $GPGGA,000144.00,4106.2511,N,12428.7611,W,2,11,0.8,11.7,M,-25.9,M,,*68
2023-07-30T00:01:45.2163713Z, 6cda8203-a249-e411-b0cc-f8bc1246af59, $GPGGA,000145.00,4106.2520,N,12428.7611,W,2,12,0.8,11.7,M,-25.9,M,,*68
2023-07-30T00:01:47.0962007Z, 6cda8203-a249-e411-b0cc-f8bc1246af59, $GPGGA,000146.00,4106.2529,N,12428.7611,W,2,12,0.8,11.8,M,-25.9,M,,*6D
2023-07-30T00:01:47.4158401Z, 6cda8203-a249-e411-b0cc-f8bc1246af59, $GPGGA,000147.00,4106.2540,N,12428.7610,W,2,11,0.8,12.0,M,-25.9,M,,*6A
2023-07-30T00:01:49.0965505Z, 6cda8203-a249-e411-b0cc-f8bc1246af59, $GPGGA,000148.00,4106.2551,N,12428.7608,W,2,11,0.8,12.1,M,-25.9,M,,*6D
2023-07-30T00:01:49.4161799Z, 6cda8203-a249-e411-b0cc-f8bc1246af59, $GPGGA,000149.00,4106.2563,N,12428.7607,W,2,11,0.8,12.0,M,-25.9,M,,*63
2023-07-30T00:01:51.0968573Z, 6cda8203-a249-e411-b0cc-f8bc1246af59, $GPGGA,000150.00,4106.2573,N,12428.7607,W,2,11,0.8,11.8,M,-25.9,M,,*61
2023-07-30T00:01:51.4165109Z, 6cda8203-a249-e411-b0cc-f8bc1246af59, $GPGGA,000151.00,4106.2583,N,12428.7607,W,2,11,0.8,11.7,M,-25.9,M,,*60
2023-07-30T00:01:53.0961890Z, 6cda8203-a249-e411-b0cc-f8bc1246af59, $GPGGA,000152.00,4106.2594,N,12428.7606,W,2,11,0.8,11.8,M,-25.9,M,,*6B
2023-07-30T00:01:53.4168526Z, 6cda8203-a249-e411-b0cc-f8bc1246af59, $GPGGA,000153.00,4106.2605,N,12428.7604,W,2,11,0.8,12.0,M,-25.9,M,,*68
2023-07-30T00:01:54.3667427Z, 6cda8203-a249-e411-b0cc-f8bc1246af59, $GPGGA,000154.00,4106.2616,N,12428.7603,W,2,12,0.8,12.0,M,-25.9,M,,*69
2023-07-30T00:01:55.2269658Z, 6cda8203-a249-e411-b0cc-f8bc1246af59, $GPGGA,000155.00,4106.2626,N,12428.7602,W,2,12,0.8,11.9,M,-25.9,M,,*60
2023-07-30T00:01:57.0968467Z, 6cda8203-a249-e411-b0cc-f8bc1246af59, $GPGGA,000156.00,4106.2637,N,12428.7602,W,2,12,0.8,12.0,M,-25.9,M,,*69
2023-07-30T00:01:57.4164828Z, 6cda8203-a249-e411-b0cc-f8bc1246af59, $GPGGA,000157.00,4106.2649,N,12428.7601,W,2,11,0.8,12.2,M,-25.9,M,,*63
2023-07-30T00:01:58.2269838Z, 6cda8203-a249-e411-b0cc-f8bc1246af59, $GPGGA,000158.00,4106.2659,N,12428.7601,W,2,11,0.8,12.3,M,-25.9,M,,*6C
2023-07-30T00:02:00.0968445Z, 6cda8203-a249-e411-b0cc-f8bc1246af59, $GPGGA,000159.00,4106.2669,N,12428.7600,W,2,11,0.8,12.3,M,-25.9,M,,*6F
2023-07-30T00:02:00.4174739Z, 6cda8203-a249-e411-b0cc-f8bc1246af59, $GPGGA,000200.00,4106.2679,N,12428.7599,W,2,12,0.8,12.2,M,-25.9,M,,*60
2023-07-30T00:02:01.2269794Z, 6cda8203-a249-e411-b0cc-f8bc1246af59, $GPGGA,000201.00,4106.2691,N,12428.7598,W,2,12,0.8,12.1,M,-25.9,M,,*65
2023-07-30T00:02:03.0968352Z, 6cda8203-a249-e411-b0cc-f8bc1246af59, $GPGGA,000202.00,4106.2702,N,12428.7599,W,2,11,0.8,11.9,M,-25.9,M,,*64
2023-07-30T00:02:03.4174856Z, 6cda8203-a249-e411-b0cc-f8bc1246af59, $GPGGA,000203.00,4106.2711,N,12428.7599,W,2,11,0.8,12.0,M,-25.9,M,,*6D
2023-07-30T00:02:04.2269715Z, 6cda8203-a249-e411-b0cc-f8bc1246af59, $GPGGA,000204.00,4106.2721,N,12428.7599,W,2,12,0.8,12.0,M,-25.9,M,,*6A
2023-07-30T00:02:06.0974650Z, 6cda8203-a249-e411-b0cc-f8bc1246af59, $GPGGA,000205.00,4106.2731,N,12428.7598,W,2,12,0.8,12.0,M,-25.9,M,,*6B
2023-07-30T00:02:06.4171046Z, 6cda8203-a249-e411-b0cc-f8bc1246af59, $GPGGA,000206.00,4106.2743,N,12428.7597,W,2,12,0.8,12.0,M,-25.9,M,,*62
2023-07-30T00:02:08.0978022Z, 6cda8203-a249-e411-b0cc-f8bc1246af59, $GPGGA,000207.00,4106.2756,N,12428.7595,W,2,11,0.8,11.9,M,-25.9,M,,*6C
2023-07-30T00:02:08.4174319Z, 6cda8203-a249-e411-b0cc-f8bc1246af59, $GPGGA,000208.00,4106.2767,N,12428.7594,W,2,11,0.8,11.9,M,-25.9,M,,*60
2023-07-30T00:02:10.0882152Z, 6cda8203-a249-e411-b0cc-f8bc1246af59, $GPGGA,000209.00,4106.2777,N,12428.7594,W,2,11,0.8,12.0,M,-25.9,M,,*6A
2023-07-30T00:02:10.4177555Z, 6cda8203-a249-e411-b0cc-f8bc1246af59, $GPGGA,000210.00,4106.2789,N,12428.7594,W,2,11,0.8,12.0,M,-25.9,M,,*63
2023-07-30T00:02:11.2282527Z, 6cda8203-a249-e411-b0cc-f8bc1246af59, $GPGGA,000211.00,4106.2802,N,12428.7594,W,2,11,0.8,12.1,M,-25.9,M,,*6F
2023-07-30T00:02:13.0883957Z, 6cda8203-a249-e411-b0cc-f8bc1246af59, $GPGGA,000212.00,4106.2814,N,12428.7593,W,2,11,0.8,12.1,M,-25.9,M,,*6C
2023-07-30T00:02:13.8879412Z, 6cda8203-a249-e411-b0cc-f8bc1246af59, $GPGGA,000213.00,4106.2826,N,12428.7593,W,2,11,0.8,12.1,M,-25.9,M,,*6C
2023-07-30T00:02:15.0976809Z, 6cda8203-a249-e411-b0cc-f8bc1246af59, $GPGGA,000214.00,4106.2836,N,12428.7594,W,2,11,0.8,12.0,M,-25.9,M,,*6C
2023-07-30T00:02:15.4183273Z, 6cda8203-a249-e411-b0cc-f8bc1246af59, $GPGGA,000215.00,4106.2848,N,12428.7594,W,2,10,0.8,12.1,M,-25.9,M,,*64
2023-07-30T00:02:16.3681862Z, 6cda8203-a249-e411-b0cc-f8bc1246af59, $GPGGA,000216.00,4106.2861,N,12428.7592,W,2,10,0.8,12.1,M,-25.9,M,,*6A
2023-07-30T00:02:17.2384031Z, 6cda8203-a249-e411-b0cc-f8bc1246af59, $GPGGA,000217.00,4106.2873,N,12428.7592,W,2,11,0.8,12.1,M,-25.9,M,,*69
2023-07-30T00:02:19.2686188Z, 6cda8203-a249-e411-b0cc-f8bc1246af59, $GPGGA,000218.00,4106.2884,N,12428.7591,W,2,11,0.8,12.2,M,-25.9,M,,*6E
2023-07-30T00:02:19.6479483Z, 6cda8203-a249-e411-b0cc-f8bc1246af59, $GPGGA,000219.00,4106.2895,N,12428.7591,W,2,12,0.8,12.3,M,-25.9,M,,*6D
2023-07-30T00:02:20.2383778Z, 6cda8203-a249-e411-b0cc-f8bc1246af59, $GPGGA,000220.00,4106.2906,N,12428.7590,W,2,12,0.8,12.4,M,-25.9,M,,*6A
2023-07-30T00:02:22.0983233Z, 6cda8203-a249-e411-b0cc-f8bc1246af59, $GPGGA,000221.00,4106.2918,N,12428.7589,W,2,12,0.8,12.3,M,-25.9,M,,*6B
2023-07-30T00:02:22.4189694Z, 6cda8203-a249-e411-b0cc-f8bc1246af59, $GPGGA,000222.00,4106.2929,N,12428.7589,W,2,11,0.8,12.1,M,-25.9,M,,*6B
2023-07-30T00:02:23.2391227Z, 6cda8203-a249-e411-b0cc-f8bc1246af59, $GPGGA,000223.00,4106.2941,N,12428.7589,W,2,11,0.8,12.0,M,-25.9,M,,*65
2023-07-30T00:02:25.2384631Z, 6cda8203-a249-e411-b0cc-f8bc1246af59, $GPGGA,000224.00,4106.2952,N,12428.7590,W,2,12,0.8,12.1,M,-25.9,M,,*6A
2023-07-30T00:02:25.6486916Z, 6cda8203-a249-e411-b0cc-f8bc1246af59, $GPGGA,000225.00,4106.2962,N,12428.7589,W,2,12,0.8,12.1,M,-25.9,M,,*60
2023-07-30T00:02:26.2391629Z, 6cda8203-a249-e411-b0cc-f8bc1246af59, $GPGGA,000226.00,4106.2973,N,12428.7589,W,2,12,0.8,12.2,M,-25.9,M,,*60
2023-07-30T00:02:28.0891370Z, 6cda8203-a249-e411-b0cc-f8bc1246af59, $GPGGA,000227.00,4106.2984,N,12428.7588,W,2,12,0.8,12.3,M,-25.9,M,,*69
2023-07-30T00:02:28.4187015Z, 6cda8203-a249-e411-b0cc-f8bc1246af59, $GPGGA,000228.00,4106.2995,N,12428.7587,W,2,12,0.8,12.3,M,-25.9,M,,*69
2023-07-30T00:02:29.2392792Z, 6cda8203-a249-e411-b0cc-f8bc1246af59, $GPGGA,000229.00,4106.3007,N,12428.7586,W,2,12,0.8,12.5,M,-25.9,M,,*6C
2023-07-30T00:02:31.2689193Z, 6cda8203-a249-e411-b0cc-f8bc1246af59, $GPGGA,000230.00,4106.3018,N,12428.7584,W,2,12,0.8,12.7,M,-25.9,M,,*6A
2023-07-30T00:02:31.6492540Z, 6cda8203-a249-e411-b0cc-f8bc1246af59, $GPGGA,000231.00,4106.3028,N,12428.7582,W,2,12,0.8,12.8,M,-25.9,M,,*61
2023-07-30T00:02:32.2397179Z, 6cda8203-a249-e411-b0cc-f8bc1246af59, $GPGGA,000232.00,4106.3039,N,12428.7581,W,2,12,0.8,12.8,M,-25.9,M,,*61
2023-07-30T00:02:33.4096336Z, 6cda8203-a249-e411-b0cc-f8bc1246af59, $GPGGA,000233.00,4106.3050,N,12428.7580,W,2,12,0.8,12.7,M,-25.9,M,,*61
2023-07-30T00:02:34.2390437Z, 6cda8203-a249-e411-b0cc-f8bc1246af59, $GPGGA,000234.00,4106.3062,N,12428.7582,W,2,12,0.8,12.5,M,-25.9,M,,*67
2023-07-30T00:02:35.2497264Z, 6cda8203-a249-e411-b0cc-f8bc1246af59, $GPGGA,000235.00,4106.3071,N,12428.7585,W,2,12,0.8,12.4,M,-25.9,M,,*62
2023-07-30T00:02:37.1013636Z, 6cda8203-a249-e411-b0cc-f8bc1246af59, $GPGGA,000236.00,4106.3081,N,12428.7587,W,2,12,0.8,12.3,M,-25.9,M,,*6B
2023-07-30T00:02:37.7896565Z, 6cda8203-a249-e411-b0cc-f8bc1246af59, $GPGGA,000237.00,4106.3091,N,12428.7584,W,2,12,0.8,12.7,M,-25.9,M,,*6C
2023-07-30T00:02:38.2397562Z, 6cda8203-a249-e411-b0cc-f8bc1246af59, $GPGGA,000238.00,4106.3100,N,12428.7580,W,2,12,0.8,12.9,M,-25.9,M,,*60
2023-07-30T00:02:40.0897608Z, 6cda8203-a249-e411-b0cc-f8bc1246af59, $GPGGA,000239.00,4106.3111,N,12428.7579,W,2,12,0.8,12.8,M,-25.9,M,,*66
2023-07-30T00:02:40.4202972Z, 6cda8203-a249-e411-b0cc-f8bc1246af59, $GPGGA,000240.00,4106.3121,N,12428.7580,W,2,12,0.8,12.4,M,-25.9,M,,*61
2023-07-30T00:02:41.2403072Z, 6cda8203-a249-e411-b0cc-f8bc1246af59, $GPGGA,000241.00,4106.3132,N,12428.7582,W,2,12,0.8,12.1,M,-25.9,M,,*65
2023-07-30T00:02:43.0903028Z, 6cda8203-a249-e411-b0cc-f8bc1246af59, $GPGGA,000242.00,4106.3142,N,12428.7583,W,2,12,0.8,12.2,M,-25.9,M,,*63
2023-07-30T00:02:43.8300931Z, 6cda8203-a249-e411-b0cc-f8bc1246af59, $GPGGA,000243.00,4106.3152,N,12428.7582,W,2,12,0.8,12.6,M,-25.9,M,,*66
2023-07-30T00:02:44.2502410Z, 6cda8203-a249-e411-b0cc-f8bc1246af59, $GPGGA,000244.00,4106.3161,N,12428.7580,W,2,12,0.8,12.9,M,-25.9,M,,*6C
2023-07-30T00:02:46.0902957Z, 6cda8203-a249-e411-b0cc-f8bc1246af59, $GPGGA,000245.00,4106.3171,N,12428.7579,W,2,12,0.8,12.9,M,-25.9,M,,*6A
2023-07-30T00:02:46.4198676Z, 6cda8203-a249-e411-b0cc-f8bc1246af59, $GPGGA,000246.00,4106.3181,N,12428.7579,W,2,11,0.8,12.5,M,-25.9,M,,*69
2023-07-30T00:02:47.2502488Z, 6cda8203-a249-e411-b0cc-f8bc1246af59, $GPGGA,000247.00,4106.3192,N,12428.7579,W,2,11,0.8,12.7,M,-25.9,M,,*68
2023-07-30T00:02:48.4102439Z, 6cda8203-a249-e411-b0cc-f8bc1246af59, $GPGGA,000248.00,4106.3202,N,12428.7580,W,2,12,0.8,12.9,M,-25.9,M,,*66
2023-07-30T00:02:49.2704839Z, 6cda8203-a249-e411-b0cc-f8bc1246af59, $GPGGA,000249.00,4106.3212,N,12428.7580,W,2,12,0.8,13.1,M,-25.9,M,,*6F
2023-07-30T00:02:50.2502532Z, 6cda8203-a249-e411-b0cc-f8bc1246af59, $GPGGA,000250.00,4106.3223,N,12428.7580,W,2,12,0.8,13.1,M,-25.9,M,,*65
2023-07-30T00:02:52.1012165Z, 6cda8203-a249-e411-b0cc-f8bc1246af59, $GPGGA,000251.00,4106.3233,N,12428.7579,W,2,12,0.8,12.8,M,-25.9,M,,*6B
2023-07-30T00:02:52.4208614Z, 6cda8203-a249-e411-b0cc-f8bc1246af59, $GPGGA,000252.00,4106.3244,N,12428.7580,W,2,11,0.8,12.7,M,-25.9,M,,*62
2023-07-30T00:02:53.2512462Z, 6cda8203-a249-e411-b0cc-f8bc1246af59, $GPGGA,000253.00,4106.3255,N,12428.7581,W,2,11,0.8,12.8,M,-25.9,M,,*6D
2023-07-30T00:02:55.0909234Z, 6cda8203-a249-e411-b0cc-f8bc1246af59, $GPGGA,000254.00,4106.3266,N,12428.7580,W,2,11,0.8,12.9,M,-25.9,M,,*6A
2023-07-30T00:02:55.8810211Z, 6cda8203-a249-e411-b0cc-f8bc1246af59, $GPGGA,000255.00,4106.3277,N,12428.7579,W,2,11,0.8,12.8,M,-25.9,M,,*6C
2023-07-30T00:02:56.2514061Z, 6cda8203-a249-e411-b0cc-f8bc1246af59, $GPGGA,000256.00,4106.3287,N,12428.7578,W,2,11,0.8,12.7,M,-25.9,M,,*6E
2023-07-30T00:02:57.4213948Z, 6cda8203-a249-e411-b0cc-f8bc1246af59, $GPGGA,000257.00,4106.3296,N,12428.7577,W,2,11,0.8,12.7,M,-25.9,M,,*60
2023-07-30T00:02:58.2508344Z, 6cda8203-a249-e411-b0cc-f8bc1246af59, $GPGGA,000258.00,4106.3307,N,12428.7577,W,2,11,0.8,12.6,M,-25.9,M,,*67
2023-07-30T00:02:59.2515656Z, 6cda8203-a249-e411-b0cc-f8bc1246af59, $GPGGA,000259.00,4106.3318,N,12428.7578,W,2,11,0.8,12.5,M,-25.9,M,,*64
2023-07-30T00:03:01.0916867Z, 6cda8203-a249-e411-b0cc-f8bc1246af59, $GPGGA,000300.00,4106.3329,N,12428.7579,W,2,11,0.8,12.4,M,-25.9,M,,*6B
2023-07-30T00:03:01.4212641Z, 6cda8203-a249-e411-b0cc-f8bc1246af59, $GPGGA,000301.00,4106.3339,N,12428.7579,W,2,11,0.8,12.6,M,-25.9,M,,*69
2023-07-30T00:03:02.2616096Z, 6cda8203-a249-e411-b0cc-f8bc1246af59, $GPGGA,000302.00,4106.3349,N,12428.7579,W,2,11,0.8,12.7,M,-25.9,M,,*6C
2023-07-30T00:03:03.4216689Z, 6cda8203-a249-e411-b0cc-f8bc1246af59, $GPGGA,000303.00,4106.3359,N,12428.7578,W,2,11,0.8,13.1,M,-25.9,M,,*6A
2023-07-30T00:03:04.2520644Z, 6cda8203-a249-e411-b0cc-f8bc1246af59, $GPGGA,000304.00,4106.3370,N,12428.7576,W,2,11,0.8,13.4,M,-25.9,M,,*6D
2023-07-30T00:03:05.2616674Z, 6cda8203-a249-e411-b0cc-f8bc1246af59, $GPGGA,000305.00,4106.3381,N,12428.7576,W,2,11,0.8,13.4,M,-25.9,M,,*62
2023-07-30T00:03:06.2317637Z, 6cda8203-a249-e411-b0cc-f8bc1246af59, $GPGGA,000306.00,4106.3393,N,12428.7577,W,2,11,0.8,13.3,M,-25.9,M,,*64
2023-07-30T00:03:07.2622918Z, 6cda8203-a249-e411-b0cc-f8bc1246af59, $GPGGA,000307.00,4106.3404,N,12428.7579,W,2,11,0.8,13.0,M,-25.9,M,,*61
2023-07-30T00:03:09.0923505Z, 6cda8203-a249-e411-b0cc-f8bc1246af59, $GPGGA,000308.00,4106.3414,N,12428.7579,W,2,11,0.8,13.2,M,-25.9,M,,*6D
2023-07-30T00:03:09.4268467Z, 6cda8203-a249-e411-b0cc-f8bc1246af59, $GPGGA,000309.00,4106.3424,N,12428.7578,W,2,11,0.8,13.4,M,-25.9,M,,*68
2023-07-30T00:03:10.2622902Z, 6cda8203-a249-e411-b0cc-f8bc1246af59, $GPGGA,000310.00,4106.3433,N,12428.7578,W,2,11,0.8,13.3,M,-25.9,M,,*61
2023-07-30T00:03:11.4222636Z, 6cda8203-a249-e411-b0cc-f8bc1246af59, $GPGGA,000311.00,4106.3443,N,12428.7579,W,2,10,0.8,13.3,M,-25.9,M,,*67
2023-07-30T00:03:12.2625771Z, 6cda8203-a249-e411-b0cc-f8bc1246af59, $GPGGA,000312.00,4106.3454,N,12428.7579,W,2,10,0.8,13.3,M,-25.9,M,,*62
2023-07-30T00:03:13.2622874Z, 6cda8203-a249-e411-b0cc-f8bc1246af59, $GPGGA,000313.00,4106.3465,N,12428.7579,W,2,11,0.8,13.4,M,-25.9,M,,*67
2023-07-30T00:03:14.9320331Z, 6cda8203-a249-e411-b0cc-f8bc1246af59, $GPGGA,000314.00,4106.3475,N,12428.7579,W,2,11,0.8,13.5,M,-25.9,M,,*60
2023-07-30T00:03:15.2626475Z, 6cda8203-a249-e411-b0cc-f8bc1246af59, $GPGGA,000315.00,4106.3485,N,12428.7580,W,2,11,0.8,13.7,M,-25.9,M,,*6A
2023-07-30T00:03:16.4026721Z, 6cda8203-a249-e411-b0cc-f8bc1246af59, $GPGGA,000316.00,4106.3495,N,12428.7580,W,2,11,0.8,13.8,M,-25.9,M,,*67
2023-07-30T00:03:17.2629248Z, 6cda8203-a249-e411-b0cc-f8bc1246af59, $GPGGA,000317.00,4106.3507,N,12428.7580,W,2,11,0.8,14.0,M,-25.9,M,,*63
2023-07-30T00:03:18.2626236Z, 6cda8203-a249-e411-b0cc-f8bc1246af59, $GPGGA,000318.00,4106.3519,N,12428.7579,W,2,11,0.8,14.1,M,-25.9,M,,*64
2023-07-30T00:03:19.4026851Z, 6cda8203-a249-e411-b0cc-f8bc1246af59, $GPGGA,000319.00,4106.3530,N,12428.7578,W,2,11,0.8,14.2,M,-25.9,M,,*6C
2023-07-30T00:03:20.2629809Z, 6cda8203-a249-e411-b0cc-f8bc1246af59, $GPGGA,000320.00,4106.3541,N,12428.7577,W,2,11,0.8,14.3,M,-25.9,M,,*6E
2023-07-30T00:03:22.0923755Z, 6cda8203-a249-e411-b0cc-f8bc1246af59, $GPGGA,000321.00,4106.3553,N,12428.7576,W,2,11,0.8,14.5,M,-25.9,M,,*6B
2023-07-30T00:03:22.4229355Z, 6cda8203-a249-e411-b0cc-f8bc1246af59, $GPGGA,000322.00,4106.3564,N,12428.7576,W,2,11,0.8,14.5,M,-25.9,M,,*6C
2023-07-30T00:03:23.3728117Z, 6cda8203-a249-e411-b0cc-f8bc1246af59, $GPGGA,000323.00,4106.3576,N,12428.7576,W,2,12,0.8,14.4,M,-25.9,M,,*6C
2023-07-30T00:03:24.2131874Z, 6cda8203-a249-e411-b0cc-f8bc1246af59, $GPGGA,000324.00,4106.3587,N,12428.7575,W,2,12,0.8,14.4,M,-25.9,M,,*66
2023-07-30T00:03:26.0930196Z, 6cda8203-a249-e411-b0cc-f8bc1246af59, $GPGGA,000325.00,4106.3598,N,12428.7574,W,2,11,0.8,14.3,M,-25.9,M,,*6C
2023-07-30T00:03:26.4235928Z, 6cda8203-a249-e411-b0cc-f8bc1246af59, $GPGGA,000326.00,4106.3609,N,12428.7574,W,2,11,0.8,14.3,M,-25.9,M,,*64
2023-07-30T00:03:28.0933639Z, 6cda8203-a249-e411-b0cc-f8bc1246af59, $GPGGA,000327.00,4106.3620,N,12428.7574,W,2,12,0.8,14.4,M,-25.9,M,,*6A
2023-07-30T00:03:28.4229343Z, 6cda8203-a249-e411-b0cc-f8bc1246af59, $GPGGA,000328.00,4106.3631,N,12428.7574,W,2,12,0.8,14.4,M,-25.9,M,,*65
2023-07-30T00:03:30.0936955Z, 6cda8203-a249-e411-b0cc-f8bc1246af59, $GPGGA,000329.00,4106.3643,N,12428.7573,W,2,12,0.8,14.6,M,-25.9,M,,*64
2023-07-30T00:03:30.4232544Z, 6cda8203-a249-e411-b0cc-f8bc1246af59, $GPGGA,000330.00,4106.3653,N,12428.7573,W,2,12,0.8,14.8,M,-25.9,M,,*63
2023-07-30T00:03:31.3843691Z, 6cda8203-a249-e411-b0cc-f8bc1246af59, $GPGGA,000331.00,4106.3663,N,12428.7572,W,2,12,0.8,14.8,M,-25.9,M,,*60
2023-07-30T00:03:32.2134966Z, 6cda8203-a249-e411-b0cc-f8bc1246af59, $GPGGA,000332.00,4106.3674,N,12428.7572,W,2,12,0.8,15.0,M,-25.9,M,,*6C
2023-07-30T00:03:34.0933439Z, 6cda8203-a249-e411-b0cc-f8bc1246af59, $GPGGA,000333.00,4106.3685,N,12428.7572,W,2,12,0.8,15.0,M,-25.9,M,,*63
2023-07-30T00:03:34.4239224Z, 6cda8203-a249-e411-b0cc-f8bc1246af59, $GPGGA,000334.00,4106.3698,N,12428.7572,W,2,12,0.8,14.9,M,-25.9,M,,*60
2023-07-30T00:03:36.0936954Z, 6cda8203-a249-e411-b0cc-f8bc1246af59, $GPGGA,000335.00,4106.3709,N,12428.7572,W,2,12,0.8,14.9,M,-25.9,M,,*68
2023-07-30T00:03:36.4242337Z, 6cda8203-a249-e411-b0cc-f8bc1246af59, $GPGGA,000336.00,4106.3720,N,12428.7573,W,2,12,0.8,15.0,M,-25.9,M,,*69
2023-07-30T00:03:38.0940151Z, 6cda8203-a249-e411-b0cc-f8bc1246af59, $GPGGA,000337.00,4106.3730,N,12428.7572,W,2,12,0.8,15.3,M,-25.9,M,,*6B
2023-07-30T00:03:38.4235826Z, 6cda8203-a249-e411-b0cc-f8bc1246af59, $GPGGA,000338.00,4106.3740,N,12428.7572,W,2,11,0.8,15.6,M,-25.9,M,,*65
2023-07-30T00:03:40.0943604Z, 6cda8203-a249-e411-b0cc-f8bc1246af59, $GPGGA,000339.00,4106.3751,N,12428.7571,W,2,11,0.8,15.7,M,-25.9,M,,*66
2023-07-30T00:03:40.4238985Z, 6cda8203-a249-e411-b0cc-f8bc1246af59, $GPGGA,000340.00,4106.3763,N,12428.7571,W,2,11,0.8,15.5,M,-25.9,M,,*6B
2023-07-30T00:03:42.0946739Z, 6cda8203-a249-e411-b0cc-f8bc1246af59, $GPGGA,000341.00,4106.3774,N,12428.7572,W,2,11,0.8,15.3,M,-25.9,M,,*69
2023-07-30T00:03:42.4242243Z, 6cda8203-a249-e411-b0cc-f8bc1246af59, $GPGGA,000342.00,4106.3784,N,12428.7572,W,2,11,0.8,15.3,M,-25.9,M,,*65
2023-07-30T00:03:44.2742038Z, 6cda8203-a249-e411-b0cc-f8bc1246af59, $GPGGA,000343.00,4106.3793,N,12428.7574,W,2,12,0.8,15.4,M,-25.9,M,,*60
2023-07-30T00:03:44.6844268Z, 6cda8203-a249-e411-b0cc-f8bc1246af59, $GPGGA,000344.00,4106.3803,N,12428.7573,W,2,12,0.8,15.7,M,-25.9,M,,*65
2023-07-30T00:03:46.0943645Z, 6cda8203-a249-e411-b0cc-f8bc1246af59, $GPGGA,000345.00,4106.3814,N,12428.7572,W,2,12,0.8,15.8,M,-25.9,M,,*6C
2023-07-30T00:03:46.4249342Z, 6cda8203-a249-e411-b0cc-f8bc1246af59, $GPGGA,000346.00,4106.3825,N,12428.7572,W,2,11,0.8,15.6,M,-25.9,M,,*60
2023-07-30T00:03:47.3748466Z, 6cda8203-a249-e411-b0cc-f8bc1246af59, $GPGGA,000347.00,4106.3837,N,12428.7572,W,2,10,0.8,15.8,M,-25.9,M,,*6D
2023-07-30T00:03:48.2251496Z, 6cda8203-a249-e411-b0cc-f8bc1246af59, $GPGGA,000348.00,4106.3848,N,12428.7572,W,2,10,0.8,15.7,M,-25.9,M,,*65
2023-07-30T00:03:50.1945947Z, 6cda8203-a249-e411-b0cc-f8bc1246af59, $GPGGA,000349.00,4106.3858,N,12428.7572,W,2,11,0.8,15.7,M,-25.9,M,,*64
2023-07-30T00:03:50.6346654Z, 6cda8203-a249-e411-b0cc-f8bc1246af59, $GPGGA,000350.00,4106.3868,N,12428.7572,W,2,11,0.8,16.0,M,-25.9,M,,*6B
2023-07-30T00:03:51.2251344Z, 6cda8203-a249-e411-b0cc-f8bc1246af59, $GPGGA,000351.00,4106.3879,N,12428.7572,W,2,11,0.8,16.1,M,-25.9,M,,*6B
2023-07-30T00:03:53.0950191Z, 6cda8203-a249-e411-b0cc-f8bc1246af59, $GPGGA,000352.00,4106.3891,N,12428.7572,W,2,11,0.8,16.3,M,-25.9,M,,*6C
2023-07-30T00:03:53.4245977Z, 6cda8203-a249-e411-b0cc-f8bc1246af59, $GPGGA,000353.00,4106.3903,N,12428.7571,W,2,11,0.8,16.3,M,-25.9,M,,*64
2023-07-30T00:03:55.0953596Z, 6cda8203-a249-e411-b0cc-f8bc1246af59, $GPGGA,000354.00,4106.3915,N,12428.7572,W,2,11,0.8,16.1,M,-25.9,M,,*65
2023-07-30T00:03:55.3353188Z, 6cda8203-a249-e411-b0cc-f8bc1246af59, $GPGGA,000355.00,4106.3926,N,12428.7574,W,2,11,0.8,16.1,M,-25.9,M,,*62
2023-07-30T00:03:56.2354134Z, 6cda8203-a249-e411-b0cc-f8bc1246af59, $GPGGA,000356.00,4106.3935,N,12428.7576,W,2,11,0.8,16.0,M,-25.9,M,,*60
2023-07-30T00:03:58.0953602Z, 6cda8203-a249-e411-b0cc-f8bc1246af59, $GPGGA,000357.00,4106.3945,N,12428.7576,W,2,10,0.8,16.2,M,-25.9,M,,*65
2023-07-30T00:03:58.4249205Z, 6cda8203-a249-e411-b0cc-f8bc1246af59, $GPGGA,000358.00,4106.3957,N,12428.7575,W,2,11,0.8,16.3,M,-25.9,M,,*6A
2023-07-30T00:04:00.0995572Z, 6cda8203-a249-e411-b0cc-f8bc1246af59, $GPGGA,000359.00,4106.3968,N,12428.7575,W,2,11,0.8,16.3,M,-25.9,M,,*67
2023-07-30T00:04:00.4252532Z, 6cda8203-a249-e411-b0cc-f8bc1246af59, $GPGGA,000400.00,4106.3979,N,12428.7575,W,2,12,0.8,16.2,M,-25.9,M,,*6E
2023-07-30T00:04:02.0960377Z, 6cda8203-a249-e411-b0cc-f8bc1246af59, $GPGGA,000401.00,4106.3990,N,12428.7575,W,2,11,0.8,16.2,M,-25.9,M,,*6B
2023-07-30T00:04:02.4256077Z, 6cda8203-a249-e411-b0cc-f8bc1246af59, $GPGGA,000402.00,4106.3999,N,12428.7576,W,2,11,0.8,16.2,M,-25.9,M,,*62
2023-07-30T00:04:04.0953571Z, 6cda8203-a249-e411-b0cc-f8bc1246af59, $GPGGA,000403.00,4106.4010,N,12428.7577,W,2,12,0.8,16.2,M,-25.9,M,,*6E
2023-07-30T00:04:04.4261358Z, 6cda8203-a249-e411-b0cc-f8bc1246af59, $GPGGA,000404.00,4106.4021,N,12428.7578,W,2,12,0.8,16.2,M,-25.9,M,,*64
2023-07-30T00:04:05.2356067Z, 6cda8203-a249-e411-b0cc-f8bc1246af59, $GPGGA,000405.00,4106.4031,N,12428.7578,W,2,12,0.8,16.3,M,-25.9,M,,*65
2023-07-30T00:04:07.2757688Z, 6cda8203-a249-e411-b0cc-f8bc1246af59, $GPGGA,000406.00,4106.4041,N,12428.7577,W,2,11,0.8,16.5,M,-25.9,M,,*6B
2023-07-30T00:04:07.4261084Z, 6cda8203-a249-e411-b0cc-f8bc1246af59, $GPGGA,000407.00,4106.4050,N,12428.7575,W,2,11,0.8,16.6,M,-25.9,M,,*6B
2023-07-30T00:04:09.0958762Z, 6cda8203-a249-e411-b0cc-f8bc1246af59, $GPGGA,000408.00,4106.4061,N,12428.7574,W,2,12,0.8,16.5,M,-25.9,M,,*67
2023-07-30T00:04:09.4264531Z, 6cda8203-a249-e411-b0cc-f8bc1246af59, $GPGGA,000409.00,4106.4072,N,12428.7574,W,2,12,0.8,16.1,M,-25.9,M,,*60
2023-07-30T00:04:10.2359324Z, 6cda8203-a249-e411-b0cc-f8bc1246af59, $GPGGA,000410.00,4106.4083,N,12428.7575,W,2,12,0.8,16.0,M,-25.9,M,,*66
2023-07-30T00:04:12.0826870Z, 6cda8203-a249-e411-b0cc-f8bc1246af59, $GPGGA,000411.00,4106.4093,N,12428.7575,W,2,11,0.8,15.9,M,-25.9,M,,*6F
2023-07-30T00:04:12.4117465Z, 6cda8203-a249-e411-b0cc-f8bc1246af59, $GPGGA,000412.00,4106.4103,N,12428.7574,W,2,11,0.8,16.0,M,-25.9,M,,*6F
2023-07-30T00:04:14.0814982Z, 6cda8203-a249-e411-b0cc-f8bc1246af59, $GPGGA,000413.00,4106.4113,N,12428.7573,W,2,11,0.8,16.0,M,-25.9,M,,*68
2023-07-30T00:04:15.3619707Z, 6cda8203-a249-e411-b0cc-f8bc1246af59, $GPGGA,000415.00,4106.4135,N,12428.7571,W,2,11,0.8,15.9,M,-25.9,M,,*62
2023-07-30T00:04:16.2215659Z, 6cda8203-a249-e411-b0cc-f8bc1246af59, $GPGGA,000416.00,4106.4146,N,12428.7571,W,2,11,0.8,15.9,M,-25.9,M,,*65
2023-07-30T00:04:18.2818709Z, 6cda8203-a249-e411-b0cc-f8bc1246af59, $GPGGA,000417.00,4106.4156,N,12428.7571,W,2,12,0.8,16.0,M,-25.9,M,,*6C
2023-07-30T00:04:18.6821421Z, 6cda8203-a249-e411-b0cc-f8bc1246af59, $GPGGA,000418.00,4106.4166,N,12428.7571,W,2,11,0.8,16.0,M,-25.9,M,,*63
2023-07-30T00:04:20.0820787Z, 6cda8203-a249-e411-b0cc-f8bc1246af59, $GPGGA,000419.00,4106.4177,N,12428.7569,W,2,11,0.8,15.9,M,-25.9,M,,*61
2023-07-30T00:04:20.4116341Z, 6cda8203-a249-e411-b0cc-f8bc1246af59, $GPGGA,000420.00,4106.4188,N,12428.7569,W,2,12,0.8,15.8,M,-25.9,M,,*69
2023-07-30T00:04:21.2221210Z, 6cda8203-a249-e411-b0cc-f8bc1246af59, $GPGGA,000421.00,4106.4199,N,12428.7569,W,2,12,0.8,15.8,M,-25.9,M,,*68
2023-07-30T00:04:23.0820738Z, 6cda8203-a249-e411-b0cc-f8bc1246af59, $GPGGA,000422.00,4106.4209,N,12428.7571,W,2,12,0.8,16.1,M,-25.9,M,,*62
2023-07-30T00:04:23.4126242Z, 6cda8203-a249-e411-b0cc-f8bc1246af59, $GPGGA,000423.00,4106.4220,N,12428.7571,W,2,12,0.8,16.5,M,-25.9,M,,*6C
2023-07-30T00:04:24.6921289Z, 6cda8203-a249-e411-b0cc-f8bc1246af59, $GPGGA,000424.00,4106.4231,N,12428.7570,W,2,11,0.8,16.8,M,-25.9,M,,*64
2023-07-30T00:04:26.0821338Z, 6cda8203-a249-e411-b0cc-f8bc1246af59, $GPGGA,000425.00,4106.4241,N,12428.7568,W,2,11,0.8,16.9,M,-25.9,M,,*6A
2023-07-30T00:04:26.4127005Z, 6cda8203-a249-e411-b0cc-f8bc1246af59, $GPGGA,000426.00,4106.4252,N,12428.7566,W,2,11,0.8,16.8,M,-25.9,M,,*64
2023-07-30T00:04:27.3625915Z, 6cda8203-a249-e411-b0cc-f8bc1246af59, $GPGGA,000427.00,4106.4263,N,12428.7567,W,2,11,0.8,16.6,M,-25.9,M,,*68
2023-07-30T00:04:28.2327925Z, 6cda8203-a249-e411-b0cc-f8bc1246af59, $GPGGA,000428.00,4106.4274,N,12428.7569,W,2,11,0.8,16.5,M,-25.9,M,,*6C
2023-07-30T00:04:30.1825324Z, 6cda8203-a249-e411-b0cc-f8bc1246af59, $GPGGA,000429.00,4106.4284,N,12428.7571,W,2,12,0.8,16.7,M,-25.9,M,,*6A
2023-07-30T00:04:30.6425130Z, 6cda8203-a249-e411-b0cc-f8bc1246af59, $GPGGA,000430.00,4106.4294,N,12428.7571,W,2,12,0.8,17.0,M,-25.9,M,,*65
2023-07-30T00:04:31.2329838Z, 6cda8203-a249-e411-b0cc-f8bc1246af59, $GPGGA,000431.00,4106.4304,N,12428.7570,W,2,12,0.8,17.2,M,-25.9,M,,*6F
2023-07-30T00:04:33.0831040Z, 6cda8203-a249-e411-b0cc-f8bc1246af59, $GPGGA,000432.00,4106.4315,N,12428.7568,W,2,10,0.8,17.3,M,-25.9,M,,*66
2023-07-30T00:04:33.4127463Z, 6cda8203-a249-e411-b0cc-f8bc1246af59, $GPGGA,000433.00,4106.4328,N,12428.7567,W,2,10,0.8,17.2,M,-25.9,M,,*67
2023-07-30T00:04:34.2332218Z, 6cda8203-a249-e411-b0cc-f8bc1246af59, $GPGGA,000434.00,4106.4339,N,12428.7567,W,2,10,0.8,16.9,M,-25.9,M,,*6A
2023-07-30T00:04:36.2634285Z, 6cda8203-a249-e411-b0cc-f8bc1246af59, $GPGGA,000435.00,4106.4349,N,12428.7569,W,2,11,0.8,17.0,M,-25.9,M,,*6B
2023-07-30T00:04:36.6427245Z, 6cda8203-a249-e411-b0cc-f8bc1246af59, $GPGGA,000436.00,4106.4358,N,12428.7570,W,2,11,0.8,17.1,M,-25.9,M,,*61
2023-07-30T00:04:37.2331827Z, 6cda8203-a249-e411-b0cc-f8bc1246af59, $GPGGA,000437.00,4106.4369,N,12428.7571,W,2,12,0.8,17.2,M,-25.9,M,,*63
2023-07-30T00:04:39.0831677Z, 6cda8203-a249-e411-b0cc-f8bc1246af59, $GPGGA,000438.00,4106.4380,N,12428.7570,W,2,11,0.8,17.2,M,-25.9,M,,*69
2023-07-30T00:04:39.4137328Z, 6cda8203-a249-e411-b0cc-f8bc1246af59, $GPGGA,000439.00,4106.4392,N,12428.7568,W,2,11,0.8,17.2,M,-25.9,M,,*62
2023-07-30T00:04:40.2331818Z, 6cda8203-a249-e411-b0cc-f8bc1246af59, $GPGGA,000440.00,4106.4402,N,12428.7567,W,2,12,0.8,17.3,M,-25.9,M,,*6F
2023-07-30T00:04:42.2240519Z, 6cda8203-a249-e411-b0cc-f8bc1246af59, $GPGGA,000441.00,4106.4412,N,12428.7567,W,2,12,0.8,17.4,M,-25.9,M,,*68
2023-07-30T00:04:42.6432105Z, 6cda8203-a249-e411-b0cc-f8bc1246af59, $GPGGA,000442.00,4106.4422,N,12428.7567,W,2,12,0.8,17.5,M,-25.9,M,,*69
2023-07-30T00:04:43.2336697Z, 6cda8203-a249-e411-b0cc-f8bc1246af59, $GPGGA,000443.00,4106.4433,N,12428.7568,W,2,11,0.8,17.5,M,-25.9,M,,*64
2023-07-30T00:04:45.0837994Z, 6cda8203-a249-e411-b0cc-f8bc1246af59, $GPGGA,000444.00,4106.4444,N,12428.7568,W,2,11,0.8,17.5,M,-25.9,M,,*63
2023-07-30T00:04:45.4133547Z, 6cda8203-a249-e411-b0cc-f8bc1246af59, $GPGGA,000445.00,4106.4454,N,12428.7569,W,2,11,0.8,17.4,M,-25.9,M,,*63
2023-07-30T00:04:46.2334720Z, 6cda8203-a249-e411-b0cc-f8bc1246af59, $GPGGA,000446.00,4106.4464,N,12428.7570,W,2,11,0.8,17.5,M,-25.9,M,,*6A
2023-07-30T00:04:48.2639873Z, 6cda8203-a249-e411-b0cc-f8bc1246af59, $GPGGA,000447.00,4106.4474,N,12428.7569,W,2,11,0.8,17.9,M,-25.9,M,,*6E
2023-07-30T00:04:48.6443169Z, 6cda8203-a249-e411-b0cc-f8bc1246af59, $GPGGA,000448.00,4106.4485,N,12428.7568,W,2,11,0.8,18.2,M,-25.9,M,,*6A
2023-07-30T00:04:49.2337711Z, 6cda8203-a249-e411-b0cc-f8bc1246af59, $GPGGA,000449.00,4106.4496,N,12428.7567,W,2,11,0.8,18.2,M,-25.9,M,,*66
2023-07-30T00:04:50.4037076Z, 6cda8203-a249-e411-b0cc-f8bc1246af59, $GPGGA,000450.00,4106.4507,N,12428.7566,W,2,12,0.8,18.1,M,-25.9,M,,*66
2023-07-30T00:04:51.2440273Z, 6cda8203-a249-e411-b0cc-f8bc1246af59, $GPGGA,000451.00,4106.4517,N,12428.7567,W,2,11,0.8,17.9,M,-25.9,M,,*63
2023-07-30T00:04:53.0845717Z, 6cda8203-a249-e411-b0cc-f8bc1246af59, $GPGGA,000452.00,4106.4527,N,12428.7566,W,2,11,0.8,18.1,M,-25.9,M,,*65
2023-07-30T00:04:53.4141235Z, 6cda8203-a249-e411-b0cc-f8bc1246af59, $GPGGA,000453.00,4106.4538,N,12428.7565,W,2,12,0.8,18.2,M,-25.9,M,,*69
2023-07-30T00:04:54.8440816Z, 6cda8203-a249-e411-b0cc-f8bc1246af59, $GPGGA,000454.00,4106.4547,N,12428.7565,W,2,12,0.8,18.3,M,-25.9,M,,*67
2023-07-30T00:04:55.4046546Z, 6cda8203-a249-e411-b0cc-f8bc1246af59, $GPGGA,000455.00,4106.4558,N,12428.7565,W,2,12,0.8,18.3,M,-25.9,M,,*68
2023-07-30T00:04:56.2549517Z, 6cda8203-a249-e411-b0cc-f8bc1246af59, $GPGGA,000456.00,4106.4568,N,12428.7565,W,2,11,0.8,18.2,M,-25.9,M,,*6A
2023-07-30T00:04:57.2449870Z, 6cda8203-a249-e411-b0cc-f8bc1246af59, $GPGGA,000457.00,4106.4578,N,12428.7565,W,2,11,0.8,18.3,M,-25.9,M,,*6B
2023-07-30T00:04:59.0849805Z, 6cda8203-a249-e411-b0cc-f8bc1246af59, $GPGGA,000458.00,4106.4588,N,12428.7563,W,2,11,0.8,18.3,M,-25.9,M,,*6D
2023-07-30T00:04:59.4145355Z, 6cda8203-a249-e411-b0cc-f8bc1246af59, $GPGGA,000459.00,4106.4597,N,12428.7562,W,2,11,0.8,18.1,M,-25.9,M,,*61
2023-07-30T00:05:00.2449282Z, 6cda8203-a249-e411-b0cc-f8bc1246af59, $GPGGA,000500.00,4106.4607,N,12428.7562,W,2,12,0.8,17.9,M,-25.9,M,,*62
2023-07-30T00:05:01.4148377Z, 6cda8203-a249-e411-b0cc-f8bc1246af59, $GPGGA,000501.00,4106.4618,N,12428.7563,W,2,12,0.8,17.6,M,-25.9,M,,*63
2023-07-30T00:05:02.2452720Z, 6cda8203-a249-e411-b0cc-f8bc1246af59, $GPGGA,000502.00,4106.4628,N,12428.7564,W,2,12,0.8,17.6,M,-25.9,M,,*64
2023-07-30T00:05:03.2449284Z, 6cda8203-a249-e411-b0cc-f8bc1246af59, $GPGGA,000503.00,4106.4636,N,12428.7563,W,2,12,0.8,17.6,M,-25.9,M,,*6D
2023-07-30T00:05:04.4049076Z, 6cda8203-a249-e411-b0cc-f8bc1246af59, $GPGGA,000504.00,4106.4644,N,12428.7562,W,2,12,0.8,17.5,M,-25.9,M,,*6D
2023-07-30T00:05:05.2452707Z, 6cda8203-a249-e411-b0cc-f8bc1246af59, $GPGGA,000505.00,4106.4654,N,12428.7559,W,2,12,0.8,17.5,M,-25.9,M,,*65
2023-07-30T00:05:06.2449316Z, 6cda8203-a249-e411-b0cc-f8bc1246af59, $GPGGA,000506.00,4106.4665,N,12428.7558,W,2,11,0.8,17.4,M,-25.9,M,,*67
2023-07-30T00:05:07.7752854Z, 6cda8203-a249-e411-b0cc-f8bc1246af59, $GPGGA,000507.00,4106.4676,N,12428.7559,W,2,11,0.8,17.3,M,-25.9,M,,*62
2023-07-30T00:05:08.2458284Z, 6cda8203-a249-e411-b0cc-f8bc1246af59, $GPGGA,000508.00,4106.4685,N,12428.7560,W,2,11,0.8,17.2,M,-25.9,M,,*6A
2023-07-30T00:05:09.4159402Z, 6cda8203-a249-e411-b0cc-f8bc1246af59, $GPGGA,000509.00,4106.4693,N,12428.7561,W,2,10,0.8,17.3,M,-25.9,M,,*6D
2023-07-30T00:05:10.2552783Z, 6cda8203-a249-e411-b0cc-f8bc1246af59, $GPGGA,000510.00,4106.4702,N,12428.7559,W,2,10,0.8,17.4,M,-25.9,M,,*60
2023-07-30T00:05:11.2460011Z, 6cda8203-a249-e411-b0cc-f8bc1246af59, $GPGGA,000511.00,4106.4712,N,12428.7558,W,2,11,0.8,17.3,M,-25.9,M,,*67
2023-07-30T00:05:12.2257332Z, 6cda8203-a249-e411-b0cc-f8bc1246af59, $GPGGA,000512.00,4106.4722,N,12428.7557,W,2,11,0.8,17.2,M,-25.9,M,,*69
2023-07-30T00:05:13.2554183Z, 6cda8203-a249-e411-b0cc-f8bc1246af59, $GPGGA,000513.00,4106.4731,N,12428.7557,W,2,11,0.8,17.0,M,-25.9,M,,*68
2023-07-30T00:05:14.8662625Z, 6cda8203-a249-e411-b0cc-f8bc1246af59, $GPGGA,000514.00,4106.4740,N,12428.7558,W,2,11,0.8,17.0,M,-25.9,M,,*66
2023-07-30T00:05:15.4158578Z, 6cda8203-a249-e411-b0cc-f8bc1246af59, $GPGGA,000515.00,4106.4748,N,12428.7558,W,2,11,0.8,17.1,M,-25.9,M,,*6E
2023-07-30T00:05:16.2462950Z, 6cda8203-a249-e411-b0cc-f8bc1246af59, $GPGGA,000516.00,4106.4756,N,12428.7558,W,2,11,0.8,17.1,M,-25.9,M,,*62
2023-07-30T00:05:17.2260901Z, 6cda8203-a249-e411-b0cc-f8bc1246af59, $GPGGA,000517.00,4106.4765,N,12428.7558,W,2,11,0.8,17.1,M,-25.9,M,,*63
2023-07-30T00:05:18.2765300Z, 6cda8203-a249-e411-b0cc-f8bc1246af59, $GPGGA,000518.00,4106.4774,N,12428.7557,W,2,11,0.8,17.1,M,-25.9,M,,*63
2023-07-30T00:05:19.2562848Z, 6cda8203-a249-e411-b0cc-f8bc1246af59, $GPGGA,000519.00,4106.4784,N,12428.7557,W,2,11,0.8,17.1,M,-25.9,M,,*6D
2023-07-30T00:05:21.4258700Z, 6cda8203-a249-e411-b0cc-f8bc1246af59, $GPGGA,000520.00,4106.4792,N,12428.7558,W,2,11,0.8,16.8,M,-25.9,M,,*67
2023-07-30T00:05:21.7465171Z, 6cda8203-a249-e411-b0cc-f8bc1246af59, $GPGGA,000521.00,4106.4800,N,12428.7558,W,2,11,0.8,16.9,M,-25.9,M,,*63
2023-07-30T00:05:22.3767577Z, 6cda8203-a249-e411-b0cc-f8bc1246af59, $GPGGA,000522.00,4106.4807,N,12428.7558,W,2,11,0.8,16.9,M,-25.9,M,,*67
2023-07-30T00:05:23.8364108Z, 6cda8203-a249-e411-b0cc-f8bc1246af59, $GPGGA,000523.00,4106.4815,N,12428.7559,W,2,11,0.8,16.8,M,-25.9,M,,*65
2023-07-30T00:05:24.4268940Z, 6cda8203-a249-e411-b0cc-f8bc1246af59, $GPGGA,000524.00,4106.4823,N,12428.7561,W,2,11,0.8,16.7,M,-25.9,M,,*63
2023-07-30T00:05:25.2662099Z, 6cda8203-a249-e411-b0cc-f8bc1246af59, $GPGGA,000525.00,4106.4832,N,12428.7563,W,2,11,0.8,16.7,M,-25.9,M,,*60
2023-07-30T00:05:27.3164167Z, 6cda8203-a249-e411-b0cc-f8bc1246af59, $GPGGA,000526.00,4106.4840,N,12428.7563,W,2,11,0.8,16.8,M,-25.9,M,,*69
2023-07-30T00:05:27.7166643Z, 6cda8203-a249-e411-b0cc-f8bc1246af59, $GPGGA,000527.00,4106.4848,N,12428.7561,W,2,11,0.8,17.0,M,-25.9,M,,*6B
2023-07-30T00:05:29.0867585Z, 6cda8203-a249-e411-b0cc-f8bc1246af59, $GPGGA,000528.00,4106.4857,N,12428.7558,W,2,11,0.8,17.1,M,-25.9,M,,*61
2023-07-30T00:05:29.4173019Z, 6cda8203-a249-e411-b0cc-f8bc1246af59, $GPGGA,000529.00,4106.4866,N,12428.7556,W,2,11,0.8,16.9,M,-25.9,M,,*65
2023-07-30T00:05:31.0870648Z, 6cda8203-a249-e411-b0cc-f8bc1246af59, $GPGGA,000530.00,4106.4876,N,12428.7557,W,2,11,0.8,16.6,M,-25.9,M,,*62
2023-07-30T00:05:31.4166335Z, 6cda8203-a249-e411-b0cc-f8bc1246af59, $GPGGA,000531.00,4106.4884,N,12428.7560,W,2,11,0.8,16.3,M,-25.9,M,,*6F
2023-07-30T00:05:32.8974114Z, 6cda8203-a249-e411-b0cc-f8bc1246af59, $GPGGA,000532.00,4106.4892,N,12428.7562,W,2,11,0.8,16.4,M,-25.9,M,,*6E
2023-07-30T00:05:33.6670504Z, 6cda8203-a249-e411-b0cc-f8bc1246af59, $GPGGA,000533.00,4106.4901,N,12428.7561,W,2,11,0.8,16.7,M,-25.9,M,,*64
2023-07-30T00:05:35.0869080Z, 6cda8203-a249-e411-b0cc-f8bc1246af59, $GPGGA,000534.00,4106.4910,N,12428.7557,W,2,11,0.8,17.0,M,-25.9,M,,*60
2023-07-30T00:05:35.4174856Z, 6cda8203-a249-e411-b0cc-f8bc1246af59, $GPGGA,000535.00,4106.4919,N,12428.7553,W,2,11,0.8,17.1,M,-25.9,M,,*6D
2023-07-30T00:05:37.0872436Z, 6cda8203-a249-e411-b0cc-f8bc1246af59, $GPGGA,000536.00,4106.4928,N,12428.7551,W,2,11,0.8,17.0,M,-25.9,M,,*6F
2023-07-30T00:05:37.4178331Z, 6cda8203-a249-e411-b0cc-f8bc1246af59, $GPGGA,000537.00,4106.4938,N,12428.7552,W,2,11,0.8,16.9,M,-25.9,M,,*64
2023-07-30T00:05:38.2074024Z, 6cda8203-a249-e411-b0cc-f8bc1246af59, $GPGGA,000538.00,4106.4947,N,12428.7554,W,2,11,0.8,16.9,M,-25.9,M,,*65
2023-07-30T00:05:40.0872447Z, 6cda8203-a249-e411-b0cc-f8bc1246af59, $GPGGA,000539.00,4106.4955,N,12428.7556,W,2,11,0.8,17.0,M,-25.9,M,,*6D
2023-07-30T00:05:40.4177945Z, 6cda8203-a249-e411-b0cc-f8bc1246af59, $GPGGA,000540.00,4106.4964,N,12428.7555,W,2,11,0.8,17.1,M,-25.9,M,,*63
2023-07-30T00:05:41.2173408Z, 6cda8203-a249-e411-b0cc-f8bc1246af59, $GPGGA,000541.00,4106.4975,N,12428.7553,W,2,11,0.8,17.1,M,-25.9,M,,*64
2023-07-30T00:05:43.0877380Z, 6cda8203-a249-e411-b0cc-f8bc1246af59, $GPGGA,000542.00,4106.4984,N,12428.7551,W,2,11,0.8,17.1,M,-25.9,M,,*6B
2023-07-30T00:05:43.4182922Z, 6cda8203-a249-e411-b0cc-f8bc1246af59, $GPGGA,000543.00,4106.4994,N,12428.7549,W,2,11,0.8,17.1,M,-25.9,M,,*62
2023-07-30T00:05:45.0880621Z, 6cda8203-a249-e411-b0cc-f8bc1246af59, $GPGGA,000544.00,4106.5002,N,12428.7549,W,2,11,0.8,17.1,M,-25.9,M,,*62
2023-07-30T00:05:45.4176480Z, 6cda8203-a249-e411-b0cc-f8bc1246af59, $GPGGA,000545.00,4106.5011,N,12428.7549,W,2,11,0.8,17.2,M,-25.9,M,,*62
2023-07-30T00:05:46.2181329Z, 6cda8203-a249-e411-b0cc-f8bc1246af59, $GPGGA,000546.00,4106.5020,N,12428.7549,W,2,11,0.8,17.3,M,-25.9,M,,*62
2023-07-30T00:05:48.0880485Z, 6cda8203-a249-e411-b0cc-f8bc1246af59, $GPGGA,000547.00,4106.5031,N,12428.7547,W,2,11,0.8,17.2,M,-25.9,M,,*6C
2023-07-30T00:05:48.4185926Z, 6cda8203-a249-e411-b0cc-f8bc1246af59, $GPGGA,000548.00,4106.5040,N,12428.7546,W,2,11,0.8,17.0,M,-25.9,M,,*66
2023-07-30T00:05:50.0883845Z, 6cda8203-a249-e411-b0cc-f8bc1246af59, $GPGGA,000549.00,4106.5048,N,12428.7546,W,2,11,0.8,17.0,M,-25.9,M,,*6F
2023-07-30T00:05:50.8182196Z, 6cda8203-a249-e411-b0cc-f8bc1246af59, $GPGGA,000550.00,4106.5056,N,12428.7546,W,2,11,0.8,17.2,M,-25.9,M,,*6A
2023-07-30T00:05:51.2184766Z, 6cda8203-a249-e411-b0cc-f8bc1246af59, $GPGGA,000551.00,4106.5065,N,12428.7545,W,2,11,0.8,17.4,M,-25.9,M,,*6E
2023-07-30T00:05:53.0883756Z, 6cda8203-a249-e411-b0cc-f8bc1246af59, $GPGGA,000552.00,4106.5075,N,12428.7544,W,2,11,0.8,17.5,M,-25.9,M,,*6C
2023-07-30T00:05:53.4189517Z, 6cda8203-a249-e411-b0cc-f8bc1246af59, $GPGGA,000553.00,4106.5086,N,12428.7544,W,2,11,0.8,17.4,M,-25.9,M,,*60
2023-07-30T00:05:55.0887866Z, 6cda8203-a249-e411-b0cc-f8bc1246af59, $GPGGA,000554.00,4106.5095,N,12428.7545,W,2,11,0.8,17.3,M,-25.9,M,,*63
2023-07-30T00:05:55.4183989Z, 6cda8203-a249-e411-b0cc-f8bc1246af59, $GPGGA,000555.00,4106.5105,N,12428.7545,W,2,11,0.8,17.3,M,-25.9,M,,*6A
2023-07-30T00:05:56.7686029Z, 6cda8203-a249-e411-b0cc-f8bc1246af59, $GPGGA,000556.00,4106.5113,N,12428.7543,W,2,11,0.8,17.5,M,-25.9,M,,*6E
2023-07-30T00:05:57.2185482Z, 6cda8203-a249-e411-b0cc-f8bc1246af59, $GPGGA,000557.00,4106.5122,N,12428.7542,W,2,11,0.8,17.8,M,-25.9,M,,*61
2023-07-30T00:05:59.0894258Z, 6cda8203-a249-e411-b0cc-f8bc1246af59, $GPGGA,000558.00,4106.5132,N,12428.7540,W,2,11,0.8,17.9,M,-25.9,M,,*6C
2023-07-30T00:05:59.4190066Z, 6cda8203-a249-e411-b0cc-f8bc1246af59, $GPGGA,000559.00,4106.5142,N,12428.7540,W,2,11,0.8,17.6,M,-25.9,M,,*65
2023-07-30T00:06:01.0888917Z, 6cda8203-a249-e411-b0cc-f8bc1246af59, $GPGGA,000600.00,4106.5152,N,12428.7541,W,2,11,0.8,17.4,M,-25.9,M,,*68
2023-07-30T00:06:01.4194487Z, 6cda8203-a249-e411-b0cc-f8bc1246af59, $GPGGA,000601.00,4106.5161,N,12428.7541,W,2,11,0.8,17.3,M,-25.9,M,,*6E
2023-07-30T00:06:02.8592287Z, 6cda8203-a249-e411-b0cc-f8bc1246af59, $GPGGA,000602.00,4106.5169,N,12428.7540,W,2,10,0.8,17.5,M,-25.9,M,,*63
2023-07-30T00:06:03.3690265Z, 6cda8203-a249-e411-b0cc-f8bc1246af59, $GPGGA,000603.00,4106.5177,N,12428.7539,W,2,10,0.8,17.7,M,-25.9,M,,*61
2023-07-30T00:06:04.2193378Z, 6cda8203-a249-e411-b0cc-f8bc1246af59, $GPGGA,000604.00,4106.5186,N,12428.7538,W,2,10,0.8,17.9,M,-25.9,M,,*67
2023-07-30T00:06:06.0893735Z, 6cda8203-a249-e411-b0cc-f8bc1246af59, $GPGGA,000605.00,4106.5197,N,12428.7537,W,2,11,0.8,17.9,M,-25.9,M,,*68
2023-07-30T00:06:06.4199093Z, 6cda8203-a249-e411-b0cc-f8bc1246af59, $GPGGA,000606.00,4106.5208,N,12428.7538,W,2,11,0.8,17.6,M,-25.9,M,,*6E
2023-07-30T00:06:07.2194661Z, 6cda8203-a249-e411-b0cc-f8bc1246af59, $GPGGA,000607.00,4106.5218,N,12428.7539,W,2,11,0.8,17.6,M,-25.9,M,,*6F
2023-07-30T00:06:09.0894214Z, 6cda8203-a249-e411-b0cc-f8bc1246af59, $GPGGA,000608.00,4106.5227,N,12428.7538,W,2,11,0.8,18.2,M,-25.9,M,,*66
2023-07-30T00:06:09.4199952Z, 6cda8203-a249-e411-b0cc-f8bc1246af59, $GPGGA,000609.00,4106.5236,N,12428.7534,W,2,11,0.8,18.7,M,-25.9,M,,*6E
2023-07-30T00:06:11.0897417Z, 6cda8203-a249-e411-b0cc-f8bc1246af59, $GPGGA,000610.00,4106.5247,N,12428.7533,W,2,12,0.8,18.4,M,-25.9,M,,*67
2023-07-30T00:06:11.4202837Z, 6cda8203-a249-e411-b0cc-f8bc1246af59, $GPGGA,000611.00,4106.5258,N,12428.7532,W,2,12,0.8,18.5,M,-25.9,M,,*68
2023-07-30T00:06:12.2297753Z, 6cda8203-a249-e411-b0cc-f8bc1246af59, $GPGGA,000612.00,4106.5269,N,12428.7532,W,2,12,0.8,18.2,M,-25.9,M,,*6E
2023-07-30T00:06:14.2699707Z, 6cda8203-a249-e411-b0cc-f8bc1246af59, $GPGGA,000613.00,4106.5277,N,12428.7533,W,2,12,0.8,18.1,M,-25.9,M,,*62
2023-07-30T00:06:14.6901141Z, 6cda8203-a249-e411-b0cc-f8bc1246af59, $GPGGA,000614.00,4106.5285,N,12428.7534,W,2,12,0.8,18.2,M,-25.9,M,,*6C
2023-07-30T00:06:16.0900645Z, 6cda8203-a249-e411-b0cc-f8bc1246af59, $GPGGA,000615.00,4106.5294,N,12428.7533,W,2,12,0.8,18.4,M,-25.9,M,,*6C
2023-07-30T00:06:16.4206124Z, 6cda8203-a249-e411-b0cc-f8bc1246af59, $GPGGA,000616.00,4106.5305,N,12428.7532,W,2,11,0.8,18.5,M,-25.9,M,,*65
2023-07-30T00:06:17.2304477Z, 6cda8203-a249-e411-b0cc-f8bc1246af59, $GPGGA,000617.00,4106.5316,N,12428.7531,W,2,11,0.8,18.5,M,-25.9,M,,*65
2023-07-30T00:06:19.0903755Z, 6cda8203-a249-e411-b0cc-f8bc1246af59, $GPGGA,000618.00,4106.5327,N,12428.7531,W,2,12,0.8,18.5,M,-25.9,M,,*6B
2023-07-30T00:06:19.4209449Z, 6cda8203-a249-e411-b0cc-f8bc1246af59, $GPGGA,000619.00,4106.5337,N,12428.7531,W,2,12,0.8,18.5,M,-25.9,M,,*6B
2023-07-30T00:06:20.7810565Z, 6cda8203-a249-e411-b0cc-f8bc1246af59, $GPGGA,000620.00,4106.5346,N,12428.7531,W,2,12,0.8,18.7,M,-25.9,M,,*65
2023-07-30T00:06:22.0911109Z, 6cda8203-a249-e411-b0cc-f8bc1246af59, $GPGGA,000621.00,4106.5355,N,12428.7531,W,2,12,0.8,18.8,M,-25.9,M,,*69
2023-07-30T00:06:22.4206728Z, 6cda8203-a249-e411-b0cc-f8bc1246af59, $GPGGA,000622.00,4106.5365,N,12428.7531,W,2,12,0.8,18.7,M,-25.9,M,,*66
2023-07-30T00:06:24.0905152Z, 6cda8203-a249-e411-b0cc-f8bc1246af59, $GPGGA,000623.00,4106.5376,N,12428.7530,W,2,12,0.8,18.8,M,-25.9,M,,*6B
2023-07-30T00:06:24.4210741Z, 6cda8203-a249-e411-b0cc-f8bc1246af59, $GPGGA,000624.00,4106.5386,N,12428.7530,W,2,12,0.8,18.7,M,-25.9,M,,*6C
2023-07-30T00:06:25.2305604Z, 6cda8203-a249-e411-b0cc-f8bc1246af59, $GPGGA,000625.00,4106.5395,N,12428.7529,W,2,12,0.8,18.7,M,-25.9,M,,*67
2023-07-30T00:06:26.6404978Z, 6cda8203-a249-e411-b0cc-f8bc1246af59, $GPGGA,000626.00,4106.5404,N,12428.7529,W,2,12,0.8,18.6,M,-25.9,M,,*6A
2023-07-30T00:06:27.2309569Z, 6cda8203-a249-e411-b0cc-f8bc1246af59, $GPGGA,000627.00,4106.5413,N,12428.7529,W,2,12,0.8,18.6,M,-25.9,M,,*6D
2023-07-30T00:06:29.0909036Z, 6cda8203-a249-e411-b0cc-f8bc1246af59, $GPGGA,000628.00,4106.5422,N,12428.7527,W,2,12,0.8,18.8,M,-25.9,M,,*60
2023-07-30T00:06:29.4216070Z, 6cda8203-a249-e411-b0cc-f8bc1246af59, $GPGGA,000629.00,4106.5433,N,12428.7526,W,2,12,0.8,18.7,M,-25.9,M,,*6F
2023-07-30T00:06:30.2311030Z, 6cda8203-a249-e411-b0cc-f8bc1246af59, $GPGGA,000630.00,4106.5443,N,12428.7525,W,2,12,0.8,18.6,M,-25.9,M,,*62
2023-07-30T00:06:31.4010323Z, 6cda8203-a249-e411-b0cc-f8bc1246af59, $GPGGA,000631.00,4106.5452,N,12428.7525,W,2,12,0.8,18.4,M,-25.9,M,,*61
2023-07-30T00:06:32.8716892Z, 6cda8203-a249-e411-b0cc-f8bc1246af59, $GPGGA,000632.00,4106.5460,N,12428.7526,W,2,12,0.8,18.4,M,-25.9,M,,*60
2023-07-30T00:06:34.0913721Z, 6cda8203-a249-e411-b0cc-f8bc1246af59, $GPGGA,000633.00,4106.5469,N,12428.7527,W,2,11,0.8,18.5,M,-25.9,M,,*6B
2023-07-30T00:06:34.4219116Z, 6cda8203-a249-e411-b0cc-f8bc1246af59, $GPGGA,000634.00,4106.5479,N,12428.7526,W,2,11,0.8,18.6,M,-25.9,M,,*6F
2023-07-30T00:06:35.2413589Z, 6cda8203-a249-e411-b0cc-f8bc1246af59, $GPGGA,000635.00,4106.5489,N,12428.7525,W,2,11,0.8,18.6,M,-25.9,M,,*62
2023-07-30T00:06:37.0913628Z, 6cda8203-a249-e411-b0cc-f8bc1246af59, $GPGGA,000636.00,4106.5498,N,12428.7525,W,2,12,0.8,18.7,M,-25.9,M,,*63
2023-07-30T00:06:37.4219405Z, 6cda8203-a249-e411-b0cc-f8bc1246af59, $GPGGA,000637.00,4106.5508,N,12428.7523,W,2,12,0.8,18.8,M,-25.9,M,,*63
2023-07-30T00:06:38.8417539Z, 6cda8203-a249-e411-b0cc-f8bc1246af59, $GPGGA,000638.00,4106.5518,N,12428.7522,W,2,12,0.8,18.8,M,-25.9,M,,*6C
2023-07-30T00:06:39.4014205Z, 6cda8203-a249-e411-b0cc-f8bc1246af59, $GPGGA,000639.00,4106.5527,N,12428.7522,W,2,12,0.8,19.0,M,-25.9,M,,*68
2023-07-30T00:06:40.2417575Z, 6cda8203-a249-e411-b0cc-f8bc1246af59, $GPGGA,000640.00,4106.5537,N,12428.7522,W,2,12,0.8,19.3,M,-25.9,M,,*64
2023-07-30T00:06:42.0917378Z, 6cda8203-a249-e411-b0cc-f8bc1246af59, $GPGGA,000641.00,4106.5547,N,12428.7521,W,2,12,0.8,19.3,M,-25.9,M,,*61
2023-07-30T00:06:42.4223089Z, 6cda8203-a249-e411-b0cc-f8bc1246af59, $GPGGA,000642.00,4106.5556,N,12428.7518,W,2,12,0.8,19.3,M,-25.9,M,,*68
2023-07-30T00:06:43.2417493Z, 6cda8203-a249-e411-b0cc-f8bc1246af59, $GPGGA,000643.00,4106.5566,N,12428.7516,W,2,12,0.8,19.4,M,-25.9,M,,*63
2023-07-30T00:06:44.8219017Z, 6cda8203-a249-e411-b0cc-f8bc1246af59, $GPGGA,000644.00,4106.5577,N,12428.7514,W,2,12,0.8,19.4,M,-25.9,M,,*66
2023-07-30T00:06:45.2420830Z, 6cda8203-a249-e411-b0cc-f8bc1246af59, $GPGGA,000645.00,4106.5588,N,12428.7515,W,2,12,0.8,19.3,M,-25.9,M,,*61
2023-07-30T00:06:47.0920763Z, 6cda8203-a249-e411-b0cc-f8bc1246af59, $GPGGA,000646.00,4106.5598,N,12428.7516,W,2,13,0.8,19.3,M,-25.9,M,,*61
2023-07-30T00:06:47.4226259Z, 6cda8203-a249-e411-b0cc-f8bc1246af59, $GPGGA,000647.00,4106.5608,N,12428.7516,W,2,13,0.8,19.5,M,-25.9,M,,*6C
2023-07-30T00:06:48.2420977Z, 6cda8203-a249-e411-b0cc-f8bc1246af59, $GPGGA,000648.00,4106.5617,N,12428.7515,W,2,13,0.8,19.7,M,-25.9,M,,*6C
2023-07-30T00:06:49.4030541Z, 6cda8203-a249-e411-b0cc-f8bc1246af59, $GPGGA,000649.00,4106.5625,N,12428.7514,W,2,13,0.8,19.5,M,-25.9,M,,*6F
2023-07-30T00:06:50.2424067Z, 6cda8203-a249-e411-b0cc-f8bc1246af59, $GPGGA,000650.00,4106.5635,N,12428.7513,W,2,13,0.8,19.4,M,-25.9,M,,*60
2023-07-30T00:06:51.4123073Z, 6cda8203-a249-e411-b0cc-f8bc1246af59, $GPGGA,000651.00,4106.5644,N,12428.7512,W,2,13,0.8,19.1,M,-25.9,M,,*63
2023-07-30T00:06:52.2825638Z, 6cda8203-a249-e411-b0cc-f8bc1246af59, $GPGGA,000652.00,4106.5653,N,12428.7513,W,2,13,0.8,18.9,M,-25.9,M,,*6E
2023-07-30T00:06:53.2424062Z, 6cda8203-a249-e411-b0cc-f8bc1246af59, $GPGGA,000653.00,4106.5660,N,12428.7514,W,2,13,0.8,18.8,M,-25.9,M,,*69
2023-07-30T00:06:54.4132950Z, 6cda8203-a249-e411-b0cc-f8bc1246af59, $GPGGA,000654.00,4106.5666,N,12428.7515,W,2,13,0.8,18.9,M,-25.9,M,,*68
2023-07-30T00:06:55.2427441Z, 6cda8203-a249-e411-b0cc-f8bc1246af59, $GPGGA,000655.00,4106.5674,N,12428.7516,W,2,13,0.8,19.0,M,-25.9,M,,*61
2023-07-30T00:06:56.2533327Z, 6cda8203-a249-e411-b0cc-f8bc1246af59, $GPGGA,000656.00,4106.5684,N,12428.7516,W,2,13,0.8,18.9,M,-25.9,M,,*65
2023-07-30T00:06:57.7727597Z, 6cda8203-a249-e411-b0cc-f8bc1246af59, $GPGGA,000657.00,4106.5694,N,12428.7516,W,2,13,0.8,18.8,M,-25.9,M,,*64
2023-07-30T00:06:58.2427204Z, 6cda8203-a249-e411-b0cc-f8bc1246af59, $GPGGA,000658.00,4106.5703,N,12428.7515,W,2,13,0.8,18.7,M,-25.9,M,,*68
2023-07-30T00:06:59.4136463Z, 6cda8203-a249-e411-b0cc-f8bc1246af59, $GPGGA,000659.00,4106.5711,N,12428.7514,W,2,13,0.8,18.8,M,-25.9,M,,*64
2023-07-30T00:07:00.2629611Z, 6cda8203-a249-e411-b0cc-f8bc1246af59, $GPGGA,000700.00,4106.5719,N,12428.7514,W,2,13,0.8,19.0,M,-25.9,M,,*68
2023-07-30T00:07:01.2538584Z, 6cda8203-a249-e411-b0cc-f8bc1246af59, $GPGGA,000701.00,4106.5729,N,12428.7514,W,2,13,0.8,19.0,M,-25.9,M,,*6A
2023-07-30T00:07:02.4139350Z, 6cda8203-a249-e411-b0cc-f8bc1246af59, $GPGGA,000702.00,4106.5740,N,12428.7515,W,2,13,0.8,18.9,M,-25.9,M,,*6F
2023-07-30T00:07:03.2532632Z, 6cda8203-a249-e411-b0cc-f8bc1246af59, $GPGGA,000703.00,4106.5749,N,12428.7516,W,2,13,0.8,18.9,M,-25.9,M,,*64
2023-07-30T00:07:04.7139378Z, 6cda8203-a249-e411-b0cc-f8bc1246af59, $GPGGA,000704.00,4106.5759,N,12428.7515,W,2,13,0.8,19.0,M,-25.9,M,,*69
2023-07-30T00:07:05.4139554Z, 6cda8203-a249-e411-b0cc-f8bc1246af59, $GPGGA,000705.00,4106.5769,N,12428.7514,W,2,13,0.8,19.2,M,-25.9,M,,*68
2023-07-30T00:07:06.2532943Z, 6cda8203-a249-e411-b0cc-f8bc1246af59, $GPGGA,000706.00,4106.5779,N,12428.7513,W,2,13,0.8,19.4,M,-25.9,M,,*6B
2023-07-30T00:07:07.4142532Z, 6cda8203-a249-e411-b0cc-f8bc1246af59, $GPGGA,000707.00,4106.5789,N,12428.7512,W,2,13,0.8,19.4,M,-25.9,M,,*64
2023-07-30T00:07:08.2735331Z, 6cda8203-a249-e411-b0cc-f8bc1246af59, $GPGGA,000708.00,4106.5799,N,12428.7513,W,2,13,0.8,19.5,M,-25.9,M,,*6A
2023-07-30T00:07:09.2542921Z, 6cda8203-a249-e411-b0cc-f8bc1246af59, $GPGGA,000709.00,4106.5809,N,12428.7513,W,2,13,0.8,19.8,M,-25.9,M,,*60
2023-07-30T00:07:10.8038334Z, 6cda8203-a249-e411-b0cc-f8bc1246af59, $GPGGA,000710.00,4106.5818,N,12428.7514,W,2,13,0.8,19.9,M,-25.9,M,,*6E
