ACQ Timestamp (Server Time in UTC), MessageID, Data Value For: GNSS-6452-$GPGGA
2023-06-23T22:34:48.0863401Z, 6cda8203-a249-e411-b0cc-f8bc1246af59, $GPGGA,223447.00,4437.5851,N,12402.8882,W,2,12,0.8,27.5,M,-21.8,M,,*66
2023-06-23T22:34:48.4168443Z, 6cda8203-a249-e411-b0cc-f8bc1246af59, $GPGGA,223448.00,4437.5851,N,12402.8882,W,2,12,0.8,27.6,M,-21.8,M,,*6A
2023-06-23T22:34:49.3768541Z, 6cda8203-a249-e411-b0cc-f8bc1246af59, $GPGGA,223449.00,4437.5851,N,12402.8883,W,2,12,0.8,27.6,M,-21.8,M,,*6A
2023-06-23T22:34:50.9265508Z, 6cda8203-a249-e411-b0cc-f8bc1246af59, $GPGGA,223450.00,4437.5851,N,12402.8882,W,2,12,0.8,27.6,M,-21.8,M,,*63
2023-06-23T22:34:51.6467625Z, 6cda8203-a249-e411-b0cc-f8bc1246af59, $GPGGA,223451.00,4437.5851,N,12402.8883,W,2,12,0.8,27.5,M,-21.8,M,,*60
2023-06-23T22:34:53.0870220Z, 6cda8203-a249-e411-b0cc-f8bc1246af59, $GPGGA,223452.00,4437.5852,N,12402.8883,W,2,12,0.8,27.5,M,-21.8,M,,*60
2023-06-23T22:34:53.4174929Z, 6cda8203-a249-e411-b0cc-f8bc1246af59, $GPGGA,223453.00,4437.5851,N,12402.8883,W,2,12,0.8,27.5,M,-21.8,M,,*62
2023-06-23T22:34:54.3769687Z, 6cda8203-a249-e411-b0cc-f8bc1246af59, $GPGGA,223454.00,4437.5852,N,12402.8883,W,2,12,0.8,27.5,M,-21.8,M,,*66
2023-06-23T22:34:56.0875887Z, 6cda8203-a249-e411-b0cc-f8bc1246af59, $GPGGA,223455.00,4437.5852,N,12402.8884,W,2,12,0.8,27.5,M,-21.8,M,,*60
2023-06-23T22:34:56.4071893Z, 6cda8203-a249-e411-b0cc-f8bc1246af59, $GPGGA,223456.00,4437.5852,N,12402.8884,W,2,12,0.8,27.5,M,-21.8,M,,*63
2023-06-23T22:34:57.8672948Z, 6cda8203-a249-e411-b0cc-f8bc1246af59, $GPGGA,223457.00,4437.5852,N,12402.8884,W,2,12,0.8,27.5,M,-21.8,M,,*62
2023-06-23T22:34:58.3972675Z, 6cda8203-a249-e411-b0cc-f8bc1246af59, $GPGGA,223458.00,4437.5852,N,12402.8885,W,2,12,0.8,27.5,M,-21.8,M,,*6C
2023-06-23T22:35:00.0871238Z, 6cda8203-a249-e411-b0cc-f8bc1246af59, $GPGGA,223459.00,4437.5852,N,12402.8885,W,2,12,0.8,27.5,M,-21.8,M,,*6D
2023-06-23T22:35:00.4076816Z, 6cda8203-a249-e411-b0cc-f8bc1246af59, $GPGGA,223500.00,4437.5852,N,12402.8885,W,2,12,0.8,27.4,M,-21.8,M,,*61
2023-06-23T22:35:01.3774992Z, 6cda8203-a249-e411-b0cc-f8bc1246af59, $GPGGA,223501.00,4437.5852,N,12402.8885,W,2,12,0.8,27.4,M,-21.8,M,,*60
2023-06-23T22:35:03.3179086Z, 6cda8203-a249-e411-b0cc-f8bc1246af59, $GPGGA,223502.00,4437.5853,N,12402.8885,W,2,12,0.8,27.4,M,-21.8,M,,*62
2023-06-23T22:35:03.6475052Z, 6cda8203-a249-e411-b0cc-f8bc1246af59, $GPGGA,223503.00,4437.5852,N,12402.8885,W,2,12,0.8,27.4,M,-21.8,M,,*62
2023-06-23T22:35:04.3882527Z, 6cda8203-a249-e411-b0cc-f8bc1246af59, $GPGGA,223504.00,4437.5853,N,12402.8886,W,2,12,0.8,27.4,M,-21.8,M,,*67
2023-06-23T22:35:05.4018702Z, 6cda8203-a249-e411-b0cc-f8bc1246af59, $GPGGA,223505.00,4437.5853,N,12402.8885,W,2,12,0.8,27.4,M,-21.8,M,,*65
2023-06-23T22:35:06.3875705Z, 6cda8203-a249-e411-b0cc-f8bc1246af59, $GPGGA,223506.00,4437.5853,N,12402.8886,W,2,12,0.8,27.4,M,-21.8,M,,*65
2023-06-23T22:35:08.0882620Z, 6cda8203-a249-e411-b0cc-f8bc1246af59, $GPGGA,223507.00,4437.5853,N,12402.8886,W,2,12,0.8,27.4,M,-21.8,M,,*64
2023-06-23T22:35:08.4078857Z, 6cda8203-a249-e411-b0cc-f8bc1246af59, $GPGGA,223508.00,4437.5853,N,12402.8886,W,2,12,0.8,27.3,M,-21.8,M,,*6C
2023-06-23T22:35:11.0882611Z, 6cda8203-a249-e411-b0cc-f8bc1246af59, $GPGGA,223510.00,4437.5853,N,12402.8886,W,2,12,0.8,27.3,M,-21.8,M,,*65
2023-06-23T22:35:11.4081081Z, 6cda8203-a249-e411-b0cc-f8bc1246af59, $GPGGA,223511.00,4437.5852,N,12402.8886,W,2,12,0.8,27.3,M,-21.8,M,,*65
2023-06-23T22:35:12.3884558Z, 6cda8203-a249-e411-b0cc-f8bc1246af59, $GPGGA,223512.00,4437.5852,N,12402.8886,W,2,12,0.8,27.3,M,-21.8,M,,*66
2023-06-23T22:35:13.4080272Z, 6cda8203-a249-e411-b0cc-f8bc1246af59, $GPGGA,223513.00,4437.5852,N,12402.8886,W,2,12,0.8,27.2,M,-21.8,M,,*66
2023-06-23T22:35:15.0932282Z, 6cda8203-a249-e411-b0cc-f8bc1246af59, $GPGGA,223514.00,4437.5852,N,12402.8886,W,2,12,0.8,27.2,M,-21.8,M,,*61
2023-06-23T22:35:15.8486666Z, 6cda8203-a249-e411-b0cc-f8bc1246af59, $GPGGA,223515.00,4437.5852,N,12402.8886,W,2,12,0.8,27.2,M,-21.8,M,,*60
2023-06-23T22:35:16.3916785Z, 6cda8203-a249-e411-b0cc-f8bc1246af59, $GPGGA,223516.00,4437.5852,N,12402.8886,W,2,12,0.8,27.2,M,-21.8,M,,*63
2023-06-23T22:35:17.3888501Z, 6cda8203-a249-e411-b0cc-f8bc1246af59, $GPGGA,223517.00,4437.5853,N,12402.8886,W,2,12,0.8,27.2,M,-21.8,M,,*63
2023-06-23T22:35:18.4084175Z, 6cda8203-a249-e411-b0cc-f8bc1246af59, $GPGGA,223518.00,4437.5852,N,12402.8886,W,2,12,0.8,27.1,M,-21.8,M,,*6E
2023-06-23T22:35:19.3892078Z, 6cda8203-a249-e411-b0cc-f8bc1246af59, $GPGGA,223519.00,4437.5852,N,12402.8886,W,2,12,0.8,27.1,M,-21.8,M,,*6F
2023-06-23T22:35:21.0886526Z, 6cda8203-a249-e411-b0cc-f8bc1246af59, $GPGGA,223520.00,4437.5853,N,12402.8886,W,2,12,0.8,27.1,M,-21.8,M,,*64
2023-06-23T22:35:21.4087785Z, 6cda8203-a249-e411-b0cc-f8bc1246af59, $GPGGA,223521.00,4437.5852,N,12402.8887,W,2,12,0.8,27.0,M,-21.8,M,,*64
2023-06-23T22:35:22.7093372Z, 6cda8203-a249-e411-b0cc-f8bc1246af59, $GPGGA,223522.00,4437.5853,N,12402.8886,W,2,12,0.8,27.0,M,-21.8,M,,*67
2023-06-23T22:35:23.4095058Z, 6cda8203-a249-e411-b0cc-f8bc1246af59, $GPGGA,223523.00,4437.5852,N,12402.8887,W,2,12,0.8,27.0,M,-21.8,M,,*66
2023-06-23T22:35:24.3889430Z, 6cda8203-a249-e411-b0cc-f8bc1246af59, $GPGGA,223524.00,4437.5853,N,12402.8887,W,2,12,0.8,27.0,M,-21.8,M,,*60
2023-06-23T22:35:26.0889212Z, 6cda8203-a249-e411-b0cc-f8bc1246af59, $GPGGA,223525.00,4437.5853,N,12402.8887,W,2,12,0.8,27.0,M,-21.8,M,,*61
2023-06-23T22:35:26.4091110Z, 6cda8203-a249-e411-b0cc-f8bc1246af59, $GPGGA,223526.00,4437.5853,N,12402.8887,W,2,12,0.8,26.9,M,-21.8,M,,*6A
2023-06-23T22:35:27.3895209Z, 6cda8203-a249-e411-b0cc-f8bc1246af59, $GPGGA,223527.00,4437.5853,N,12402.8887,W,2,12,0.8,26.9,M,-21.8,M,,*6B
2023-06-23T22:35:28.4797689Z, 6cda8203-a249-e411-b0cc-f8bc1246af59, $GPGGA,223528.00,4437.5853,N,12402.8886,W,2,12,0.8,26.9,M,-21.8,M,,*65
2023-06-23T22:35:29.3990959Z, 6cda8203-a249-e411-b0cc-f8bc1246af59, $GPGGA,223529.00,4437.5852,N,12402.8886,W,2,12,0.8,26.9,M,-21.8,M,,*65
2023-06-23T22:35:30.3997529Z, 6cda8203-a249-e411-b0cc-f8bc1246af59, $GPGGA,223530.00,4437.5853,N,12402.8886,W,2,12,0.8,26.9,M,-21.8,M,,*6C
2023-06-23T22:35:31.4193413Z, 6cda8203-a249-e411-b0cc-f8bc1246af59, $GPGGA,223531.00,4437.5853,N,12402.8886,W,2,12,0.8,26.8,M,-21.8,M,,*6C
2023-06-23T22:35:33.0900099Z, 6cda8203-a249-e411-b0cc-f8bc1246af59, $GPGGA,223532.00,4437.5852,N,12402.8886,W,2,12,0.8,26.8,M,-21.8,M,,*6E
2023-06-23T22:35:33.7500809Z, 6cda8203-a249-e411-b0cc-f8bc1246af59, $GPGGA,223533.00,4437.5853,N,12402.8886,W,2,12,0.8,26.8,M,-21.8,M,,*6E
2023-06-23T22:35:34.4003355Z, 6cda8203-a249-e411-b0cc-f8bc1246af59, $GPGGA,223534.00,4437.5852,N,12402.8885,W,2,12,0.8,26.8,M,-21.8,M,,*6B
2023-06-23T22:35:35.7295932Z, 6cda8203-a249-e411-b0cc-f8bc1246af59, $GPGGA,223535.00,4437.5853,N,12402.8886,W,2,12,0.8,26.8,M,-21.8,M,,*68
2023-06-23T22:35:36.3997137Z, 6cda8203-a249-e411-b0cc-f8bc1246af59, $GPGGA,223536.00,4437.5853,N,12402.8886,W,2,12,0.8,26.8,M,-21.8,M,,*6B
2023-06-23T22:35:37.4004842Z, 6cda8203-a249-e411-b0cc-f8bc1246af59, $GPGGA,223537.00,4437.5853,N,12402.8885,W,2,12,0.8,26.7,M,-21.8,M,,*66
2023-06-23T22:35:38.3999438Z, 6cda8203-a249-e411-b0cc-f8bc1246af59, $GPGGA,223538.00,4437.5853,N,12402.8885,W,2,12,0.8,26.7,M,-21.8,M,,*69
2023-06-23T22:35:39.4006130Z, 6cda8203-a249-e411-b0cc-f8bc1246af59, $GPGGA,223539.00,4437.5852,N,12402.8885,W,2,12,0.8,26.7,M,-21.8,M,,*69
2023-06-23T22:35:40.4003610Z, 6cda8203-a249-e411-b0cc-f8bc1246af59, $GPGGA,223540.00,4437.5852,N,12402.8884,W,2,12,0.8,26.7,M,-21.8,M,,*66
2023-06-23T22:35:42.4110219Z, 6cda8203-a249-e411-b0cc-f8bc1246af59, $GPGGA,223541.00,4437.5851,N,12402.8883,W,2,12,0.8,26.7,M,-21.8,M,,*63
2023-06-23T22:35:43.0910435Z, 6cda8203-a249-e411-b0cc-f8bc1246af59, $GPGGA,223542.00,4437.5851,N,12402.8883,W,2,12,0.8,26.7,M,-21.8,M,,*60
2023-06-23T22:35:43.7501627Z, 6cda8203-a249-e411-b0cc-f8bc1246af59, $GPGGA,223543.00,4437.5851,N,12402.8883,W,2,12,0.8,26.7,M,-21.8,M,,*61
2023-06-23T22:35:45.0908496Z, 6cda8203-a249-e411-b0cc-f8bc1246af59, $GPGGA,223544.00,4437.5851,N,12402.8882,W,2,12,0.8,26.7,M,-21.8,M,,*67
2023-06-23T22:35:45.8005553Z, 6cda8203-a249-e411-b0cc-f8bc1246af59, $GPGGA,223545.00,4437.5850,N,12402.8882,W,2,12,0.8,26.7,M,-21.8,M,,*67
2023-06-23T22:35:47.0909729Z, 6cda8203-a249-e411-b0cc-f8bc1246af59, $GPGGA,223546.00,4437.5851,N,12402.8882,W,2,12,0.8,26.6,M,-21.8,M,,*64
2023-06-23T22:35:47.7505387Z, 6cda8203-a249-e411-b0cc-f8bc1246af59, $GPGGA,223547.00,4437.5850,N,12402.8882,W,2,12,0.8,26.6,M,-21.8,M,,*64
2023-06-23T22:35:49.0909857Z, 6cda8203-a249-e411-b0cc-f8bc1246af59, $GPGGA,223548.00,4437.5851,N,12402.8882,W,2,12,0.8,26.6,M,-21.8,M,,*6A
2023-06-23T22:35:49.7512088Z, 6cda8203-a249-e411-b0cc-f8bc1246af59, $GPGGA,223549.00,4437.5850,N,12402.8882,W,2,12,0.8,26.6,M,-21.8,M,,*6A
2023-06-23T22:35:50.4314863Z, 6cda8203-a249-e411-b0cc-f8bc1246af59, $GPGGA,223550.00,4437.5851,N,12402.8882,W,2,12,0.8,26.5,M,-21.8,M,,*60
2023-06-23T22:35:52.0909075Z, 6cda8203-a249-e411-b0cc-f8bc1246af59, $GPGGA,223551.00,4437.5850,N,12402.8881,W,2,12,0.8,26.5,M,-21.8,M,,*63
2023-06-23T22:35:52.7510437Z, 6cda8203-a249-e411-b0cc-f8bc1246af59, $GPGGA,223552.00,4437.5850,N,12402.8881,W,2,12,0.8,26.5,M,-21.8,M,,*60
2023-06-23T22:35:54.0909163Z, 6cda8203-a249-e411-b0cc-f8bc1246af59, $GPGGA,223553.00,4437.5850,N,12402.8881,W,2,12,0.8,26.5,M,-21.8,M,,*61
2023-06-23T22:35:54.7611394Z, 6cda8203-a249-e411-b0cc-f8bc1246af59, $GPGGA,223554.00,4437.5850,N,12402.8880,W,2,12,0.8,26.5,M,-21.8,M,,*67
2023-06-23T22:35:56.0913694Z, 6cda8203-a249-e411-b0cc-f8bc1246af59, $GPGGA,223555.00,4437.5851,N,12402.8880,W,2,12,0.8,26.4,M,-21.8,M,,*66
2023-06-23T22:35:56.7619300Z, 6cda8203-a249-e411-b0cc-f8bc1246af59, $GPGGA,223556.00,4437.5851,N,12402.8880,W,2,12,0.8,26.4,M,-21.8,M,,*65
2023-06-23T22:35:58.0917896Z, 6cda8203-a249-e411-b0cc-f8bc1246af59, $GPGGA,223557.00,4437.5851,N,12402.8880,W,2,12,0.8,26.4,M,-21.8,M,,*64
2023-06-23T22:35:58.7620011Z, 6cda8203-a249-e411-b0cc-f8bc1246af59, $GPGGA,223558.00,4437.5851,N,12402.8880,W,2,12,0.8,26.4,M,-21.8,M,,*6B
2023-06-23T22:36:00.0937431Z, 6cda8203-a249-e411-b0cc-f8bc1246af59, $GPGGA,223559.00,4437.5851,N,12402.8879,W,2,12,0.8,26.3,M,-21.8,M,,*6B
2023-06-23T22:36:00.7119373Z, 6cda8203-a249-e411-b0cc-f8bc1246af59, $GPGGA,223600.00,4437.5851,N,12402.8879,W,2,12,0.8,26.3,M,-21.8,M,,*64
2023-06-23T22:36:01.4119099Z, 6cda8203-a249-e411-b0cc-f8bc1246af59, $GPGGA,223601.00,4437.5851,N,12402.8878,W,2,12,0.8,26.3,M,-21.8,M,,*64
2023-06-23T22:36:03.0916381Z, 6cda8203-a249-e411-b0cc-f8bc1246af59, $GPGGA,223602.00,4437.5852,N,12402.8878,W,2,12,0.8,26.3,M,-21.8,M,,*64
2023-06-23T22:36:03.7616852Z, 6cda8203-a249-e411-b0cc-f8bc1246af59, $GPGGA,223603.00,4437.5851,N,12402.8877,W,2,12,0.8,26.2,M,-21.8,M,,*68
2023-06-23T22:36:05.1818029Z, 6cda8203-a249-e411-b0cc-f8bc1246af59, $GPGGA,223604.00,4437.5852,N,12402.8877,W,2,12,0.8,26.2,M,-21.8,M,,*6C
2023-06-23T22:36:05.7124214Z, 6cda8203-a249-e411-b0cc-f8bc1246af59, $GPGGA,223605.00,4437.5852,N,12402.8876,W,2,12,0.8,26.2,M,-21.8,M,,*6C
2023-06-23T22:36:06.4124095Z, 6cda8203-a249-e411-b0cc-f8bc1246af59, $GPGGA,223606.00,4437.5852,N,12402.8875,W,2,12,0.8,26.2,M,-21.8,M,,*6C
2023-06-23T22:36:08.0922186Z, 6cda8203-a249-e411-b0cc-f8bc1246af59, $GPGGA,223607.00,4437.5852,N,12402.8875,W,2,12,0.8,26.2,M,-21.8,M,,*6D
2023-06-23T22:36:08.7622912Z, 6cda8203-a249-e411-b0cc-f8bc1246af59, $GPGGA,223608.00,4437.5852,N,12402.8875,W,2,12,0.8,26.2,M,-21.8,M,,*62
2023-06-23T22:36:10.0923923Z, 6cda8203-a249-e411-b0cc-f8bc1246af59, $GPGGA,223609.00,4437.5852,N,12402.8874,W,2,12,0.8,26.1,M,-21.8,M,,*61
2023-06-23T22:36:10.7627323Z, 6cda8203-a249-e411-b0cc-f8bc1246af59, $GPGGA,223610.00,4437.5852,N,12402.8873,W,2,12,0.8,26.1,M,-21.8,M,,*6E
2023-06-23T22:36:12.0930310Z, 6cda8203-a249-e411-b0cc-f8bc1246af59, $GPGGA,223611.00,4437.5852,N,12402.8873,W,2,12,0.8,26.1,M,-21.8,M,,*6F
2023-06-23T22:36:12.7630425Z, 6cda8203-a249-e411-b0cc-f8bc1246af59, $GPGGA,223612.00,4437.5852,N,12402.8872,W,2,12,0.8,26.1,M,-21.8,M,,*6D
2023-06-23T22:36:14.0929160Z, 6cda8203-a249-e411-b0cc-f8bc1246af59, $GPGGA,223613.00,4437.5852,N,12402.8872,W,2,12,0.8,26.1,M,-21.8,M,,*6C
2023-06-23T22:36:14.7631771Z, 6cda8203-a249-e411-b0cc-f8bc1246af59, $GPGGA,223614.00,4437.5852,N,12402.8872,W,2,12,0.8,26.1,M,-21.8,M,,*6B
2023-06-23T22:36:15.4424938Z, 6cda8203-a249-e411-b0cc-f8bc1246af59, $GPGGA,223615.00,4437.5852,N,12402.8871,W,2,12,0.8,26.1,M,-21.8,M,,*69
2023-06-23T22:36:17.0935071Z, 6cda8203-a249-e411-b0cc-f8bc1246af59, $GPGGA,223616.00,4437.5852,N,12402.8871,W,2,12,0.8,26.1,M,-21.8,M,,*6A
2023-06-23T22:36:17.4127124Z, 6cda8203-a249-e411-b0cc-f8bc1246af59, $GPGGA,223617.00,4437.5852,N,12402.8871,W,2,12,0.8,26.0,M,-21.8,M,,*6A
2023-06-23T22:36:18.4132993Z, 6cda8203-a249-e411-b0cc-f8bc1246af59, $GPGGA,223618.00,4437.5852,N,12402.8870,W,2,12,0.8,26.0,M,-21.8,M,,*64
2023-06-23T22:36:20.0927927Z, 6cda8203-a249-e411-b0cc-f8bc1246af59, $GPGGA,223619.00,4437.5852,N,12402.8869,W,2,12,0.8,26.0,M,-21.8,M,,*6D
2023-06-23T22:36:20.4135660Z, 6cda8203-a249-e411-b0cc-f8bc1246af59, $GPGGA,223620.00,4437.5852,N,12402.8869,W,2,12,0.8,26.0,M,-21.8,M,,*67
2023-06-23T22:36:21.4231692Z, 6cda8203-a249-e411-b0cc-f8bc1246af59, $GPGGA,223621.00,4437.5851,N,12402.8868,W,2,12,0.8,26.0,M,-21.8,M,,*64
2023-06-23T22:36:23.0933288Z, 6cda8203-a249-e411-b0cc-f8bc1246af59, $GPGGA,223622.00,4437.5852,N,12402.8868,W,2,12,0.8,26.0,M,-21.8,M,,*64
2023-06-23T22:36:23.4238589Z, 6cda8203-a249-e411-b0cc-f8bc1246af59, $GPGGA,223623.00,4437.5851,N,12402.8867,W,2,12,0.8,26.0,M,-21.8,M,,*69
2023-06-23T22:36:24.4234005Z, 6cda8203-a249-e411-b0cc-f8bc1246af59, $GPGGA,223624.00,4437.5851,N,12402.8867,W,2,12,0.8,26.0,M,-21.8,M,,*6E
2023-06-23T22:36:26.0936787Z, 6cda8203-a249-e411-b0cc-f8bc1246af59, $GPGGA,223625.00,4437.5851,N,12402.8867,W,2,12,0.8,26.0,M,-21.8,M,,*6F
2023-06-23T22:36:26.4231597Z, 6cda8203-a249-e411-b0cc-f8bc1246af59, $GPGGA,223626.00,4437.5851,N,12402.8867,W,2,12,0.8,26.0,M,-21.8,M,,*6C
2023-06-23T22:36:28.0939412Z, 6cda8203-a249-e411-b0cc-f8bc1246af59, $GPGGA,223627.00,4437.5851,N,12402.8866,W,2,12,0.8,26.0,M,-21.8,M,,*6C
2023-06-23T22:36:28.4234690Z, 6cda8203-a249-e411-b0cc-f8bc1246af59, $GPGGA,223628.00,4437.5851,N,12402.8866,W,2,12,0.8,26.0,M,-21.8,M,,*63
2023-06-23T22:36:29.4241327Z, 6cda8203-a249-e411-b0cc-f8bc1246af59, $GPGGA,223629.00,4437.5852,N,12402.8866,W,2,12,0.8,26.0,M,-21.8,M,,*61
2023-06-23T22:36:31.0936834Z, 6cda8203-a249-e411-b0cc-f8bc1246af59, $GPGGA,223630.00,4437.5852,N,12402.8866,W,2,12,0.8,26.0,M,-21.8,M,,*69
2023-06-23T22:36:31.4242055Z, 6cda8203-a249-e411-b0cc-f8bc1246af59, $GPGGA,223631.00,4437.5853,N,12402.8866,W,2,12,0.8,26.1,M,-21.8,M,,*68
2023-06-23T22:36:33.0944060Z, 6cda8203-a249-e411-b0cc-f8bc1246af59, $GPGGA,223632.00,4437.5854,N,12402.8866,W,2,12,0.8,26.2,M,-21.8,M,,*6F
2023-06-23T22:36:33.4239315Z, 6cda8203-a249-e411-b0cc-f8bc1246af59, $GPGGA,223633.00,4437.5855,N,12402.8866,W,2,12,0.8,26.3,M,-21.8,M,,*6E
2023-06-23T22:36:34.4246710Z, 6cda8203-a249-e411-b0cc-f8bc1246af59, $GPGGA,223634.00,4437.5856,N,12402.8864,W,2,12,0.8,26.3,M,-21.8,M,,*68
2023-06-23T22:36:35.4242955Z, 6cda8203-a249-e411-b0cc-f8bc1246af59, $GPGGA,223635.00,4437.5856,N,12402.8864,W,2,12,0.8,26.4,M,-21.8,M,,*6E
2023-06-23T22:36:36.4639915Z, 6cda8203-a249-e411-b0cc-f8bc1246af59, $GPGGA,223636.00,4437.5856,N,12402.8863,W,2,12,0.8,26.5,M,-21.8,M,,*6B
2023-06-23T22:36:38.0944259Z, 6cda8203-a249-e411-b0cc-f8bc1246af59, $GPGGA,223637.00,4437.5857,N,12402.8863,W,2,12,0.8,26.5,M,-21.8,M,,*6B
2023-06-23T22:36:38.4241284Z, 6cda8203-a249-e411-b0cc-f8bc1246af59, $GPGGA,223638.00,4437.5857,N,12402.8862,W,2,12,0.8,26.5,M,-21.8,M,,*65
2023-06-23T22:36:39.4248173Z, 6cda8203-a249-e411-b0cc-f8bc1246af59, $GPGGA,223639.00,4437.5857,N,12402.8861,W,2,12,0.8,26.5,M,-21.8,M,,*67
2023-06-23T22:36:41.2147271Z, 6cda8203-a249-e411-b0cc-f8bc1246af59, $GPGGA,223640.00,4437.5857,N,12402.8861,W,2,12,0.8,26.5,M,-21.8,M,,*69
2023-06-23T22:36:41.6448434Z, 6cda8203-a249-e411-b0cc-f8bc1246af59, $GPGGA,223641.00,4437.5857,N,12402.8860,W,2,12,0.8,26.5,M,-21.8,M,,*69
2023-06-23T22:36:42.4242669Z, 6cda8203-a249-e411-b0cc-f8bc1246af59, $GPGGA,223642.00,4437.5858,N,12402.8860,W,2,12,0.8,26.5,M,-21.8,M,,*65
2023-06-23T22:36:43.4251863Z, 6cda8203-a249-e411-b0cc-f8bc1246af59, $GPGGA,223643.00,4437.5858,N,12402.8859,W,2,12,0.8,26.4,M,-21.8,M,,*6F
2023-06-23T22:36:44.4343763Z, 6cda8203-a249-e411-b0cc-f8bc1246af59, $GPGGA,223644.00,4437.5858,N,12402.8858,W,2,12,0.8,26.4,M,-21.8,M,,*69
2023-06-23T22:36:46.0953911Z, 6cda8203-a249-e411-b0cc-f8bc1246af59, $GPGGA,223645.00,4437.5858,N,12402.8858,W,2,12,0.8,26.4,M,-21.8,M,,*68
2023-06-23T22:36:46.4348873Z, 6cda8203-a249-e411-b0cc-f8bc1246af59, $GPGGA,223646.00,4437.5858,N,12402.8857,W,2,12,0.8,26.4,M,-21.8,M,,*64
2023-06-23T22:36:47.4349183Z, 6cda8203-a249-e411-b0cc-f8bc1246af59, $GPGGA,223647.00,4437.5859,N,12402.8856,W,2,12,0.8,26.3,M,-21.8,M,,*62
2023-06-23T22:36:49.0949237Z, 6cda8203-a249-e411-b0cc-f8bc1246af59, $GPGGA,223648.00,4437.5858,N,12402.8855,W,2,12,0.8,26.3,M,-21.8,M,,*6F
2023-06-23T22:36:49.4357422Z, 6cda8203-a249-e411-b0cc-f8bc1246af59, $GPGGA,223649.00,4437.5859,N,12402.8855,W,2,12,0.8,26.3,M,-21.8,M,,*6F
2023-06-23T22:36:50.4352957Z, 6cda8203-a249-e411-b0cc-f8bc1246af59, $GPGGA,223650.00,4437.5859,N,12402.8855,W,2,12,0.8,26.3,M,-21.8,M,,*67
2023-06-23T22:36:51.4354558Z, 6cda8203-a249-e411-b0cc-f8bc1246af59, $GPGGA,223651.00,4437.5859,N,12402.8854,W,2,12,0.8,26.3,M,-21.8,M,,*67
2023-06-23T22:36:53.0952667Z, 6cda8203-a249-e411-b0cc-f8bc1246af59, $GPGGA,223652.00,4437.5859,N,12402.8854,W,2,12,0.8,26.3,M,-21.8,M,,*64
2023-06-23T22:36:53.4357845Z, 6cda8203-a249-e411-b0cc-f8bc1246af59, $GPGGA,223653.00,4437.5859,N,12402.8854,W,2,12,0.8,26.3,M,-21.8,M,,*65
2023-06-23T22:36:54.4354333Z, 6cda8203-a249-e411-b0cc-f8bc1246af59, $GPGGA,223654.00,4437.5859,N,12402.8854,W,2,12,0.8,26.3,M,-21.8,M,,*62
2023-06-23T22:36:56.0954205Z, 6cda8203-a249-e411-b0cc-f8bc1246af59, $GPGGA,223655.00,4437.5859,N,12402.8854,W,2,12,0.8,26.3,M,-21.8,M,,*63
2023-06-23T22:36:56.4359295Z, 6cda8203-a249-e411-b0cc-f8bc1246af59, $GPGGA,223656.00,4437.5858,N,12402.8854,W,2,12,0.8,26.3,M,-21.8,M,,*61
2023-06-23T22:36:57.4355844Z, 6cda8203-a249-e411-b0cc-f8bc1246af59, $GPGGA,223657.00,4437.5858,N,12402.8854,W,2,12,0.8,26.3,M,-21.8,M,,*60
2023-06-23T22:36:58.4355624Z, 6cda8203-a249-e411-b0cc-f8bc1246af59, $GPGGA,223658.00,4437.5858,N,12402.8853,W,2,12,0.8,26.3,M,-21.8,M,,*68
2023-06-23T22:37:00.0456214Z, 6cda8203-a249-e411-b0cc-f8bc1246af59, $GPGGA,223659.00,4437.5857,N,12402.8854,W,2,12,0.8,26.3,M,-21.8,M,,*61
2023-06-23T22:37:01.0965768Z, 6cda8203-a249-e411-b0cc-f8bc1246af59, $GPGGA,223700.00,4437.5857,N,12402.8853,W,2,12,0.8,26.3,M,-21.8,M,,*6B
2023-06-23T22:37:01.4360845Z, 6cda8203-a249-e411-b0cc-f8bc1246af59, $GPGGA,223701.00,4437.5857,N,12402.8853,W,2,12,0.8,26.3,M,-21.8,M,,*6A
2023-06-23T22:37:02.4360333Z, 6cda8203-a249-e411-b0cc-f8bc1246af59, $GPGGA,223702.00,4437.5856,N,12402.8854,W,2,12,0.8,26.3,M,-21.8,M,,*6F
2023-06-23T22:37:03.4367111Z, 6cda8203-a249-e411-b0cc-f8bc1246af59, $GPGGA,223703.00,4437.5856,N,12402.8853,W,2,12,0.8,26.3,M,-21.8,M,,*69
2023-06-23T22:37:04.4364209Z, 6cda8203-a249-e411-b0cc-f8bc1246af59, $GPGGA,223704.00,4437.5855,N,12402.8853,W,2,12,0.8,26.3,M,-21.8,M,,*6D
2023-06-23T22:37:06.0962848Z, 6cda8203-a249-e411-b0cc-f8bc1246af59, $GPGGA,223705.00,4437.5855,N,12402.8854,W,2,12,0.8,26.3,M,-21.8,M,,*6B
2023-06-23T22:37:06.8768472Z, 6cda8203-a249-e411-b0cc-f8bc1246af59, $GPGGA,223706.00,4437.5854,N,12402.8854,W,2,12,0.8,26.3,M,-21.8,M,,*69
2023-06-23T22:37:07.4364341Z, 6cda8203-a249-e411-b0cc-f8bc1246af59, $GPGGA,223707.00,4437.5854,N,12402.8854,W,2,12,0.8,26.3,M,-21.8,M,,*68
2023-06-23T22:37:08.4371684Z, 6cda8203-a249-e411-b0cc-f8bc1246af59, $GPGGA,223708.00,4437.5854,N,12402.8854,W,2,12,0.8,26.3,M,-21.8,M,,*67
2023-06-23T22:37:09.4370203Z, 6cda8203-a249-e411-b0cc-f8bc1246af59, $GPGGA,223709.00,4437.5854,N,12402.8854,W,2,12,0.8,26.3,M,-21.8,M,,*66
2023-06-23T22:37:11.0972793Z, 6cda8203-a249-e411-b0cc-f8bc1246af59, $GPGGA,223710.00,4437.5854,N,12402.8854,W,2,12,0.8,26.3,M,-21.8,M,,*6E
2023-06-23T22:37:11.4466852Z, 6cda8203-a249-e411-b0cc-f8bc1246af59, $GPGGA,223711.00,4437.5853,N,12402.8855,W,2,12,0.8,26.3,M,-21.8,M,,*69
2023-06-23T22:37:12.9165316Z, 6cda8203-a249-e411-b0cc-f8bc1246af59, $GPGGA,223712.00,4437.5853,N,12402.8855,W,2,12,0.8,26.3,M,-21.8,M,,*6A
2023-06-23T22:37:14.0971829Z, 6cda8203-a249-e411-b0cc-f8bc1246af59, $GPGGA,223713.00,4437.5853,N,12402.8855,W,2,12,0.8,26.4,M,-21.8,M,,*6C
2023-06-23T22:37:14.4466551Z, 6cda8203-a249-e411-b0cc-f8bc1246af59, $GPGGA,223714.00,4437.5853,N,12402.8855,W,2,12,0.8,26.4,M,-21.8,M,,*6B
2023-06-23T22:37:15.4471614Z, 6cda8203-a249-e411-b0cc-f8bc1246af59, $GPGGA,223715.00,4437.5853,N,12402.8855,W,2,12,0.8,26.4,M,-21.8,M,,*6A
2023-06-23T22:37:16.4470485Z, 6cda8203-a249-e411-b0cc-f8bc1246af59, $GPGGA,223716.00,4437.5853,N,12402.8856,W,2,12,0.8,26.4,M,-21.8,M,,*6A
2023-06-23T22:37:17.4473457Z, 6cda8203-a249-e411-b0cc-f8bc1246af59, $GPGGA,223717.00,4437.5853,N,12402.8855,W,2,12,0.8,26.4,M,-21.8,M,,*68
2023-06-23T22:37:19.2776325Z, 6cda8203-a249-e411-b0cc-f8bc1246af59, $GPGGA,223718.00,4437.5853,N,12402.8856,W,2,12,0.8,26.4,M,-21.8,M,,*64
2023-06-23T22:37:19.6569035Z, 6cda8203-a249-e411-b0cc-f8bc1246af59, $GPGGA,223719.00,4437.5853,N,12402.8856,W,2,12,0.8,26.4,M,-21.8,M,,*65
2023-06-23T22:37:20.4475152Z, 6cda8203-a249-e411-b0cc-f8bc1246af59, $GPGGA,223720.00,4437.5853,N,12402.8856,W,2,12,0.8,26.4,M,-21.8,M,,*6F
2023-06-23T22:37:21.4472005Z, 6cda8203-a249-e411-b0cc-f8bc1246af59, $GPGGA,223721.00,4437.5853,N,12402.8857,W,2,12,0.8,26.4,M,-21.8,M,,*6F
2023-06-23T22:37:22.4478057Z, 6cda8203-a249-e411-b0cc-f8bc1246af59, $GPGGA,223722.00,4437.5853,N,12402.8857,W,2,12,0.8,26.4,M,-21.8,M,,*6C
2023-06-23T22:37:24.0976084Z, 6cda8203-a249-e411-b0cc-f8bc1246af59, $GPGGA,223723.00,4437.5853,N,12402.8857,W,2,12,0.8,26.4,M,-21.8,M,,*6D
2023-06-23T22:37:24.4473374Z, 6cda8203-a249-e411-b0cc-f8bc1246af59, $GPGGA,223724.00,4437.5853,N,12402.8857,W,2,12,0.8,26.4,M,-21.8,M,,*6A
2023-06-23T22:37:25.4482890Z, 6cda8203-a249-e411-b0cc-f8bc1246af59, $GPGGA,223725.00,4437.5853,N,12402.8858,W,2,12,0.8,26.4,M,-21.8,M,,*64
2023-06-23T22:37:26.4478302Z, 6cda8203-a249-e411-b0cc-f8bc1246af59, $GPGGA,223726.00,4437.5854,N,12402.8858,W,2,12,0.8,26.4,M,-21.8,M,,*60
2023-06-23T22:37:27.4476252Z, 6cda8203-a249-e411-b0cc-f8bc1246af59, $GPGGA,223727.00,4437.5854,N,12402.8858,W,2,12,0.8,26.4,M,-21.8,M,,*61
2023-06-23T22:37:28.4483019Z, 6cda8203-a249-e411-b0cc-f8bc1246af59, $GPGGA,223728.00,4437.5854,N,12402.8858,W,2,12,0.8,26.3,M,-21.8,M,,*69
2023-06-23T22:37:29.4476775Z, 6cda8203-a249-e411-b0cc-f8bc1246af59, $GPGGA,223729.00,4437.5854,N,12402.8858,W,2,12,0.8,26.3,M,-21.8,M,,*68
2023-06-23T22:37:30.4478860Z, 6cda8203-a249-e411-b0cc-f8bc1246af59, $GPGGA,223730.00,4437.5854,N,12402.8858,W,2,12,0.8,26.3,M,-21.8,M,,*60
2023-06-23T22:37:31.4485311Z, 6cda8203-a249-e411-b0cc-f8bc1246af59, $GPGGA,223731.00,4437.5854,N,12402.8858,W,2,12,0.8,26.3,M,-21.8,M,,*61
2023-06-23T22:37:32.8684124Z, 6cda8203-a249-e411-b0cc-f8bc1246af59, $GPGGA,223732.00,4437.5854,N,12402.8858,W,2,12,0.8,26.2,M,-21.8,M,,*63
2023-06-23T22:37:34.0986311Z, 6cda8203-a249-e411-b0cc-f8bc1246af59, $GPGGA,223733.00,4437.5854,N,12402.8859,W,2,12,0.8,26.2,M,-21.8,M,,*63
2023-06-23T22:37:34.4580093Z, 6cda8203-a249-e411-b0cc-f8bc1246af59, $GPGGA,223734.00,4437.5854,N,12402.8858,W,2,12,0.8,26.2,M,-21.8,M,,*65
2023-06-23T22:37:35.4485161Z, 6cda8203-a249-e411-b0cc-f8bc1246af59, $GPGGA,223735.00,4437.5854,N,12402.8859,W,2,12,0.8,26.1,M,-21.8,M,,*66
2023-06-23T22:37:36.4890260Z, 6cda8203-a249-e411-b0cc-f8bc1246af59, $GPGGA,223736.00,4437.5855,N,12402.8859,W,2,12,0.8,26.1,M,-21.8,M,,*64
2023-06-23T22:37:37.5282484Z, 6cda8203-a249-e411-b0cc-f8bc1246af59, $GPGGA,223737.00,4437.5854,N,12402.8859,W,2,12,0.8,26.1,M,-21.8,M,,*64
2023-06-23T22:37:38.4587810Z, 6cda8203-a249-e411-b0cc-f8bc1246af59, $GPGGA,223738.00,4437.5855,N,12402.8859,W,2,12,0.8,26.0,M,-21.8,M,,*6B
2023-06-23T22:37:39.8091041Z, 6cda8203-a249-e411-b0cc-f8bc1246af59, $GPGGA,223739.00,4437.5855,N,12402.8860,W,2,12,0.8,26.0,M,-21.8,M,,*60
2023-06-23T22:37:40.4591608Z, 6cda8203-a249-e411-b0cc-f8bc1246af59, $GPGGA,223740.00,4437.5856,N,12402.8860,W,2,12,0.8,26.0,M,-21.8,M,,*6D
2023-06-23T22:37:41.4588286Z, 6cda8203-a249-e411-b0cc-f8bc1246af59, $GPGGA,223741.00,4437.5856,N,12402.8860,W,2,12,0.8,25.9,M,-21.8,M,,*66
2023-06-23T22:37:42.5391782Z, 6cda8203-a249-e411-b0cc-f8bc1246af59, $GPGGA,223742.00,4437.5857,N,12402.8861,W,2,12,0.8,25.9,M,-21.8,M,,*65
2023-06-23T22:37:43.4588214Z, 6cda8203-a249-e411-b0cc-f8bc1246af59, $GPGGA,223743.00,4437.5857,N,12402.8861,W,2,12,0.8,25.8,M,-21.8,M,,*65
2023-06-23T22:37:44.4589252Z, 6cda8203-a249-e411-b0cc-f8bc1246af59, $GPGGA,223744.00,4437.5858,N,12402.8862,W,2,12,0.8,25.8,M,-21.8,M,,*6E
2023-06-23T22:37:45.4595414Z, 6cda8203-a249-e411-b0cc-f8bc1246af59, $GPGGA,223745.00,4437.5858,N,12402.8862,W,2,12,0.8,25.7,M,-21.8,M,,*60
2023-06-23T22:37:46.8694583Z, 6cda8203-a249-e411-b0cc-f8bc1246af59, $GPGGA,223746.00,4437.5858,N,12402.8862,W,2,12,0.8,25.7,M,-21.8,M,,*63
2023-06-23T22:37:48.0991625Z, 6cda8203-a249-e411-b0cc-f8bc1246af59, $GPGGA,223747.00,4437.5859,N,12402.8863,W,2,12,0.8,25.6,M,-21.8,M,,*63
2023-06-23T22:37:48.4595830Z, 6cda8203-a249-e411-b0cc-f8bc1246af59, $GPGGA,223748.00,4437.5859,N,12402.8863,W,2,12,0.8,25.6,M,-21.8,M,,*6C
2023-06-23T22:37:49.4599696Z, 6cda8203-a249-e411-b0cc-f8bc1246af59, $GPGGA,223749.00,4437.5859,N,12402.8863,W,2,12,0.8,25.6,M,-21.8,M,,*6D
2023-06-23T22:37:51.0998534Z, 6cda8203-a249-e411-b0cc-f8bc1246af59, $GPGGA,223750.00,4437.5860,N,12402.8863,W,2,12,0.8,25.5,M,-21.8,M,,*6C
2023-06-23T22:37:51.4593595Z, 6cda8203-a249-e411-b0cc-f8bc1246af59, $GPGGA,223751.00,4437.5860,N,12402.8863,W,2,12,0.8,25.5,M,-21.8,M,,*6D
2023-06-23T22:37:53.0917172Z, 6cda8203-a249-e411-b0cc-f8bc1246af59, $GPGGA,223752.00,4437.5860,N,12402.8863,W,2,12,0.8,25.5,M,-21.8,M,,*6E
2023-06-23T22:37:53.4488422Z, 6cda8203-a249-e411-b0cc-f8bc1246af59, $GPGGA,223753.00,4437.5860,N,12402.8863,W,2,12,0.8,25.4,M,-21.8,M,,*6E
2023-06-23T22:37:54.4462782Z, 6cda8203-a249-e411-b0cc-f8bc1246af59, $GPGGA,223754.00,4437.5860,N,12402.8862,W,2,12,0.8,25.4,M,-21.8,M,,*68
2023-06-23T22:37:56.0861691Z, 6cda8203-a249-e411-b0cc-f8bc1246af59, $GPGGA,223755.00,4437.5860,N,12402.8861,W,2,12,0.8,25.4,M,-21.8,M,,*6A
2023-06-23T22:37:56.4466023Z, 6cda8203-a249-e411-b0cc-f8bc1246af59, $GPGGA,223756.00,4437.5860,N,12402.8861,W,2,12,0.8,25.4,M,-21.8,M,,*69
2023-06-23T22:37:57.4464373Z, 6cda8203-a249-e411-b0cc-f8bc1246af59, $GPGGA,223757.00,4437.5860,N,12402.8861,W,2,12,0.8,25.4,M,-21.8,M,,*68
2023-06-23T22:37:59.1764442Z, 6cda8203-a249-e411-b0cc-f8bc1246af59, $GPGGA,223758.00,4437.5859,N,12402.8861,W,2,12,0.8,25.4,M,-21.8,M,,*6D
2023-06-23T22:37:59.4561949Z, 6cda8203-a249-e411-b0cc-f8bc1246af59, $GPGGA,223759.00,4437.5859,N,12402.8860,W,2,12,0.8,25.4,M,-21.8,M,,*6D
2023-06-23T22:38:01.0867231Z, 6cda8203-a249-e411-b0cc-f8bc1246af59, $GPGGA,223800.00,4437.5858,N,12402.8860,W,2,12,0.8,25.4,M,-21.8,M,,*6F
2023-06-23T22:38:01.4461367Z, 6cda8203-a249-e411-b0cc-f8bc1246af59, $GPGGA,223801.00,4437.5858,N,12402.8860,W,2,12,0.8,25.3,M,-21.8,M,,*69
2023-06-23T22:38:03.0863923Z, 6cda8203-a249-e411-b0cc-f8bc1246af59, $GPGGA,223802.00,4437.5858,N,12402.8860,W,2,12,0.8,25.3,M,-21.8,M,,*6A
2023-06-23T22:38:03.4468513Z, 6cda8203-a249-e411-b0cc-f8bc1246af59, $GPGGA,223803.00,4437.5858,N,12402.8860,W,2,12,0.8,25.3,M,-21.8,M,,*6B
2023-06-23T22:38:04.8563777Z, 6cda8203-a249-e411-b0cc-f8bc1246af59, $GPGGA,223804.00,4437.5858,N,12402.8859,W,2,12,0.8,25.3,M,-21.8,M,,*66
2023-06-23T22:38:06.0870504Z, 6cda8203-a249-e411-b0cc-f8bc1246af59, $GPGGA,223805.00,4437.5858,N,12402.8859,W,2,12,0.8,25.4,M,-21.8,M,,*60
2023-06-23T22:38:06.4564458Z, 6cda8203-a249-e411-b0cc-f8bc1246af59, $GPGGA,223806.00,4437.5858,N,12402.8859,W,2,12,0.8,25.4,M,-21.8,M,,*63
2023-06-23T22:38:08.0874512Z, 6cda8203-a249-e411-b0cc-f8bc1246af59, $GPGGA,223807.00,4437.5858,N,12402.8859,W,2,12,0.8,25.4,M,-21.8,M,,*62
2023-06-23T22:38:08.4568043Z, 6cda8203-a249-e411-b0cc-f8bc1246af59, $GPGGA,223808.00,4437.5857,N,12402.8858,W,2,12,0.8,25.4,M,-21.8,M,,*63
2023-06-23T22:38:10.0867056Z, 6cda8203-a249-e411-b0cc-f8bc1246af59, $GPGGA,223809.00,4437.5858,N,12402.8859,W,2,12,0.8,25.4,M,-21.8,M,,*6C
2023-06-23T22:38:10.8275345Z, 6cda8203-a249-e411-b0cc-f8bc1246af59, $GPGGA,223810.00,4437.5857,N,12402.8859,W,2,12,0.8,25.3,M,-21.8,M,,*6C
2023-06-23T22:38:12.0871344Z, 6cda8203-a249-e411-b0cc-f8bc1246af59, $GPGGA,223811.00,4437.5858,N,12402.8859,W,2,12,0.8,25.3,M,-21.8,M,,*62
2023-06-23T22:38:12.4574425Z, 6cda8203-a249-e411-b0cc-f8bc1246af59, $GPGGA,223812.00,4437.5857,N,12402.8858,W,2,12,0.8,25.4,M,-21.8,M,,*68
2023-06-23T22:38:14.0873834Z, 6cda8203-a249-e411-b0cc-f8bc1246af59, $GPGGA,223813.00,4437.5857,N,12402.8859,W,2,12,0.8,25.3,M,-21.8,M,,*6F
2023-06-23T22:38:14.4577832Z, 6cda8203-a249-e411-b0cc-f8bc1246af59, $GPGGA,223814.00,4437.5857,N,12402.8858,W,2,12,0.8,25.3,M,-21.8,M,,*69
2023-06-23T22:38:16.1774704Z, 6cda8203-a249-e411-b0cc-f8bc1246af59, $GPGGA,223815.00,4437.5857,N,12402.8859,W,2,12,0.8,25.3,M,-21.8,M,,*69
2023-06-23T22:38:16.6675568Z, 6cda8203-a249-e411-b0cc-f8bc1246af59, $GPGGA,223816.00,4437.5857,N,12402.8859,W,2,12,0.8,25.3,M,-21.8,M,,*6A
2023-06-23T22:38:18.0875971Z, 6cda8203-a249-e411-b0cc-f8bc1246af59, $GPGGA,223817.00,4437.5858,N,12402.8859,W,2,12,0.8,25.3,M,-21.8,M,,*64
2023-06-23T22:38:18.4579622Z, 6cda8203-a249-e411-b0cc-f8bc1246af59, $GPGGA,223818.00,4437.5858,N,12402.8860,W,2,12,0.8,25.3,M,-21.8,M,,*61
2023-06-23T22:38:19.4576175Z, 6cda8203-a249-e411-b0cc-f8bc1246af59, $GPGGA,223819.00,4437.5857,N,12402.8860,W,2,12,0.8,25.3,M,-21.8,M,,*6F
2023-06-23T22:38:21.0878072Z, 6cda8203-a249-e411-b0cc-f8bc1246af59, $GPGGA,223820.00,4437.5857,N,12402.8860,W,2,12,0.8,25.2,M,-21.8,M,,*64
2023-06-23T22:38:21.4582156Z, 6cda8203-a249-e411-b0cc-f8bc1246af59, $GPGGA,223821.00,4437.5857,N,12402.8860,W,2,12,0.8,25.2,M,-21.8,M,,*65
2023-06-23T22:38:22.6281262Z, 6cda8203-a249-e411-b0cc-f8bc1246af59, $GPGGA,223822.00,4437.5857,N,12402.8861,W,2,12,0.8,25.2,M,-21.8,M,,*67
2023-06-23T22:38:24.0878108Z, 6cda8203-a249-e411-b0cc-f8bc1246af59, $GPGGA,223823.00,4437.5857,N,12402.8861,W,2,12,0.8,25.2,M,-21.8,M,,*66
2023-06-23T22:38:24.4584870Z, 6cda8203-a249-e411-b0cc-f8bc1246af59, $GPGGA,223824.00,4437.5857,N,12402.8861,W,2,12,0.8,25.1,M,-21.8,M,,*62
2023-06-23T22:38:25.4587026Z, 6cda8203-a249-e411-b0cc-f8bc1246af59, $GPGGA,223825.00,4437.5858,N,12402.8862,W,2,12,0.8,25.1,M,-21.8,M,,*6F
2023-06-23T22:38:27.0888704Z, 6cda8203-a249-e411-b0cc-f8bc1246af59, $GPGGA,223826.00,4437.5858,N,12402.8863,W,2,12,0.8,25.0,M,-21.8,M,,*6C
2023-06-23T22:38:27.4582717Z, 6cda8203-a249-e411-b0cc-f8bc1246af59, $GPGGA,223827.00,4437.5859,N,12402.8863,W,2,12,0.8,25.0,M,-21.8,M,,*6C
2023-06-23T22:38:29.0888486Z, 6cda8203-a249-e411-b0cc-f8bc1246af59, $GPGGA,223828.00,4437.5859,N,12402.8864,W,2,12,0.8,25.0,M,-21.8,M,,*64
2023-06-23T22:38:29.4680876Z, 6cda8203-a249-e411-b0cc-f8bc1246af59, $GPGGA,223829.00,4437.5861,N,12402.8864,W,2,12,0.8,24.9,M,-21.8,M,,*66
2023-06-23T22:38:31.0882070Z, 6cda8203-a249-e411-b0cc-f8bc1246af59, $GPGGA,223830.00,4437.5861,N,12402.8865,W,2,12,0.8,24.9,M,-21.8,M,,*6F
2023-06-23T22:38:31.4684940Z, 6cda8203-a249-e411-b0cc-f8bc1246af59, $GPGGA,223831.00,4437.5862,N,12402.8866,W,2,12,0.8,24.9,M,-21.8,M,,*6E
2023-06-23T22:38:33.0892385Z, 6cda8203-a249-e411-b0cc-f8bc1246af59, $GPGGA,223832.00,4437.5862,N,12402.8867,W,2,12,0.8,24.8,M,-21.8,M,,*6D
2023-06-23T22:38:33.4685874Z, 6cda8203-a249-e411-b0cc-f8bc1246af59, $GPGGA,223833.00,4437.5863,N,12402.8867,W,2,12,0.8,24.8,M,-21.8,M,,*6D
2023-06-23T22:38:34.4692503Z, 6cda8203-a249-e411-b0cc-f8bc1246af59, $GPGGA,223834.00,4437.5863,N,12402.8868,W,2,12,0.8,24.8,M,-21.8,M,,*65
2023-06-23T22:38:36.0889340Z, 6cda8203-a249-e411-b0cc-f8bc1246af59, $GPGGA,223835.00,4437.5863,N,12402.8869,W,2,12,0.8,24.8,M,-21.8,M,,*65
2023-06-23T22:38:36.4692292Z, 6cda8203-a249-e411-b0cc-f8bc1246af59, $GPGGA,223836.00,4437.5864,N,12402.8869,W,2,12,0.8,24.8,M,-21.8,M,,*61
2023-06-23T22:38:37.4644973Z, 6cda8203-a249-e411-b0cc-f8bc1246af59, $GPGGA,223837.00,4437.5863,N,12402.8869,W,2,12,0.8,24.8,M,-21.8,M,,*67
2023-06-23T22:38:39.0896844Z, 6cda8203-a249-e411-b0cc-f8bc1246af59, $GPGGA,223838.00,4437.5864,N,12402.8870,W,2,12,0.8,24.8,M,-21.8,M,,*67
2023-06-23T22:38:39.4690157Z, 6cda8203-a249-e411-b0cc-f8bc1246af59, $GPGGA,223839.00,4437.5863,N,12402.8870,W,2,12,0.8,24.8,M,-21.8,M,,*61
2023-06-23T22:38:40.4697063Z, 6cda8203-a249-e411-b0cc-f8bc1246af59, $GPGGA,223840.00,4437.5864,N,12402.8871,W,2,12,0.8,24.8,M,-21.8,M,,*69
2023-06-23T22:38:42.0897202Z, 6cda8203-a249-e411-b0cc-f8bc1246af59, $GPGGA,223841.00,4437.5863,N,12402.8871,W,2,12,0.8,24.8,M,-21.8,M,,*6F
2023-06-23T22:38:42.4697070Z, 6cda8203-a249-e411-b0cc-f8bc1246af59, $GPGGA,223842.00,4437.5864,N,12402.8871,W,2,12,0.8,24.8,M,-21.8,M,,*6B
2023-06-23T22:38:43.4692756Z, 6cda8203-a249-e411-b0cc-f8bc1246af59, $GPGGA,223843.00,4437.5863,N,12402.8871,W,2,12,0.8,24.8,M,-21.8,M,,*6D
2023-06-23T22:38:45.0894032Z, 6cda8203-a249-e411-b0cc-f8bc1246af59, $GPGGA,223844.00,4437.5863,N,12402.8872,W,2,12,0.8,24.8,M,-21.8,M,,*69
2023-06-23T22:38:45.4697453Z, 6cda8203-a249-e411-b0cc-f8bc1246af59, $GPGGA,223845.00,4437.5863,N,12402.8872,W,2,12,0.8,24.8,M,-21.8,M,,*68
2023-06-23T22:38:47.0897830Z, 6cda8203-a249-e411-b0cc-f8bc1246af59, $GPGGA,223846.00,4437.5863,N,12402.8873,W,2,12,0.8,24.8,M,-21.8,M,,*6A
2023-06-23T22:38:47.4701481Z, 6cda8203-a249-e411-b0cc-f8bc1246af59, $GPGGA,223847.00,4437.5863,N,12402.8873,W,2,12,0.8,24.9,M,-21.8,M,,*6A
2023-06-23T22:38:48.4695785Z, 6cda8203-a249-e411-b0cc-f8bc1246af59, $GPGGA,223848.00,4437.5863,N,12402.8873,W,2,12,0.8,24.9,M,-21.8,M,,*65
2023-06-23T22:38:49.4700601Z, 6cda8203-a249-e411-b0cc-f8bc1246af59, $GPGGA,223849.00,4437.5863,N,12402.8873,W,2,12,0.8,24.9,M,-21.8,M,,*64
2023-06-23T22:38:50.4695977Z, 6cda8203-a249-e411-b0cc-f8bc1246af59, $GPGGA,223850.00,4437.5863,N,12402.8874,W,2,12,0.8,24.9,M,-21.8,M,,*6B
2023-06-23T22:38:52.2498871Z, 6cda8203-a249-e411-b0cc-f8bc1246af59, $GPGGA,223851.00,4437.5863,N,12402.8874,W,2,12,0.8,25.0,M,-21.8,M,,*62
2023-06-23T22:38:52.6402125Z, 6cda8203-a249-e411-b0cc-f8bc1246af59, $GPGGA,223852.00,4437.5862,N,12402.8874,W,2,12,0.8,25.0,M,-21.8,M,,*60
2023-06-23T22:38:53.4699873Z, 6cda8203-a249-e411-b0cc-f8bc1246af59, $GPGGA,223853.00,4437.5862,N,12402.8875,W,2,12,0.8,25.0,M,-21.8,M,,*60
2023-06-23T22:38:55.0903482Z, 6cda8203-a249-e411-b0cc-f8bc1246af59, $GPGGA,223854.00,4437.5862,N,12402.8875,W,2,12,0.8,25.0,M,-21.8,M,,*67
2023-06-23T22:38:55.4706942Z, 6cda8203-a249-e411-b0cc-f8bc1246af59, $GPGGA,223855.00,4437.5862,N,12402.8875,W,2,12,0.8,25.1,M,-21.8,M,,*67
2023-06-23T22:38:56.4802383Z, 6cda8203-a249-e411-b0cc-f8bc1246af59, $GPGGA,223856.00,4437.5861,N,12402.8875,W,2,12,0.8,25.1,M,-21.8,M,,*67
2023-06-23T22:38:57.4809042Z, 6cda8203-a249-e411-b0cc-f8bc1246af59, $GPGGA,223857.00,4437.5861,N,12402.8875,W,2,12,0.8,25.2,M,-21.8,M,,*65
2023-06-23T22:38:59.0904285Z, 6cda8203-a249-e411-b0cc-f8bc1246af59, $GPGGA,223858.00,4437.5861,N,12402.8876,W,2,12,0.8,25.2,M,-21.8,M,,*69
2023-06-23T22:38:59.4807187Z, 6cda8203-a249-e411-b0cc-f8bc1246af59, $GPGGA,223859.00,4437.5861,N,12402.8876,W,2,12,0.8,25.2,M,-21.8,M,,*68
2023-06-23T22:39:00.4808741Z, 6cda8203-a249-e411-b0cc-f8bc1246af59, $GPGGA,223900.00,4437.5860,N,12402.8876,W,2,12,0.8,25.2,M,-21.8,M,,*64
2023-06-23T22:39:02.0903740Z, 6cda8203-a249-e411-b0cc-f8bc1246af59, $GPGGA,223901.00,4437.5860,N,12402.8876,W,2,12,0.8,25.3,M,-21.8,M,,*64
2023-06-23T22:39:02.4806969Z, 6cda8203-a249-e411-b0cc-f8bc1246af59, $GPGGA,223902.00,4437.5860,N,12402.8876,W,2,12,0.8,25.3,M,-21.8,M,,*67
2023-06-23T22:39:03.4812278Z, 6cda8203-a249-e411-b0cc-f8bc1246af59, $GPGGA,223903.00,4437.5860,N,12402.8876,W,2,12,0.8,25.3,M,-21.8,M,,*66
2023-06-23T22:39:05.4810445Z, 6cda8203-a249-e411-b0cc-f8bc1246af59, $GPGGA,223905.00,4437.5859,N,12402.8876,W,2,12,0.8,25.3,M,-21.8,M,,*6A
2023-06-23T22:39:07.0910707Z, 6cda8203-a249-e411-b0cc-f8bc1246af59, $GPGGA,223906.00,4437.5859,N,12402.8877,W,2,12,0.8,25.4,M,-21.8,M,,*6F
2023-06-23T22:39:07.4814030Z, 6cda8203-a249-e411-b0cc-f8bc1246af59, $GPGGA,223907.00,4437.5859,N,12402.8877,W,2,12,0.8,25.4,M,-21.8,M,,*6E
2023-06-23T22:39:08.4811182Z, 6cda8203-a249-e411-b0cc-f8bc1246af59, $GPGGA,223908.00,4437.5858,N,12402.8877,W,2,12,0.8,25.4,M,-21.8,M,,*60
2023-06-23T22:39:09.4810422Z, 6cda8203-a249-e411-b0cc-f8bc1246af59, $GPGGA,223909.00,4437.5858,N,12402.8877,W,2,12,0.8,25.4,M,-21.8,M,,*61
2023-06-23T22:39:10.8715935Z, 6cda8203-a249-e411-b0cc-f8bc1246af59, $GPGGA,223910.00,4437.5858,N,12402.8877,W,2,12,0.8,25.5,M,-21.8,M,,*68
2023-06-23T22:39:12.0914119Z, 6cda8203-a249-e411-b0cc-f8bc1246af59, $GPGGA,223911.00,4437.5857,N,12402.8877,W,2,12,0.8,25.5,M,-21.8,M,,*66
2023-06-23T22:39:12.4813996Z, 6cda8203-a249-e411-b0cc-f8bc1246af59, $GPGGA,223912.00,4437.5857,N,12402.8877,W,2,12,0.8,25.5,M,-21.8,M,,*65
2023-06-23T22:39:13.4811434Z, 6cda8203-a249-e411-b0cc-f8bc1246af59, $GPGGA,223913.00,4437.5856,N,12402.8877,W,2,12,0.8,25.5,M,-21.8,M,,*65
2023-06-23T22:39:14.4817080Z, 6cda8203-a249-e411-b0cc-f8bc1246af59, $GPGGA,223914.00,4437.5856,N,12402.8877,W,2,12,0.8,25.6,M,-21.8,M,,*61
2023-06-23T22:39:15.4813322Z, 6cda8203-a249-e411-b0cc-f8bc1246af59, $GPGGA,223915.00,4437.5855,N,12402.8877,W,2,12,0.8,25.6,M,-21.8,M,,*63
2023-06-23T22:39:17.2715503Z, 6cda8203-a249-e411-b0cc-f8bc1246af59, $GPGGA,223916.00,4437.5855,N,12402.8877,W,2,12,0.8,25.6,M,-21.8,M,,*60
2023-06-23T22:39:17.7016544Z, 6cda8203-a249-e411-b0cc-f8bc1246af59, $GPGGA,223917.00,4437.5855,N,12402.8877,W,2,12,0.8,25.7,M,-21.8,M,,*60
2023-06-23T22:39:18.4819080Z, 6cda8203-a249-e411-b0cc-f8bc1246af59, $GPGGA,223918.00,4437.5855,N,12402.8877,W,2,12,0.8,25.7,M,-21.8,M,,*6F
2023-06-23T22:39:20.0920315Z, 6cda8203-a249-e411-b0cc-f8bc1246af59, $GPGGA,223919.00,4437.5854,N,12402.8877,W,2,12,0.8,25.7,M,-21.8,M,,*6F
2023-06-23T22:39:20.4823447Z, 6cda8203-a249-e411-b0cc-f8bc1246af59, $GPGGA,223920.00,4437.5854,N,12402.8877,W,2,12,0.8,25.8,M,-21.8,M,,*6A
2023-06-23T22:39:21.4921078Z, 6cda8203-a249-e411-b0cc-f8bc1246af59, $GPGGA,223921.00,4437.5854,N,12402.8877,W,2,12,0.8,25.8,M,-21.8,M,,*6B
2023-06-23T22:39:22.4919902Z, 6cda8203-a249-e411-b0cc-f8bc1246af59, $GPGGA,223922.00,4437.5854,N,12402.8877,W,2,12,0.8,25.8,M,-21.8,M,,*68
2023-06-23T22:39:23.8322554Z, 6cda8203-a249-e411-b0cc-f8bc1246af59, $GPGGA,223923.00,4437.5854,N,12402.8877,W,2,12,0.8,25.8,M,-21.8,M,,*69
2023-06-23T22:39:25.0926868Z, 6cda8203-a249-e411-b0cc-f8bc1246af59, $GPGGA,223924.00,4437.5853,N,12402.8877,W,2,12,0.8,25.8,M,-21.8,M,,*69
2023-06-23T22:39:25.4929399Z, 6cda8203-a249-e411-b0cc-f8bc1246af59, $GPGGA,223925.00,4437.5853,N,12402.8877,W,2,12,0.8,25.9,M,-21.8,M,,*69
2023-06-23T22:39:26.4927413Z, 6cda8203-a249-e411-b0cc-f8bc1246af59, $GPGGA,223926.00,4437.5853,N,12402.8877,W,2,12,0.8,25.9,M,-21.8,M,,*6A
2023-06-23T22:39:27.4924526Z, 6cda8203-a249-e411-b0cc-f8bc1246af59, $GPGGA,223927.00,4437.5852,N,12402.8877,W,2,12,0.8,25.9,M,-21.8,M,,*6A
2023-06-23T22:39:28.5727847Z, 6cda8203-a249-e411-b0cc-f8bc1246af59, $GPGGA,223928.00,4437.5852,N,12402.8877,W,2,12,0.8,26.0,M,-21.8,M,,*6F
2023-06-23T22:39:29.4930220Z, 6cda8203-a249-e411-b0cc-f8bc1246af59, $GPGGA,223929.00,4437.5852,N,12402.8877,W,2,12,0.8,26.0,M,-21.8,M,,*6E
2023-06-23T22:39:30.7730281Z, 6cda8203-a249-e411-b0cc-f8bc1246af59, $GPGGA,223930.00,4437.5852,N,12402.8877,W,2,12,0.8,26.0,M,-21.8,M,,*66
2023-06-23T22:39:31.4930843Z, 6cda8203-a249-e411-b0cc-f8bc1246af59, $GPGGA,223931.00,4437.5852,N,12402.8877,W,2,12,0.8,26.1,M,-21.8,M,,*66
2023-06-23T22:39:32.4926757Z, 6cda8203-a249-e411-b0cc-f8bc1246af59, $GPGGA,223932.00,4437.5852,N,12402.8877,W,2,12,0.8,26.1,M,-21.8,M,,*65
2023-06-23T22:39:33.4934346Z, 6cda8203-a249-e411-b0cc-f8bc1246af59, $GPGGA,223933.00,4437.5852,N,12402.8877,W,2,12,0.8,26.1,M,-21.8,M,,*64
2023-06-23T22:39:34.4932005Z, 6cda8203-a249-e411-b0cc-f8bc1246af59, $GPGGA,223934.00,4437.5852,N,12402.8877,W,2,12,0.8,26.2,M,-21.8,M,,*60
2023-06-23T22:39:35.4927925Z, 6cda8203-a249-e411-b0cc-f8bc1246af59, $GPGGA,223935.00,4437.5852,N,12402.8877,W,2,12,0.8,26.2,M,-21.8,M,,*61
2023-06-23T22:39:37.0530154Z, 6cda8203-a249-e411-b0cc-f8bc1246af59, $GPGGA,223936.00,4437.5852,N,12402.8877,W,2,12,0.8,26.2,M,-21.8,M,,*62
2023-06-23T22:39:37.6134174Z, 6cda8203-a249-e411-b0cc-f8bc1246af59, $GPGGA,223937.00,4437.5852,N,12402.8877,W,2,12,0.8,26.2,M,-21.8,M,,*63
2023-06-23T22:39:38.5734745Z, 6cda8203-a249-e411-b0cc-f8bc1246af59, $GPGGA,223938.00,4437.5852,N,12402.8877,W,2,12,0.8,26.2,M,-21.8,M,,*6C
2023-06-23T22:39:39.4941386Z, 6cda8203-a249-e411-b0cc-f8bc1246af59, $GPGGA,223939.00,4437.5852,N,12402.8876,W,2,12,0.8,26.3,M,-21.8,M,,*6D
2023-06-23T22:39:40.4936463Z, 6cda8203-a249-e411-b0cc-f8bc1246af59, $GPGGA,223940.00,4437.5852,N,12402.8876,W,2,12,0.8,26.3,M,-21.8,M,,*63
2023-06-23T22:39:41.5738221Z, 6cda8203-a249-e411-b0cc-f8bc1246af59, $GPGGA,223941.00,4437.5852,N,12402.8876,W,2,12,0.8,26.3,M,-21.8,M,,*62
2023-06-23T22:39:43.0933356Z, 6cda8203-a249-e411-b0cc-f8bc1246af59, $GPGGA,223942.00,4437.5853,N,12402.8876,W,2,12,0.8,26.3,M,-21.8,M,,*60
2023-06-23T22:39:43.5040676Z, 6cda8203-a249-e411-b0cc-f8bc1246af59, $GPGGA,223943.00,4437.5853,N,12402.8876,W,2,12,0.8,26.3,M,-21.8,M,,*61
2023-06-23T22:39:44.4940624Z, 6cda8203-a249-e411-b0cc-f8bc1246af59, $GPGGA,223944.00,4437.5853,N,12402.8876,W,2,12,0.8,26.4,M,-21.8,M,,*61
2023-06-23T22:39:45.4943368Z, 6cda8203-a249-e411-b0cc-f8bc1246af59, $GPGGA,223945.00,4437.5853,N,12402.8876,W,2,12,0.8,26.4,M,-21.8,M,,*60
2023-06-23T22:39:46.4943480Z, 6cda8203-a249-e411-b0cc-f8bc1246af59, $GPGGA,223946.00,4437.5853,N,12402.8876,W,2,12,0.8,26.4,M,-21.8,M,,*63
2023-06-23T22:39:48.0943033Z, 6cda8203-a249-e411-b0cc-f8bc1246af59, $GPGGA,223947.00,4437.5854,N,12402.8876,W,2,12,0.8,26.4,M,-21.8,M,,*65
2023-06-23T22:39:48.5044763Z, 6cda8203-a249-e411-b0cc-f8bc1246af59, $GPGGA,223948.00,4437.5854,N,12402.8876,W,2,12,0.8,26.4,M,-21.8,M,,*6A
2023-06-23T22:39:49.5042164Z, 6cda8203-a249-e411-b0cc-f8bc1246af59, $GPGGA,223949.00,4437.5854,N,12402.8877,W,2,12,0.8,26.4,M,-21.8,M,,*6A
2023-06-23T22:39:50.5040902Z, 6cda8203-a249-e411-b0cc-f8bc1246af59, $GPGGA,223950.00,4437.5854,N,12402.8876,W,2,12,0.8,26.5,M,-21.8,M,,*62
2023-06-23T22:39:51.5047118Z, 6cda8203-a249-e411-b0cc-f8bc1246af59, $GPGGA,223951.00,4437.5854,N,12402.8876,W,2,12,0.8,26.5,M,-21.8,M,,*63
2023-06-23T22:39:52.5045343Z, 6cda8203-a249-e411-b0cc-f8bc1246af59, $GPGGA,223952.00,4437.5854,N,12402.8876,W,2,12,0.8,26.5,M,-21.8,M,,*60
2023-06-23T22:39:54.0945304Z, 6cda8203-a249-e411-b0cc-f8bc1246af59, $GPGGA,223953.00,4437.5854,N,12402.8876,W,2,12,0.8,26.5,M,-21.8,M,,*61
2023-06-23T22:39:54.5047574Z, 6cda8203-a249-e411-b0cc-f8bc1246af59, $GPGGA,223954.00,4437.5854,N,12402.8876,W,2,12,0.8,26.6,M,-21.8,M,,*65
2023-06-23T22:39:56.0948971Z, 6cda8203-a249-e411-b0cc-f8bc1246af59, $GPGGA,223955.00,4437.5854,N,12402.8875,W,2,12,0.8,26.6,M,-21.8,M,,*67
2023-06-23T22:39:56.5046795Z, 6cda8203-a249-e411-b0cc-f8bc1246af59, $GPGGA,223956.00,4437.5853,N,12402.8875,W,2,12,0.8,26.7,M,-21.8,M,,*62
2023-06-23T22:39:57.5043447Z, 6cda8203-a249-e411-b0cc-f8bc1246af59, $GPGGA,223957.00,4437.5853,N,12402.8875,W,2,12,0.8,26.7,M,-21.8,M,,*63
2023-06-23T22:39:59.0944591Z, 6cda8203-a249-e411-b0cc-f8bc1246af59, $GPGGA,223958.00,4437.5853,N,12402.8874,W,2,12,0.8,26.8,M,-21.8,M,,*62
2023-06-23T22:39:59.5046766Z, 6cda8203-a249-e411-b0cc-f8bc1246af59, $GPGGA,223959.00,4437.5853,N,12402.8874,W,2,12,0.8,26.8,M,-21.8,M,,*63
2023-06-23T22:40:00.5051510Z, 6cda8203-a249-e411-b0cc-f8bc1246af59, $GPGGA,224000.00,4437.5853,N,12402.8873,W,2,12,0.8,26.9,M,-21.8,M,,*67
2023-06-23T22:40:02.0953634Z, 6cda8203-a249-e411-b0cc-f8bc1246af59, $GPGGA,224001.00,4437.5852,N,12402.8873,W,2,12,0.8,27.0,M,-21.8,M,,*6F
2023-06-23T22:40:02.5045681Z, 6cda8203-a249-e411-b0cc-f8bc1246af59, $GPGGA,224002.00,4437.5852,N,12402.8872,W,2,12,0.8,27.0,M,-21.8,M,,*6D
2023-06-23T22:40:04.0954595Z, 6cda8203-a249-e411-b0cc-f8bc1246af59, $GPGGA,224003.00,4437.5852,N,12402.8872,W,2,12,0.8,27.0,M,-21.8,M,,*6C
2023-06-23T22:40:04.5056170Z, 6cda8203-a249-e411-b0cc-f8bc1246af59, $GPGGA,224004.00,4437.5851,N,12402.8872,W,2,12,0.8,27.1,M,-21.8,M,,*69
2023-06-23T22:40:05.5052850Z, 6cda8203-a249-e411-b0cc-f8bc1246af59, $GPGGA,224005.00,4437.5852,N,12402.8871,W,2,12,0.8,27.1,M,-21.8,M,,*68
2023-06-23T22:40:07.0954229Z, 6cda8203-a249-e411-b0cc-f8bc1246af59, $GPGGA,224006.00,4437.5851,N,12402.8871,W,2,12,0.8,27.2,M,-21.8,M,,*6B
2023-06-23T22:40:07.5056464Z, 6cda8203-a249-e411-b0cc-f8bc1246af59, $GPGGA,224007.00,4437.5851,N,12402.8871,W,2,12,0.8,27.2,M,-21.8,M,,*6A
2023-06-23T22:40:09.0919946Z, 6cda8203-a249-e411-b0cc-f8bc1246af59, $GPGGA,224008.00,4437.5851,N,12402.8871,W,2,12,0.8,27.3,M,-21.8,M,,*64
2023-06-23T22:40:09.5052772Z, 6cda8203-a249-e411-b0cc-f8bc1246af59, $GPGGA,224009.00,4437.5851,N,12402.8870,W,2,12,0.8,27.3,M,-21.8,M,,*64
2023-06-23T22:40:10.5059442Z, 6cda8203-a249-e411-b0cc-f8bc1246af59, $GPGGA,224010.00,4437.5851,N,12402.8870,W,2,12,0.8,27.4,M,-21.8,M,,*6B
2023-06-23T22:40:12.0955497Z, 6cda8203-a249-e411-b0cc-f8bc1246af59, $GPGGA,224011.00,4437.5851,N,12402.8870,W,2,12,0.8,27.4,M,-21.8,M,,*6A
2023-06-23T22:40:12.5156723Z, 6cda8203-a249-e411-b0cc-f8bc1246af59, $GPGGA,224012.00,4437.5851,N,12402.8869,W,2,12,0.8,27.4,M,-21.8,M,,*61
2023-06-23T22:40:14.0954851Z, 6cda8203-a249-e411-b0cc-f8bc1246af59, $GPGGA,224013.00,4437.5851,N,12402.8869,W,2,12,0.8,27.5,M,-21.8,M,,*61
2023-06-23T22:40:14.8756732Z, 6cda8203-a249-e411-b0cc-f8bc1246af59, $GPGGA,224014.00,4437.5851,N,12402.8871,W,2,11,0.8,27.5,M,-21.8,M,,*6C
2023-06-23T22:40:16.0963579Z, 6cda8203-a249-e411-b0cc-f8bc1246af59, $GPGGA,224015.00,4437.5852,N,12402.8871,W,2,11,0.8,27.4,M,-21.8,M,,*6F
2023-06-23T22:40:16.5164821Z, 6cda8203-a249-e411-b0cc-f8bc1246af59, $GPGGA,224016.00,4437.5852,N,12402.8871,W,2,11,0.8,27.4,M,-21.8,M,,*6C
2023-06-23T22:40:18.0959272Z, 6cda8203-a249-e411-b0cc-f8bc1246af59, $GPGGA,224017.00,4437.5852,N,12402.8871,W,2,11,0.8,27.4,M,-21.8,M,,*6D
2023-06-23T22:40:18.5160497Z, 6cda8203-a249-e411-b0cc-f8bc1246af59, $GPGGA,224018.00,4437.5854,N,12402.8872,W,2,11,0.8,27.4,M,-21.8,M,,*67
2023-06-23T22:40:20.1862949Z, 6cda8203-a249-e411-b0cc-f8bc1246af59, $GPGGA,224019.00,4437.5855,N,12402.8872,W,2,11,0.8,27.4,M,-21.8,M,,*67
2023-06-23T22:40:20.6265618Z, 6cda8203-a249-e411-b0cc-f8bc1246af59, $GPGGA,224020.00,4437.5856,N,12402.8872,W,2,11,0.8,27.5,M,-21.8,M,,*6F
2023-06-23T22:40:21.5167417Z, 6cda8203-a249-e411-b0cc-f8bc1246af59, $GPGGA,224021.00,4437.5857,N,12402.8871,W,2,11,0.8,27.5,M,-21.8,M,,*6C
2023-06-23T22:40:23.0968625Z, 6cda8203-a249-e411-b0cc-f8bc1246af59, $GPGGA,224022.00,4437.5858,N,12402.8871,W,2,11,0.8,27.5,M,-21.8,M,,*60
2023-06-23T22:40:23.5160713Z, 6cda8203-a249-e411-b0cc-f8bc1246af59, $GPGGA,224023.00,4437.5859,N,12402.8870,W,2,11,0.8,27.5,M,-21.8,M,,*61
2023-06-23T22:40:24.5167070Z, 6cda8203-a249-e411-b0cc-f8bc1246af59, $GPGGA,224024.00,4437.5860,N,12402.8869,W,2,11,0.8,27.5,M,-21.8,M,,*64
2023-06-23T22:40:26.2767078Z, 6cda8203-a249-e411-b0cc-f8bc1246af59, $GPGGA,224025.00,4437.5860,N,12402.8868,W,2,11,0.8,27.5,M,-21.8,M,,*64
2023-06-23T22:40:26.6772184Z, 6cda8203-a249-e411-b0cc-f8bc1246af59, $GPGGA,224026.00,4437.5860,N,12402.8867,W,2,11,0.8,27.5,M,-21.8,M,,*68
2023-06-23T22:40:28.0968999Z, 6cda8203-a249-e411-b0cc-f8bc1246af59, $GPGGA,224027.00,4437.5861,N,12402.8866,W,2,11,0.8,27.5,M,-21.8,M,,*69
2023-06-23T22:40:28.5170910Z, 6cda8203-a249-e411-b0cc-f8bc1246af59, $GPGGA,224028.00,4437.5860,N,12402.8865,W,2,11,0.8,27.5,M,-21.8,M,,*64
2023-06-23T22:40:29.5172561Z, 6cda8203-a249-e411-b0cc-f8bc1246af59, $GPGGA,224029.00,4437.5860,N,12402.8864,W,2,11,0.8,27.4,M,-21.8,M,,*65
2023-06-23T22:40:31.0968826Z, 6cda8203-a249-e411-b0cc-f8bc1246af59, $GPGGA,224030.00,4437.5860,N,12402.8863,W,2,11,0.8,27.4,M,-21.8,M,,*6A
2023-06-23T22:40:31.5170296Z, 6cda8203-a249-e411-b0cc-f8bc1246af59, $GPGGA,224031.00,4437.5860,N,12402.8862,W,2,11,0.8,27.4,M,-21.8,M,,*6A
2023-06-23T22:40:32.6868564Z, 6cda8203-a249-e411-b0cc-f8bc1246af59, $GPGGA,224032.00,4437.5860,N,12402.8861,W,2,11,0.8,27.3,M,-21.8,M,,*6D
2023-06-23T22:40:34.0971703Z, 6cda8203-a249-e411-b0cc-f8bc1246af59, $GPGGA,224033.00,4437.5860,N,12402.8860,W,2,11,0.8,27.3,M,-21.8,M,,*6D
2023-06-23T22:40:34.5173064Z, 6cda8203-a249-e411-b0cc-f8bc1246af59, $GPGGA,224034.00,4437.5860,N,12402.8859,W,2,11,0.8,27.3,M,-21.8,M,,*60
2023-06-23T22:40:35.5171607Z, 6cda8203-a249-e411-b0cc-f8bc1246af59, $GPGGA,224035.00,4437.5860,N,12402.8859,W,2,11,0.8,27.3,M,-21.8,M,,*61
2023-06-23T22:40:36.5172877Z, 6cda8203-a249-e411-b0cc-f8bc1246af59, $GPGGA,224036.00,4437.5860,N,12402.8858,W,2,11,0.8,27.2,M,-21.8,M,,*62
2023-06-23T22:40:38.2372981Z, 6cda8203-a249-e411-b0cc-f8bc1246af59, $GPGGA,224037.00,4437.5860,N,12402.8858,W,2,11,0.8,27.2,M,-21.8,M,,*63
2023-06-23T22:40:38.7872496Z, 6cda8203-a249-e411-b0cc-f8bc1246af59, $GPGGA,224038.00,4437.5860,N,12402.8858,W,2,11,0.8,27.2,M,-21.8,M,,*6C
2023-06-23T22:40:39.5279345Z, 6cda8203-a249-e411-b0cc-f8bc1246af59, $GPGGA,224039.00,4437.5860,N,12402.8858,W,2,11,0.8,27.2,M,-21.8,M,,*6D
2023-06-23T22:40:41.0983339Z, 6cda8203-a249-e411-b0cc-f8bc1246af59, $GPGGA,224040.00,4437.5860,N,12402.8858,W,2,11,0.8,27.2,M,-21.8,M,,*63
2023-06-23T22:40:41.5275302Z, 6cda8203-a249-e411-b0cc-f8bc1246af59, $GPGGA,224041.00,4437.5860,N,12402.8858,W,2,11,0.8,27.1,M,-21.8,M,,*61
2023-06-23T22:40:42.5282055Z, 6cda8203-a249-e411-b0cc-f8bc1246af59, $GPGGA,224042.00,4437.5860,N,12402.8858,W,2,11,0.8,27.1,M,-21.8,M,,*62
2023-06-23T22:40:44.0984428Z, 6cda8203-a249-e411-b0cc-f8bc1246af59, $GPGGA,224043.00,4437.5859,N,12402.8858,W,2,11,0.8,27.1,M,-21.8,M,,*69
2023-06-23T22:40:44.8182886Z, 6cda8203-a249-e411-b0cc-f8bc1246af59, $GPGGA,224044.00,4437.5859,N,12402.8858,W,2,11,0.8,27.1,M,-21.8,M,,*6E
2023-06-23T22:40:45.5282231Z, 6cda8203-a249-e411-b0cc-f8bc1246af59, $GPGGA,224045.00,4437.5859,N,12402.8857,W,2,11,0.8,27.1,M,-21.8,M,,*60
2023-06-23T22:40:47.0979153Z, 6cda8203-a249-e411-b0cc-f8bc1246af59, $GPGGA,224046.00,4437.5859,N,12402.8857,W,2,11,0.8,27.1,M,-21.8,M,,*63
2023-06-23T22:40:47.5278879Z, 6cda8203-a249-e411-b0cc-f8bc1246af59, $GPGGA,224047.00,4437.5859,N,12402.8857,W,2,11,0.8,27.1,M,-21.8,M,,*62
2023-06-23T22:40:49.0979638Z, 6cda8203-a249-e411-b0cc-f8bc1246af59, $GPGGA,224048.00,4437.5858,N,12402.8857,W,2,11,0.8,27.1,M,-21.8,M,,*6C
2023-06-23T22:40:49.5280770Z, 6cda8203-a249-e411-b0cc-f8bc1246af59, $GPGGA,224049.00,4437.5858,N,12402.8857,W,2,11,0.8,27.1,M,-21.8,M,,*6D
2023-06-23T22:40:50.8683030Z, 6cda8203-a249-e411-b0cc-f8bc1246af59, $GPGGA,224050.00,4437.5858,N,12402.8858,W,2,11,0.8,27.1,M,-21.8,M,,*6A
2023-06-23T22:40:51.5284502Z, 6cda8203-a249-e411-b0cc-f8bc1246af59, $GPGGA,224051.00,4437.5858,N,12402.8859,W,2,11,0.8,27.0,M,-21.8,M,,*6B
2023-06-23T22:40:52.5280898Z, 6cda8203-a249-e411-b0cc-f8bc1246af59, $GPGGA,224052.00,4437.5859,N,12402.8859,W,2,11,0.8,27.0,M,-21.8,M,,*69
2023-06-23T22:40:54.0985417Z, 6cda8203-a249-e411-b0cc-f8bc1246af59, $GPGGA,224053.00,4437.5859,N,12402.8860,W,2,11,0.8,27.0,M,-21.8,M,,*62
2023-06-23T22:40:54.5286998Z, 6cda8203-a249-e411-b0cc-f8bc1246af59, $GPGGA,224054.00,4437.5859,N,12402.8861,W,2,11,0.8,27.0,M,-21.8,M,,*64
2023-06-23T22:40:55.5283644Z, 6cda8203-a249-e411-b0cc-f8bc1246af59, $GPGGA,224055.00,4437.5860,N,12402.8863,W,2,11,0.8,27.0,M,-21.8,M,,*6D
2023-06-23T22:40:57.0987533Z, 6cda8203-a249-e411-b0cc-f8bc1246af59, $GPGGA,224056.00,4437.5860,N,12402.8864,W,2,11,0.8,27.0,M,-21.8,M,,*69
2023-06-23T22:40:57.5290892Z, 6cda8203-a249-e411-b0cc-f8bc1246af59, $GPGGA,224057.00,4437.5861,N,12402.8864,W,2,11,0.8,27.0,M,-21.8,M,,*69
2023-06-23T22:40:58.5293085Z, 6cda8203-a249-e411-b0cc-f8bc1246af59, $GPGGA,224058.00,4437.5861,N,12402.8865,W,2,11,0.8,27.0,M,-21.8,M,,*67
2023-06-23T22:40:59.5295305Z, 6cda8203-a249-e411-b0cc-f8bc1246af59, $GPGGA,224059.00,4437.5861,N,12402.8867,W,2,11,0.8,27.0,M,-21.8,M,,*64
2023-06-23T22:41:01.0991405Z, 6cda8203-a249-e411-b0cc-f8bc1246af59, $GPGGA,224100.00,4437.5861,N,12402.8868,W,2,11,0.8,27.1,M,-21.8,M,,*67
2023-06-23T22:41:01.5392431Z, 6cda8203-a249-e411-b0cc-f8bc1246af59, $GPGGA,224101.00,4437.5861,N,12402.8868,W,2,11,0.8,27.1,M,-21.8,M,,*66
2023-06-23T22:41:02.8897174Z, 6cda8203-a249-e411-b0cc-f8bc1246af59, $GPGGA,224102.00,4437.5861,N,12402.8869,W,2,11,0.8,27.1,M,-21.8,M,,*64
2023-06-23T22:41:04.0993652Z, 6cda8203-a249-e411-b0cc-f8bc1246af59, $GPGGA,224103.00,4437.5861,N,12402.8869,W,2,11,0.8,27.1,M,-21.8,M,,*65
2023-06-23T22:41:04.5394548Z, 6cda8203-a249-e411-b0cc-f8bc1246af59, $GPGGA,224104.00,4437.5860,N,12402.8869,W,2,11,0.8,27.1,M,-21.8,M,,*63
2023-06-23T22:41:05.5391144Z, 6cda8203-a249-e411-b0cc-f8bc1246af59, $GPGGA,224105.00,4437.5860,N,12402.8869,W,2,11,0.8,27.1,M,-21.8,M,,*62
2023-06-23T22:41:06.5397891Z, 6cda8203-a249-e411-b0cc-f8bc1246af59, $GPGGA,224106.00,4437.5860,N,12402.8870,W,2,11,0.8,27.1,M,-21.8,M,,*69
2023-06-23T22:41:07.5394382Z, 6cda8203-a249-e411-b0cc-f8bc1246af59, $GPGGA,224107.00,4437.5860,N,12402.8869,W,2,11,0.8,27.1,M,-21.8,M,,*60
2023-06-23T22:41:09.2402924Z, 6cda8203-a249-e411-b0cc-f8bc1246af59, $GPGGA,224108.00,4437.5860,N,12402.8870,W,2,11,0.8,27.1,M,-21.8,M,,*67
2023-06-23T22:41:09.6499827Z, 6cda8203-a249-e411-b0cc-f8bc1246af59, $GPGGA,224109.00,4437.5860,N,12402.8869,W,2,11,0.8,27.0,M,-21.8,M,,*6F
2023-06-23T22:41:10.5400395Z, 6cda8203-a249-e411-b0cc-f8bc1246af59, $GPGGA,224110.00,4437.5860,N,12402.8870,W,2,11,0.8,27.0,M,-21.8,M,,*6F
2023-06-23T22:41:11.5398821Z, 6cda8203-a249-e411-b0cc-f8bc1246af59, $GPGGA,224111.00,4437.5860,N,12402.8869,W,2,11,0.8,27.0,M,-21.8,M,,*66
2023-06-23T22:41:12.5400550Z, 6cda8203-a249-e411-b0cc-f8bc1246af59, $GPGGA,224112.00,4437.5860,N,12402.8870,W,2,11,0.8,27.0,M,-21.8,M,,*6D
2023-06-23T22:41:14.1001372Z, 6cda8203-a249-e411-b0cc-f8bc1246af59, $GPGGA,224113.00,4437.5860,N,12402.8869,W,2,11,0.8,27.0,M,-21.8,M,,*64
2023-06-23T22:41:14.5404827Z, 6cda8203-a249-e411-b0cc-f8bc1246af59, $GPGGA,224114.00,4437.5861,N,12402.8869,W,2,11,0.8,26.9,M,-21.8,M,,*6A
2023-06-23T22:41:15.5404079Z, 6cda8203-a249-e411-b0cc-f8bc1246af59, $GPGGA,224115.00,4437.5862,N,12402.8869,W,2,11,0.8,26.9,M,-21.8,M,,*68
2023-06-23T22:41:16.5401139Z, 6cda8203-a249-e411-b0cc-f8bc1246af59, $GPGGA,224116.00,4437.5862,N,12402.8869,W,2,11,0.8,26.8,M,-21.8,M,,*6A
2023-06-23T22:41:17.5407508Z, 6cda8203-a249-e411-b0cc-f8bc1246af59, $GPGGA,224117.00,4437.5862,N,12402.8868,W,2,11,0.8,26.8,M,-21.8,M,,*6A
2023-06-23T22:41:18.5404204Z, 6cda8203-a249-e411-b0cc-f8bc1246af59, $GPGGA,224118.00,4437.5863,N,12402.8868,W,2,11,0.8,26.8,M,-21.8,M,,*64
2023-06-23T22:41:20.1006347Z, 6cda8203-a249-e411-b0cc-f8bc1246af59, $GPGGA,224119.00,4437.5864,N,12402.8868,W,2,11,0.8,26.7,M,-21.8,M,,*6D
2023-06-23T22:41:20.5407108Z, 6cda8203-a249-e411-b0cc-f8bc1246af59, $GPGGA,224120.00,4437.5864,N,12402.8867,W,2,11,0.8,26.7,M,-21.8,M,,*68
2023-06-23T22:41:21.5408407Z, 6cda8203-a249-e411-b0cc-f8bc1246af59, $GPGGA,224121.00,4437.5865,N,12402.8867,W,2,11,0.8,26.7,M,-21.8,M,,*68
2023-06-23T22:41:22.6609904Z, 6cda8203-a249-e411-b0cc-f8bc1246af59, $GPGGA,224122.00,4437.5865,N,12402.8867,W,2,11,0.8,26.6,M,-21.8,M,,*6A
2023-06-23T22:41:23.5417374Z, 6cda8203-a249-e411-b0cc-f8bc1246af59, $GPGGA,224123.00,4437.5866,N,12402.8867,W,2,11,0.8,26.6,M,-21.8,M,,*68
2023-06-23T22:41:24.5408313Z, 6cda8203-a249-e411-b0cc-f8bc1246af59, $GPGGA,224124.00,4437.5866,N,12402.8867,W,2,11,0.8,26.5,M,-21.8,M,,*6C
2023-06-23T22:41:25.6206758Z, 6cda8203-a249-e411-b0cc-f8bc1246af59, $GPGGA,224125.00,4437.5867,N,12402.8867,W,2,11,0.8,26.5,M,-21.8,M,,*6C
2023-06-23T22:41:27.1006994Z, 6cda8203-a249-e411-b0cc-f8bc1246af59, $GPGGA,224126.00,4437.5867,N,12402.8867,W,2,11,0.8,26.4,M,-21.8,M,,*6E
2023-06-23T22:41:27.5507695Z, 6cda8203-a249-e411-b0cc-f8bc1246af59, $GPGGA,224127.00,4437.5868,N,12402.8867,W,2,11,0.8,26.4,M,-21.8,M,,*60
2023-06-23T22:41:28.5406549Z, 6cda8203-a249-e411-b0cc-f8bc1246af59, $GPGGA,224128.00,4437.5868,N,12402.8867,W,2,11,0.8,26.3,M,-21.8,M,,*68
2023-06-23T22:41:29.5551243Z, 6cda8203-a249-e411-b0cc-f8bc1246af59, $GPGGA,224129.00,4437.5868,N,12402.8867,W,2,11,0.8,26.3,M,-21.8,M,,*69
2023-06-23T22:41:30.5512831Z, 6cda8203-a249-e411-b0cc-f8bc1246af59, $GPGGA,224130.00,4437.5868,N,12402.8867,W,2,11,0.8,26.2,M,-21.8,M,,*60
2023-06-23T22:41:32.1010777Z, 6cda8203-a249-e411-b0cc-f8bc1246af59, $GPGGA,224131.00,4437.5868,N,12402.8866,W,2,11,0.8,26.1,M,-21.8,M,,*63
2023-06-23T22:41:32.5513390Z, 6cda8203-a249-e411-b0cc-f8bc1246af59, $GPGGA,224132.00,4437.5869,N,12402.8866,W,2,11,0.8,26.1,M,-21.8,M,,*61
2023-06-23T22:41:33.5515459Z, 6cda8203-a249-e411-b0cc-f8bc1246af59, $GPGGA,224133.00,4437.5869,N,12402.8866,W,2,11,0.8,26.1,M,-21.8,M,,*60
2023-06-23T22:41:34.5511106Z, 6cda8203-a249-e411-b0cc-f8bc1246af59, $GPGGA,224134.00,4437.5869,N,12402.8866,W,2,11,0.8,26.0,M,-21.8,M,,*66
2023-06-23T22:41:35.8914382Z, 6cda8203-a249-e411-b0cc-f8bc1246af59, $GPGGA,224135.00,4437.5869,N,12402.8866,W,2,11,0.8,26.0,M,-21.8,M,,*67
2023-06-23T22:41:36.5516301Z, 6cda8203-a249-e411-b0cc-f8bc1246af59, $GPGGA,224136.00,4437.5870,N,12402.8867,W,2,11,0.8,26.0,M,-21.8,M,,*6D
2023-06-23T22:41:37.5512957Z, 6cda8203-a249-e411-b0cc-f8bc1246af59, $GPGGA,224137.00,4437.5869,N,12402.8867,W,2,11,0.8,25.9,M,-21.8,M,,*6E
2023-06-23T22:41:38.5515786Z, 6cda8203-a249-e411-b0cc-f8bc1246af59, $GPGGA,224138.00,4437.5870,N,12402.8867,W,2,11,0.8,25.9,M,-21.8,M,,*69
2023-06-23T22:41:39.5522171Z, 6cda8203-a249-e411-b0cc-f8bc1246af59, $GPGGA,224139.00,4437.5869,N,12402.8867,W,2,11,0.8,25.8,M,-21.8,M,,*61
2023-06-23T22:41:40.5523208Z, 6cda8203-a249-e411-b0cc-f8bc1246af59, $GPGGA,224140.00,4437.5870,N,12402.8867,W,2,11,0.8,25.8,M,-21.8,M,,*67
2023-06-23T22:41:42.0620744Z, 6cda8203-a249-e411-b0cc-f8bc1246af59, $GPGGA,224141.00,4437.5869,N,12402.8868,W,2,11,0.8,25.7,M,-21.8,M,,*6E
2023-06-23T22:41:42.6624476Z, 6cda8203-a249-e411-b0cc-f8bc1246af59, $GPGGA,224142.00,4437.5870,N,12402.8868,W,2,11,0.8,25.7,M,-21.8,M,,*65
2023-06-23T22:41:43.5526697Z, 6cda8203-a249-e411-b0cc-f8bc1246af59, $GPGGA,224143.00,4437.5870,N,12402.8869,W,2,11,0.8,25.6,M,-21.8,M,,*64
2023-06-23T22:41:45.1026113Z, 6cda8203-a249-e411-b0cc-f8bc1246af59, $GPGGA,224144.00,4437.5871,N,12402.8869,W,2,11,0.8,25.6,M,-21.8,M,,*62
2023-06-23T22:41:45.5526905Z, 6cda8203-a249-e411-b0cc-f8bc1246af59, $GPGGA,224145.00,4437.5871,N,12402.8869,W,2,11,0.8,25.6,M,-21.8,M,,*63
2023-06-23T22:41:46.5529238Z, 6cda8203-a249-e411-b0cc-f8bc1246af59, $GPGGA,224146.00,4437.5871,N,12402.8869,W,2,11,0.8,25.5,M,-21.8,M,,*63
2023-06-23T22:41:47.5527821Z, 6cda8203-a249-e411-b0cc-f8bc1246af59, $GPGGA,224147.00,4437.5871,N,12402.8870,W,2,11,0.8,25.5,M,-21.8,M,,*6A
2023-06-23T22:41:48.5525998Z, 6cda8203-a249-e411-b0cc-f8bc1246af59, $GPGGA,224148.00,4437.5871,N,12402.8870,W,2,11,0.8,25.5,M,-21.8,M,,*65
2023-06-23T22:41:49.6225029Z, 6cda8203-a249-e411-b0cc-f8bc1246af59, $GPGGA,224149.00,4437.5872,N,12402.8870,W,2,11,0.8,25.4,M,-21.8,M,,*66
2023-06-23T22:41:50.6325993Z, 6cda8203-a249-e411-b0cc-f8bc1246af59, $GPGGA,224150.00,4437.5872,N,12402.8869,W,2,11,0.8,25.4,M,-21.8,M,,*66
2023-06-23T22:41:51.5528743Z, 6cda8203-a249-e411-b0cc-f8bc1246af59, $GPGGA,224151.00,4437.5872,N,12402.8870,W,2,11,0.8,25.3,M,-21.8,M,,*68
2023-06-23T22:41:52.5502226Z, 6cda8203-a249-e411-b0cc-f8bc1246af59, $GPGGA,224152.00,4437.5872,N,12402.8869,W,2,11,0.8,25.3,M,-21.8,M,,*63
2023-06-23T22:41:53.6223684Z, 6cda8203-a249-e411-b0cc-f8bc1246af59, $GPGGA,224153.00,4437.5872,N,12402.8868,W,2,11,0.8,25.3,M,-21.8,M,,*63
2023-06-23T22:41:54.5390300Z, 6cda8203-a249-e411-b0cc-f8bc1246af59, $GPGGA,224154.00,4437.5872,N,12402.8868,W,2,11,0.8,25.3,M,-21.8,M,,*64
2023-06-23T22:41:56.1697223Z, 6cda8203-a249-e411-b0cc-f8bc1246af59, $GPGGA,224155.00,4437.5872,N,12402.8867,W,2,11,0.8,25.3,M,-21.8,M,,*6A
2023-06-23T22:41:56.6588689Z, 6cda8203-a249-e411-b0cc-f8bc1246af59, $GPGGA,224156.00,4437.5872,N,12402.8867,W,2,11,0.8,25.3,M,-21.8,M,,*69
2023-06-23T22:41:58.0891504Z, 6cda8203-a249-e411-b0cc-f8bc1246af59, $GPGGA,224157.00,4437.5872,N,12402.8866,W,2,11,0.8,25.2,M,-21.8,M,,*68
2023-06-23T22:41:58.5491310Z, 6cda8203-a249-e411-b0cc-f8bc1246af59, $GPGGA,224158.00,4437.5872,N,12402.8866,W,2,11,0.8,25.2,M,-21.8,M,,*67
2023-06-23T22:42:00.0895284Z, 6cda8203-a249-e411-b0cc-f8bc1246af59, $GPGGA,224159.00,4437.5872,N,12402.8866,W,2,11,0.8,25.2,M,-21.8,M,,*66
