ACQ Timestamp (Server Time in UTC), MessageID, Data Value For: GNSS-6452-$GPGGA
2023-07-20T12:56:17.0968801Z, 6cda8203-a249-e411-b0cc-f8bc1246af59, $GPGGA,125616.00,4437.5847,N,12402.8872,W,2,10,0.8,23.6,M,-21.8,M,,*68
2023-07-20T12:56:17.4175111Z, 6cda8203-a249-e411-b0cc-f8bc1246af59, $GPGGA,125617.00,4437.5847,N,12402.8873,W,2,10,0.8,23.5,M,-21.8,M,,*6B
2023-07-20T12:56:18.3773647Z, 6cda8203-a249-e411-b0cc-f8bc1246af59, $GPGGA,125618.00,4437.5846,N,12402.8872,W,2,10,0.8,23.5,M,-21.8,M,,*64
2023-07-20T12:56:20.0968564Z, 6cda8203-a249-e411-b0cc-f8bc1246af59, $GPGGA,125619.00,4437.5846,N,12402.8873,W,2,10,0.8,23.5,M,-21.8,M,,*64
2023-07-20T12:56:20.4175001Z, 6cda8203-a249-e411-b0cc-f8bc1246af59, $GPGGA,125620.00,4437.5845,N,12402.8872,W,2,10,0.8,23.4,M,-21.8,M,,*6D
2023-07-20T12:56:22.0075863Z, 6cda8203-a249-e411-b0cc-f8bc1246af59, $GPGGA,125621.00,4437.5844,N,12402.8873,W,2,10,0.8,23.3,M,-21.8,M,,*6B
2023-07-20T12:56:23.0979110Z, 6cda8203-a249-e411-b0cc-f8bc1246af59, $GPGGA,125622.00,4437.5844,N,12402.8872,W,2,10,0.8,23.3,M,-21.8,M,,*69
2023-07-20T12:56:23.4174922Z, 6cda8203-a249-e411-b0cc-f8bc1246af59, $GPGGA,125623.00,4437.5843,N,12402.8872,W,2,10,0.8,23.2,M,-21.8,M,,*6E
2023-07-20T12:56:25.0971721Z, 6cda8203-a249-e411-b0cc-f8bc1246af59, $GPGGA,125624.00,4437.5843,N,12402.8872,W,2,10,0.8,23.2,M,-21.8,M,,*69
2023-07-20T12:56:25.4178001Z, 6cda8203-a249-e411-b0cc-f8bc1246af59, $GPGGA,125625.00,4437.5842,N,12402.8872,W,2,10,0.8,23.1,M,-21.8,M,,*6A
2023-07-20T12:56:26.3776448Z, 6cda8203-a249-e411-b0cc-f8bc1246af59, $GPGGA,125626.00,4437.5842,N,12402.8872,W,2,10,0.8,23.0,M,-21.8,M,,*68
2023-07-20T12:56:28.0981736Z, 6cda8203-a249-e411-b0cc-f8bc1246af59, $GPGGA,125627.00,4437.5841,N,12402.8873,W,2,10,0.8,23.0,M,-21.8,M,,*6B
2023-07-20T12:56:28.4177866Z, 6cda8203-a249-e411-b0cc-f8bc1246af59, $GPGGA,125628.00,4437.5841,N,12402.8872,W,2,10,0.8,22.9,M,-21.8,M,,*6D
2023-07-20T12:56:30.0974942Z, 6cda8203-a249-e411-b0cc-f8bc1246af59, $GPGGA,125629.00,4437.5841,N,12402.8873,W,2,10,0.8,22.9,M,-21.8,M,,*6D
2023-07-20T12:56:30.4181466Z, 6cda8203-a249-e411-b0cc-f8bc1246af59, $GPGGA,125630.00,4437.5840,N,12402.8872,W,2,10,0.8,22.8,M,-21.8,M,,*64
2023-07-20T12:56:31.3779642Z, 6cda8203-a249-e411-b0cc-f8bc1246af59, $GPGGA,125631.00,4437.5840,N,12402.8873,W,2,10,0.8,22.8,M,-21.8,M,,*64
2023-07-20T12:56:33.0979443Z, 6cda8203-a249-e411-b0cc-f8bc1246af59, $GPGGA,125632.00,4437.5840,N,12402.8872,W,2,10,0.8,22.7,M,-21.8,M,,*69
2023-07-20T12:56:33.4185502Z, 6cda8203-a249-e411-b0cc-f8bc1246af59, $GPGGA,125633.00,4437.5840,N,12402.8873,W,2,10,0.8,22.7,M,-21.8,M,,*69
2023-07-20T12:56:34.6481975Z, 6cda8203-a249-e411-b0cc-f8bc1246af59, $GPGGA,125634.00,4437.5839,N,12402.8872,W,2,10,0.8,22.6,M,-21.8,M,,*60
2023-07-20T12:56:35.2386715Z, 6cda8203-a249-e411-b0cc-f8bc1246af59, $GPGGA,125635.00,4437.5839,N,12402.8873,W,2,10,0.8,22.6,M,-21.8,M,,*60
2023-07-20T12:56:36.4086045Z, 6cda8203-a249-e411-b0cc-f8bc1246af59, $GPGGA,125636.00,4437.5839,N,12402.8873,W,2,10,0.8,22.5,M,-21.8,M,,*60
2023-07-20T12:56:38.0982501Z, 6cda8203-a249-e411-b0cc-f8bc1246af59, $GPGGA,125637.00,4437.5839,N,12402.8873,W,2,10,0.8,22.5,M,-21.8,M,,*61
2023-07-20T12:56:38.4188878Z, 6cda8203-a249-e411-b0cc-f8bc1246af59, $GPGGA,125638.00,4437.5839,N,12402.8873,W,2,10,0.8,22.4,M,-21.8,M,,*6F
2023-07-20T12:56:39.4085702Z, 6cda8203-a249-e411-b0cc-f8bc1246af59, $GPGGA,125639.00,4437.5838,N,12402.8873,W,2,10,0.8,22.4,M,-21.8,M,,*6F
2023-07-20T12:56:41.0982431Z, 6cda8203-a249-e411-b0cc-f8bc1246af59, $GPGGA,125640.00,4437.5839,N,12402.8873,W,2,10,0.8,22.4,M,-21.8,M,,*60
2023-07-20T12:56:41.4188615Z, 6cda8203-a249-e411-b0cc-f8bc1246af59, $GPGGA,125641.00,4437.5838,N,12402.8873,W,2,10,0.8,22.3,M,-21.8,M,,*67
2023-07-20T12:56:42.2492325Z, 6cda8203-a249-e411-b0cc-f8bc1246af59, $GPGGA,125642.00,4437.5838,N,12402.8873,W,2,10,0.8,22.3,M,-21.8,M,,*64
2023-07-20T12:56:43.2409387Z, 6cda8203-a249-e411-b0cc-f8bc1246af59, $GPGGA,125643.00,4437.5838,N,12402.8874,W,2,10,0.8,22.3,M,-21.8,M,,*62
2023-07-20T12:56:44.4088960Z, 6cda8203-a249-e411-b0cc-f8bc1246af59, $GPGGA,125644.00,4437.5838,N,12402.8874,W,2,10,0.8,22.2,M,-21.8,M,,*64
2023-07-20T12:56:45.2492218Z, 6cda8203-a249-e411-b0cc-f8bc1246af59, $GPGGA,125645.00,4437.5838,N,12402.8874,W,2,10,0.8,22.2,M,-21.8,M,,*65
2023-07-20T12:56:47.0992199Z, 6cda8203-a249-e411-b0cc-f8bc1246af59, $GPGGA,125646.00,4437.5838,N,12402.8875,W,2,10,0.8,22.1,M,-21.8,M,,*64
2023-07-20T12:56:47.4188390Z, 6cda8203-a249-e411-b0cc-f8bc1246af59, $GPGGA,125647.00,4437.5838,N,12402.8875,W,2,10,0.8,22.1,M,-21.8,M,,*65
2023-07-20T12:56:48.2492431Z, 6cda8203-a249-e411-b0cc-f8bc1246af59, $GPGGA,125648.00,4437.5838,N,12402.8875,W,2,10,0.8,22.1,M,-21.8,M,,*6A
2023-07-20T12:56:49.2488946Z, 6cda8203-a249-e411-b0cc-f8bc1246af59, $GPGGA,125649.00,4437.5838,N,12402.8876,W,2,10,0.8,22.0,M,-21.8,M,,*69
2023-07-20T12:56:50.4088624Z, 6cda8203-a249-e411-b0cc-f8bc1246af59, $GPGGA,125650.00,4437.5838,N,12402.8876,W,2,10,0.8,22.0,M,-21.8,M,,*61
2023-07-20T12:56:51.2492262Z, 6cda8203-a249-e411-b0cc-f8bc1246af59, $GPGGA,125651.00,4437.5839,N,12402.8876,W,2,10,0.8,22.0,M,-21.8,M,,*61
2023-07-20T12:56:53.0994106Z, 6cda8203-a249-e411-b0cc-f8bc1246af59, $GPGGA,125652.00,4437.5838,N,12402.8877,W,2,10,0.8,21.9,M,-21.8,M,,*68
2023-07-20T12:56:53.8391497Z, 6cda8203-a249-e411-b0cc-f8bc1246af59, $GPGGA,125653.00,4437.5839,N,12402.8877,W,2,10,0.8,21.9,M,-21.8,M,,*68
2023-07-20T12:56:54.2494063Z, 6cda8203-a249-e411-b0cc-f8bc1246af59, $GPGGA,125654.00,4437.5838,N,12402.8878,W,2,10,0.8,21.8,M,-21.8,M,,*60
2023-07-20T12:56:56.0993768Z, 6cda8203-a249-e411-b0cc-f8bc1246af59, $GPGGA,125655.00,4437.5839,N,12402.8878,W,2,10,0.8,21.8,M,-21.8,M,,*60
2023-07-20T12:56:56.4199964Z, 6cda8203-a249-e411-b0cc-f8bc1246af59, $GPGGA,125656.00,4437.5839,N,12402.8879,W,2,10,0.8,21.8,M,-21.8,M,,*62
2023-07-20T12:56:57.2493858Z, 6cda8203-a249-e411-b0cc-f8bc1246af59, $GPGGA,125657.00,4437.5839,N,12402.8879,W,2,10,0.8,21.7,M,-21.8,M,,*6C
2023-07-20T12:56:58.4203004Z, 6cda8203-a249-e411-b0cc-f8bc1246af59, $GPGGA,125658.00,4437.5839,N,12402.8880,W,2,10,0.8,21.7,M,-21.8,M,,*65
2023-07-20T12:56:59.8899834Z, 6cda8203-a249-e411-b0cc-f8bc1246af59, $GPGGA,125659.00,4437.5839,N,12402.8880,W,2,10,0.8,21.7,M,-21.8,M,,*64
2023-07-20T12:57:01.0997482Z, 6cda8203-a249-e411-b0cc-f8bc1246af59, $GPGGA,125700.00,4437.5839,N,12402.8880,W,2,10,0.8,21.6,M,-21.8,M,,*68
2023-07-20T12:57:01.4203733Z, 6cda8203-a249-e411-b0cc-f8bc1246af59, $GPGGA,125701.00,4437.5839,N,12402.8880,W,2,10,0.8,21.6,M,-21.8,M,,*69
2023-07-20T12:57:02.2498181Z, 6cda8203-a249-e411-b0cc-f8bc1246af59, $GPGGA,125702.00,4437.5839,N,12402.8880,W,2,10,0.8,21.6,M,-21.8,M,,*6A
2023-07-20T12:57:03.4197444Z, 6cda8203-a249-e411-b0cc-f8bc1246af59, $GPGGA,125703.00,4437.5838,N,12402.8881,W,2,10,0.8,21.5,M,-21.8,M,,*68
2023-07-20T12:57:04.2700538Z, 6cda8203-a249-e411-b0cc-f8bc1246af59, $GPGGA,125704.00,4437.5839,N,12402.8881,W,2,10,0.8,21.5,M,-21.8,M,,*6E
2023-07-20T12:57:05.2508224Z, 6cda8203-a249-e411-b0cc-f8bc1246af59, $GPGGA,125705.00,4437.5839,N,12402.8881,W,2,10,0.8,21.5,M,-21.8,M,,*6F
2023-07-20T12:57:06.8608876Z, 6cda8203-a249-e411-b0cc-f8bc1246af59, $GPGGA,125706.00,4437.5839,N,12402.8882,W,2,10,0.8,21.4,M,-21.8,M,,*6E
2023-07-20T12:57:07.2701203Z, 6cda8203-a249-e411-b0cc-f8bc1246af59, $GPGGA,125707.00,4437.5839,N,12402.8882,W,2,10,0.8,21.4,M,-21.8,M,,*6F
2023-07-20T12:57:09.1003214Z, 6cda8203-a249-e411-b0cc-f8bc1246af59, $GPGGA,125708.00,4437.5839,N,12402.8882,W,2,10,0.8,21.4,M,-21.8,M,,*60
2023-07-20T12:57:09.4209512Z, 6cda8203-a249-e411-b0cc-f8bc1246af59, $GPGGA,125709.00,4437.5839,N,12402.8882,W,2,10,0.8,21.3,M,-21.8,M,,*66
2023-07-20T12:57:10.2603454Z, 6cda8203-a249-e411-b0cc-f8bc1246af59, $GPGGA,125710.00,4437.5839,N,12402.8882,W,2,10,0.8,21.3,M,-21.8,M,,*6E
2023-07-20T12:57:11.2610196Z, 6cda8203-a249-e411-b0cc-f8bc1246af59, $GPGGA,125711.00,4437.5839,N,12402.8882,W,2,10,0.8,21.3,M,-21.8,M,,*6F
2023-07-20T12:57:12.9805592Z, 6cda8203-a249-e411-b0cc-f8bc1246af59, $GPGGA,125712.00,4437.5839,N,12402.8883,W,2,10,0.8,21.3,M,-21.8,M,,*6D
2023-07-20T12:57:14.1007250Z, 6cda8203-a249-e411-b0cc-f8bc1246af59, $GPGGA,125713.00,4437.5839,N,12402.8883,W,2,10,0.8,21.2,M,-21.8,M,,*6D
2023-07-20T12:57:14.4213523Z, 6cda8203-a249-e411-b0cc-f8bc1246af59, $GPGGA,125714.00,4437.5839,N,12402.8883,W,2,10,0.8,21.2,M,-21.8,M,,*6A
2023-07-20T12:57:15.2706518Z, 6cda8203-a249-e411-b0cc-f8bc1246af59, $GPGGA,125715.00,4437.5839,N,12402.8883,W,2,10,0.8,21.2,M,-21.8,M,,*6B
2023-07-20T12:57:16.2613778Z, 6cda8203-a249-e411-b0cc-f8bc1246af59, $GPGGA,125716.00,4437.5839,N,12402.8883,W,2,10,0.8,21.1,M,-21.8,M,,*6B
2023-07-20T12:57:17.4312733Z, 6cda8203-a249-e411-b0cc-f8bc1246af59, $GPGGA,125717.00,4437.5839,N,12402.8883,W,2,10,0.8,21.1,M,-21.8,M,,*6A
2023-07-20T12:57:18.2617067Z, 6cda8203-a249-e411-b0cc-f8bc1246af59, $GPGGA,125718.00,4437.5839,N,12402.8884,W,2,10,0.8,21.1,M,-21.8,M,,*62
2023-07-20T12:57:20.1017132Z, 6cda8203-a249-e411-b0cc-f8bc1246af59, $GPGGA,125719.00,4437.5840,N,12402.8883,W,2,10,0.8,21.1,M,-21.8,M,,*6A
2023-07-20T12:57:20.4213408Z, 6cda8203-a249-e411-b0cc-f8bc1246af59, $GPGGA,125720.00,4437.5840,N,12402.8884,W,2,10,0.8,21.0,M,-21.8,M,,*66
2023-07-20T12:57:21.2616969Z, 6cda8203-a249-e411-b0cc-f8bc1246af59, $GPGGA,125721.00,4437.5840,N,12402.8884,W,2,10,0.8,21.0,M,-21.8,M,,*67
2023-07-20T12:57:22.2613487Z, 6cda8203-a249-e411-b0cc-f8bc1246af59, $GPGGA,125722.00,4437.5840,N,12402.8884,W,2,10,0.8,21.0,M,-21.8,M,,*64
2023-07-20T12:57:23.2819365Z, 6cda8203-a249-e411-b0cc-f8bc1246af59, $GPGGA,125723.00,4437.5840,N,12402.8884,W,2,10,0.8,21.0,M,-21.8,M,,*65
2023-07-20T12:57:24.2616799Z, 6cda8203-a249-e411-b0cc-f8bc1246af59, $GPGGA,125724.00,4437.5840,N,12402.8884,W,2,10,0.8,21.0,M,-21.8,M,,*62
2023-07-20T12:57:25.2514409Z, 6cda8203-a249-e411-b0cc-f8bc1246af59, $GPGGA,125725.00,4437.5840,N,12402.8884,W,2,10,0.8,20.9,M,-21.8,M,,*6B
2023-07-20T12:57:27.1014083Z, 6cda8203-a249-e411-b0cc-f8bc1246af59, $GPGGA,125726.00,4437.5840,N,12402.8884,W,2,10,0.8,20.9,M,-21.8,M,,*68
2023-07-20T12:57:27.4238757Z, 6cda8203-a249-e411-b0cc-f8bc1246af59, $GPGGA,125727.00,4437.5840,N,12402.8884,W,2,10,0.8,20.9,M,-21.8,M,,*69
2023-07-20T12:57:29.1017395Z, 6cda8203-a249-e411-b0cc-f8bc1246af59, $GPGGA,125728.00,4437.5840,N,12402.8884,W,2,10,0.8,20.9,M,-21.8,M,,*66
2023-07-20T12:57:29.4223624Z, 6cda8203-a249-e411-b0cc-f8bc1246af59, $GPGGA,125729.00,4437.5840,N,12402.8884,W,2,10,0.8,20.9,M,-21.8,M,,*67
2023-07-20T12:57:31.1020803Z, 6cda8203-a249-e411-b0cc-f8bc1246af59, $GPGGA,125730.00,4437.5840,N,12402.8884,W,2,10,0.8,20.9,M,-21.8,M,,*6F
2023-07-20T12:57:31.4226951Z, 6cda8203-a249-e411-b0cc-f8bc1246af59, $GPGGA,125731.00,4437.5840,N,12402.8884,W,2,10,0.8,20.9,M,-21.8,M,,*6E
2023-07-20T12:57:32.6224682Z, 6cda8203-a249-e411-b0cc-f8bc1246af59, $GPGGA,125732.00,4437.5840,N,12402.8885,W,2,10,0.8,20.9,M,-21.8,M,,*6C
2023-07-20T12:57:34.1020594Z, 6cda8203-a249-e411-b0cc-f8bc1246af59, $GPGGA,125733.00,4437.5840,N,12402.8885,W,2,10,0.8,20.9,M,-21.8,M,,*6D
2023-07-20T12:57:34.4226898Z, 6cda8203-a249-e411-b0cc-f8bc1246af59, $GPGGA,125734.00,4437.5840,N,12402.8885,W,2,10,0.8,20.9,M,-21.8,M,,*6A
2023-07-20T12:57:36.1023948Z, 6cda8203-a249-e411-b0cc-f8bc1246af59, $GPGGA,125735.00,4437.5840,N,12402.8885,W,2,10,0.8,20.9,M,-21.8,M,,*6B
2023-07-20T12:57:36.4230161Z, 6cda8203-a249-e411-b0cc-f8bc1246af59, $GPGGA,125736.00,4437.5840,N,12402.8885,W,2,10,0.8,20.9,M,-21.8,M,,*68
2023-07-20T12:57:37.9921838Z, 6cda8203-a249-e411-b0cc-f8bc1246af59, $GPGGA,125737.00,4437.5840,N,12402.8886,W,2,10,0.8,20.9,M,-21.8,M,,*6A
2023-07-20T12:57:39.1023883Z, 6cda8203-a249-e411-b0cc-f8bc1246af59, $GPGGA,125738.00,4437.5840,N,12402.8885,W,2,10,0.8,20.9,M,-21.8,M,,*66
2023-07-20T12:57:39.4230037Z, 6cda8203-a249-e411-b0cc-f8bc1246af59, $GPGGA,125739.00,4437.5840,N,12402.8886,W,2,10,0.8,20.9,M,-21.8,M,,*64
2023-07-20T12:57:41.1027125Z, 6cda8203-a249-e411-b0cc-f8bc1246af59, $GPGGA,125740.00,4437.5840,N,12402.8886,W,2,10,0.8,20.9,M,-21.8,M,,*6A
2023-07-20T12:57:41.4233400Z, 6cda8203-a249-e411-b0cc-f8bc1246af59, $GPGGA,125741.00,4437.5840,N,12402.8886,W,2,10,0.8,20.8,M,-21.8,M,,*6A
2023-07-20T12:57:43.0942283Z, 6cda8203-a249-e411-b0cc-f8bc1246af59, $GPGGA,125742.00,4437.5840,N,12402.8887,W,2,10,0.8,20.8,M,-21.8,M,,*68
2023-07-20T12:57:43.4114084Z, 6cda8203-a249-e411-b0cc-f8bc1246af59, $GPGGA,125743.00,4437.5840,N,12402.8887,W,2,10,0.8,20.8,M,-21.8,M,,*69
2023-07-20T12:57:45.0881644Z, 6cda8203-a249-e411-b0cc-f8bc1246af59, $GPGGA,125744.00,4437.5840,N,12402.8887,W,2,10,0.8,20.8,M,-21.8,M,,*6E
2023-07-20T12:57:45.4078051Z, 6cda8203-a249-e411-b0cc-f8bc1246af59, $GPGGA,125745.00,4437.5840,N,12402.8888,W,2,10,0.8,20.8,M,-21.8,M,,*60
2023-07-20T12:57:46.3677837Z, 6cda8203-a249-e411-b0cc-f8bc1246af59, $GPGGA,125746.00,4437.5840,N,12402.8888,W,2,10,0.8,20.8,M,-21.8,M,,*63
2023-07-20T12:57:48.0883984Z, 6cda8203-a249-e411-b0cc-f8bc1246af59, $GPGGA,125747.00,4437.5840,N,12402.8889,W,2,10,0.8,20.8,M,-21.8,M,,*63
2023-07-20T12:57:48.4080289Z, 6cda8203-a249-e411-b0cc-f8bc1246af59, $GPGGA,125748.00,4437.5840,N,12402.8889,W,2,10,0.8,20.8,M,-21.8,M,,*6C
2023-07-20T12:57:50.0878537Z, 6cda8203-a249-e411-b0cc-f8bc1246af59, $GPGGA,125749.00,4437.5840,N,12402.8889,W,2,10,0.8,20.8,M,-21.8,M,,*6D
2023-07-20T12:57:50.4084842Z, 6cda8203-a249-e411-b0cc-f8bc1246af59, $GPGGA,125750.00,4437.5839,N,12402.8890,W,2,10,0.8,20.8,M,-21.8,M,,*63
2023-07-20T12:57:52.0881969Z, 6cda8203-a249-e411-b0cc-f8bc1246af59, $GPGGA,125751.00,4437.5839,N,12402.8890,W,2,10,0.8,20.8,M,-21.8,M,,*62
2023-07-20T12:57:52.4088099Z, 6cda8203-a249-e411-b0cc-f8bc1246af59, $GPGGA,125752.00,4437.5839,N,12402.8890,W,2,10,0.8,20.8,M,-21.8,M,,*61
2023-07-20T12:57:54.0885269Z, 6cda8203-a249-e411-b0cc-f8bc1246af59, $GPGGA,125753.00,4437.5839,N,12402.8891,W,2,10,0.8,20.8,M,-21.8,M,,*61
2023-07-20T12:57:54.4091425Z, 6cda8203-a249-e411-b0cc-f8bc1246af59, $GPGGA,125754.00,4437.5839,N,12402.8891,W,2,10,0.8,20.8,M,-21.8,M,,*66
2023-07-20T12:57:56.0888469Z, 6cda8203-a249-e411-b0cc-f8bc1246af59, $GPGGA,125755.00,4437.5839,N,12402.8891,W,2,10,0.8,20.8,M,-21.8,M,,*67
2023-07-20T12:57:56.4084529Z, 6cda8203-a249-e411-b0cc-f8bc1246af59, $GPGGA,125756.00,4437.5839,N,12402.8892,W,2,10,0.8,20.8,M,-21.8,M,,*67
2023-07-20T12:57:57.2123549Z, 6cda8203-a249-e411-b0cc-f8bc1246af59, $GPGGA,125757.00,4437.5838,N,12402.8892,W,2,10,0.8,20.8,M,-21.8,M,,*67
2023-07-20T12:57:59.0893728Z, 6cda8203-a249-e411-b0cc-f8bc1246af59, $GPGGA,125758.00,4437.5838,N,12402.8893,W,2,10,0.8,20.8,M,-21.8,M,,*69
2023-07-20T12:57:59.4090234Z, 6cda8203-a249-e411-b0cc-f8bc1246af59, $GPGGA,125759.00,4437.5838,N,12402.8893,W,2,10,0.8,20.8,M,-21.8,M,,*68
2023-07-20T12:58:01.0887188Z, 6cda8203-a249-e411-b0cc-f8bc1246af59, $GPGGA,125800.00,4437.5838,N,12402.8894,W,2,10,0.8,20.8,M,-21.8,M,,*6C
2023-07-20T12:58:01.4093412Z, 6cda8203-a249-e411-b0cc-f8bc1246af59, $GPGGA,125801.00,4437.5837,N,12402.8894,W,2,10,0.8,20.8,M,-21.8,M,,*62
2023-07-20T12:58:03.0891647Z, 6cda8203-a249-e411-b0cc-f8bc1246af59, $GPGGA,125802.00,4437.5838,N,12402.8895,W,2,10,0.8,20.8,M,-21.8,M,,*6F
2023-07-20T12:58:03.4088018Z, 6cda8203-a249-e411-b0cc-f8bc1246af59, $GPGGA,125803.00,4437.5837,N,12402.8895,W,2,10,0.8,20.8,M,-21.8,M,,*61
2023-07-20T12:58:04.3695911Z, 6cda8203-a249-e411-b0cc-f8bc1246af59, $GPGGA,125804.00,4437.5837,N,12402.8896,W,2,10,0.8,20.8,M,-21.8,M,,*65
2023-07-20T12:58:06.0891556Z, 6cda8203-a249-e411-b0cc-f8bc1246af59, $GPGGA,125805.00,4437.5837,N,12402.8896,W,2,10,0.8,20.8,M,-21.8,M,,*64
2023-07-20T12:58:06.4097749Z, 6cda8203-a249-e411-b0cc-f8bc1246af59, $GPGGA,125806.00,4437.5837,N,12402.8897,W,2,10,0.8,20.8,M,-21.8,M,,*66
2023-07-20T12:58:07.3696651Z, 6cda8203-a249-e411-b0cc-f8bc1246af59, $GPGGA,125807.00,4437.5837,N,12402.8897,W,2,10,0.8,20.9,M,-21.8,M,,*66
2023-07-20T12:58:09.0892701Z, 6cda8203-a249-e411-b0cc-f8bc1246af59, $GPGGA,125808.00,4437.5837,N,12402.8898,W,2,10,0.8,20.9,M,-21.8,M,,*66
2023-07-20T12:58:09.4098889Z, 6cda8203-a249-e411-b0cc-f8bc1246af59, $GPGGA,125809.00,4437.5837,N,12402.8898,W,2,10,0.8,20.9,M,-21.8,M,,*67
2023-07-20T12:58:10.3702295Z, 6cda8203-a249-e411-b0cc-f8bc1246af59, $GPGGA,125810.00,4437.5836,N,12402.8898,W,2,10,0.8,20.9,M,-21.8,M,,*6E
2023-07-20T12:58:12.0897659Z, 6cda8203-a249-e411-b0cc-f8bc1246af59, $GPGGA,125811.00,4437.5836,N,12402.8898,W,2,10,0.8,20.9,M,-21.8,M,,*6F
2023-07-20T12:58:12.4104055Z, 6cda8203-a249-e411-b0cc-f8bc1246af59, $GPGGA,125812.00,4437.5836,N,12402.8898,W,2,10,0.8,20.9,M,-21.8,M,,*6C
2023-07-20T12:58:13.3702228Z, 6cda8203-a249-e411-b0cc-f8bc1246af59, $GPGGA,125813.00,4437.5836,N,12402.8898,W,2,10,0.8,20.9,M,-21.8,M,,*6D
2023-07-20T12:58:15.0897787Z, 6cda8203-a249-e411-b0cc-f8bc1246af59, $GPGGA,125814.00,4437.5836,N,12402.8898,W,2,10,0.8,20.9,M,-21.8,M,,*6A
2023-07-20T12:58:15.4103975Z, 6cda8203-a249-e411-b0cc-f8bc1246af59, $GPGGA,125815.00,4437.5836,N,12402.8898,W,2,10,0.8,21.0,M,-21.8,M,,*63
2023-07-20T12:58:17.0903299Z, 6cda8203-a249-e411-b0cc-f8bc1246af59, $GPGGA,125816.00,4437.5836,N,12402.8899,W,2,10,0.8,21.0,M,-21.8,M,,*61
2023-07-20T12:58:17.4099685Z, 6cda8203-a249-e411-b0cc-f8bc1246af59, $GPGGA,125817.00,4437.5836,N,12402.8899,W,2,10,0.8,21.0,M,-21.8,M,,*60
2023-07-20T12:58:19.0906572Z, 6cda8203-a249-e411-b0cc-f8bc1246af59, $GPGGA,125818.00,4437.5836,N,12402.8899,W,2,10,0.8,21.0,M,-21.8,M,,*6F
2023-07-20T12:58:19.4103104Z, 6cda8203-a249-e411-b0cc-f8bc1246af59, $GPGGA,125819.00,4437.5836,N,12402.8899,W,2,10,0.8,21.0,M,-21.8,M,,*6E
2023-07-20T12:58:21.0901987Z, 6cda8203-a249-e411-b0cc-f8bc1246af59, $GPGGA,125820.00,4437.5836,N,12402.8899,W,2,10,0.8,21.0,M,-21.8,M,,*64
2023-07-20T12:58:21.4108300Z, 6cda8203-a249-e411-b0cc-f8bc1246af59, $GPGGA,125821.00,4437.5836,N,12402.8900,W,2,10,0.8,21.0,M,-21.8,M,,*64
2023-07-20T12:58:23.0905135Z, 6cda8203-a249-e411-b0cc-f8bc1246af59, $GPGGA,125822.00,4437.5836,N,12402.8900,W,2,10,0.8,21.0,M,-21.8,M,,*67
2023-07-20T12:58:23.4111630Z, 6cda8203-a249-e411-b0cc-f8bc1246af59, $GPGGA,125823.00,4437.5835,N,12402.8900,W,2,10,0.8,21.1,M,-21.8,M,,*64
2023-07-20T12:58:24.8807726Z, 6cda8203-a249-e411-b0cc-f8bc1246af59, $GPGGA,125824.00,4437.5835,N,12402.8901,W,2,10,0.8,21.1,M,-21.8,M,,*62
2023-07-20T12:58:26.0904931Z, 6cda8203-a249-e411-b0cc-f8bc1246af59, $GPGGA,125825.00,4437.5834,N,12402.8901,W,2,10,0.8,21.2,M,-21.8,M,,*61
2023-07-20T12:58:26.4111491Z, 6cda8203-a249-e411-b0cc-f8bc1246af59, $GPGGA,125826.00,4437.5834,N,12402.8902,W,2,10,0.8,21.2,M,-21.8,M,,*61
2023-07-20T12:58:27.2305501Z, 6cda8203-a249-e411-b0cc-f8bc1246af59, $GPGGA,125827.00,4437.5834,N,12402.8901,W,2,10,0.8,21.2,M,-21.8,M,,*63
2023-07-20T12:58:29.0914948Z, 6cda8203-a249-e411-b0cc-f8bc1246af59, $GPGGA,125828.00,4437.5834,N,12402.8902,W,2,10,0.8,21.2,M,-21.8,M,,*6F
2023-07-20T12:58:29.4111354Z, 6cda8203-a249-e411-b0cc-f8bc1246af59, $GPGGA,125829.00,4437.5833,N,12402.8901,W,2,10,0.8,21.2,M,-21.8,M,,*6A
2023-07-20T12:58:30.8309541Z, 6cda8203-a249-e411-b0cc-f8bc1246af59, $GPGGA,125830.00,4437.5834,N,12402.8902,W,2,10,0.8,21.2,M,-21.8,M,,*66
2023-07-20T12:58:32.0914848Z, 6cda8203-a249-e411-b0cc-f8bc1246af59, $GPGGA,125831.00,4437.5833,N,12402.8902,W,2,10,0.8,21.2,M,-21.8,M,,*60
2023-07-20T12:58:32.4111166Z, 6cda8203-a249-e411-b0cc-f8bc1246af59, $GPGGA,125832.00,4437.5833,N,12402.8902,W,2,10,0.8,21.2,M,-21.8,M,,*63
2023-07-20T12:58:33.2315682Z, 6cda8203-a249-e411-b0cc-f8bc1246af59, $GPGGA,125833.00,4437.5833,N,12402.8902,W,2,10,0.8,21.2,M,-21.8,M,,*62
2023-07-20T12:58:34.3715988Z, 6cda8203-a249-e411-b0cc-f8bc1246af59, $GPGGA,125834.00,4437.5833,N,12402.8902,W,2,10,0.8,21.2,M,-21.8,M,,*65
2023-07-20T12:58:35.2319064Z, 6cda8203-a249-e411-b0cc-f8bc1246af59, $GPGGA,125835.00,4437.5833,N,12402.8902,W,2,10,0.8,21.1,M,-21.8,M,,*67
2023-07-20T12:58:37.0917998Z, 6cda8203-a249-e411-b0cc-f8bc1246af59, $GPGGA,125836.00,4437.5832,N,12402.8902,W,2,10,0.8,21.1,M,-21.8,M,,*65
2023-07-20T12:58:37.4114547Z, 6cda8203-a249-e411-b0cc-f8bc1246af59, $GPGGA,125837.00,4437.5832,N,12402.8902,W,2,10,0.8,21.1,M,-21.8,M,,*64
2023-07-20T12:58:38.2318925Z, 6cda8203-a249-e411-b0cc-f8bc1246af59, $GPGGA,125838.00,4437.5832,N,12402.8902,W,2,10,0.8,21.1,M,-21.8,M,,*6B
2023-07-20T12:58:39.2315343Z, 6cda8203-a249-e411-b0cc-f8bc1246af59, $GPGGA,125839.00,4437.5832,N,12402.8902,W,2,10,0.8,21.1,M,-21.8,M,,*6A
2023-07-20T12:58:40.4014310Z, 6cda8203-a249-e411-b0cc-f8bc1246af59, $GPGGA,125840.00,4437.5832,N,12402.8902,W,2,10,0.8,21.1,M,-21.8,M,,*64
2023-07-20T12:58:41.2318902Z, 6cda8203-a249-e411-b0cc-f8bc1246af59, $GPGGA,125841.00,4437.5832,N,12402.8902,W,2,10,0.8,21.1,M,-21.8,M,,*65
2023-07-20T12:58:43.0719098Z, 6cda8203-a249-e411-b0cc-f8bc1246af59, $GPGGA,125842.00,4437.5831,N,12402.8902,W,2,10,0.8,21.2,M,-21.8,M,,*66
2023-07-20T12:58:43.6424036Z, 6cda8203-a249-e411-b0cc-f8bc1246af59, $GPGGA,125843.00,4437.5831,N,12402.8902,W,2,10,0.8,21.2,M,-21.8,M,,*67
2023-07-20T12:58:44.2318695Z, 6cda8203-a249-e411-b0cc-f8bc1246af59, $GPGGA,125844.00,4437.5831,N,12402.8902,W,2,10,0.8,21.2,M,-21.8,M,,*60
2023-07-20T12:58:46.0917615Z, 6cda8203-a249-e411-b0cc-f8bc1246af59, $GPGGA,125845.00,4437.5831,N,12402.8902,W,2,10,0.8,21.2,M,-21.8,M,,*61
2023-07-20T12:58:46.4124138Z, 6cda8203-a249-e411-b0cc-f8bc1246af59, $GPGGA,125846.00,4437.5831,N,12402.8902,W,2,10,0.8,21.2,M,-21.8,M,,*62
2023-07-20T12:58:47.2328635Z, 6cda8203-a249-e411-b0cc-f8bc1246af59, $GPGGA,125847.00,4437.5831,N,12402.8902,W,2,10,0.8,21.2,M,-21.8,M,,*63
2023-07-20T12:58:48.4027776Z, 6cda8203-a249-e411-b0cc-f8bc1246af59, $GPGGA,125848.00,4437.5831,N,12402.8902,W,2,10,0.8,21.2,M,-21.8,M,,*6C
2023-07-20T12:58:49.9124041Z, 6cda8203-a249-e411-b0cc-f8bc1246af59, $GPGGA,125849.00,4437.5831,N,12402.8903,W,2,10,0.8,21.2,M,-21.8,M,,*6C
2023-07-20T12:58:51.0922695Z, 6cda8203-a249-e411-b0cc-f8bc1246af59, $GPGGA,125850.00,4437.5831,N,12402.8902,W,2,10,0.8,21.2,M,-21.8,M,,*65
2023-07-20T12:58:51.4129261Z, 6cda8203-a249-e411-b0cc-f8bc1246af59, $GPGGA,125851.00,4437.5831,N,12402.8903,W,2,10,0.8,21.2,M,-21.8,M,,*65
2023-07-20T12:58:52.2422829Z, 6cda8203-a249-e411-b0cc-f8bc1246af59, $GPGGA,125852.00,4437.5830,N,12402.8903,W,2,10,0.8,21.2,M,-21.8,M,,*67
2023-07-20T12:58:53.2429564Z, 6cda8203-a249-e411-b0cc-f8bc1246af59, $GPGGA,125853.00,4437.5830,N,12402.8903,W,2,10,0.8,21.2,M,-21.8,M,,*66
2023-07-20T12:58:54.4029635Z, 6cda8203-a249-e411-b0cc-f8bc1246af59, $GPGGA,125854.00,4437.5830,N,12402.8903,W,2,10,0.8,21.2,M,-21.8,M,,*61
2023-07-20T12:58:55.2731870Z, 6cda8203-a249-e411-b0cc-f8bc1246af59, $GPGGA,125855.00,4437.5830,N,12402.8904,W,2,10,0.8,21.2,M,-21.8,M,,*67
2023-07-20T12:58:56.8433421Z, 6cda8203-a249-e411-b0cc-f8bc1246af59, $GPGGA,125856.00,4437.5830,N,12402.8904,W,2,10,0.8,21.3,M,-21.8,M,,*65
2023-07-20T12:58:57.4029574Z, 6cda8203-a249-e411-b0cc-f8bc1246af59, $GPGGA,125857.00,4437.5830,N,12402.8905,W,2,10,0.8,21.3,M,-21.8,M,,*65
2023-07-20T12:58:58.2433091Z, 6cda8203-a249-e411-b0cc-f8bc1246af59, $GPGGA,125858.00,4437.5830,N,12402.8905,W,2,10,0.8,21.3,M,-21.8,M,,*6A
2023-07-20T12:59:00.0932481Z, 6cda8203-a249-e411-b0cc-f8bc1246af59, $GPGGA,125859.00,4437.5829,N,12402.8906,W,2,10,0.8,21.3,M,-21.8,M,,*60
2023-07-20T12:59:00.4128954Z, 6cda8203-a249-e411-b0cc-f8bc1246af59, $GPGGA,125900.00,4437.5829,N,12402.8906,W,2,10,0.8,21.4,M,-21.8,M,,*6A
2023-07-20T12:59:01.2434007Z, 6cda8203-a249-e411-b0cc-f8bc1246af59, $GPGGA,125901.00,4437.5829,N,12402.8906,W,2,10,0.8,21.5,M,-21.8,M,,*6A
2023-07-20T12:59:02.2430604Z, 6cda8203-a249-e411-b0cc-f8bc1246af59, $GPGGA,125902.00,4437.5829,N,12402.8907,W,2,10,0.8,21.5,M,-21.8,M,,*68
2023-07-20T12:59:03.4130116Z, 6cda8203-a249-e411-b0cc-f8bc1246af59, $GPGGA,125903.00,4437.5828,N,12402.8908,W,2,11,0.8,21.6,M,-21.8,M,,*65
2023-07-20T12:59:05.0938594Z, 6cda8203-a249-e411-b0cc-f8bc1246af59, $GPGGA,125904.00,4437.5828,N,12402.8907,W,2,11,0.8,21.7,M,-21.8,M,,*6C
2023-07-20T12:59:05.4135017Z, 6cda8203-a249-e411-b0cc-f8bc1246af59, $GPGGA,125905.00,4437.5827,N,12402.8908,W,2,11,0.8,21.7,M,-21.8,M,,*6D
2023-07-20T12:59:06.2638253Z, 6cda8203-a249-e411-b0cc-f8bc1246af59, $GPGGA,125906.00,4437.5827,N,12402.8909,W,2,11,0.8,21.8,M,-21.8,M,,*60
2023-07-20T12:59:07.2436140Z, 6cda8203-a249-e411-b0cc-f8bc1246af59, $GPGGA,125907.00,4437.5826,N,12402.8909,W,2,11,0.8,21.8,M,-21.8,M,,*60
2023-07-20T12:59:08.4135307Z, 6cda8203-a249-e411-b0cc-f8bc1246af59, $GPGGA,125908.00,4437.5826,N,12402.8909,W,2,11,0.8,21.9,M,-21.8,M,,*6E
2023-07-20T12:59:09.8134873Z, 6cda8203-a249-e411-b0cc-f8bc1246af59, $GPGGA,125909.00,4437.5826,N,12402.8909,W,2,11,0.8,21.9,M,-21.8,M,,*6F
2023-07-20T12:59:11.0939281Z, 6cda8203-a249-e411-b0cc-f8bc1246af59, $GPGGA,125910.00,4437.5826,N,12402.8909,W,2,11,0.8,22.0,M,-21.8,M,,*6D
2023-07-20T12:59:11.4145715Z, 6cda8203-a249-e411-b0cc-f8bc1246af59, $GPGGA,125911.00,4437.5825,N,12402.8909,W,2,11,0.8,22.0,M,-21.8,M,,*6F
2023-07-20T12:59:12.2439648Z, 6cda8203-a249-e411-b0cc-f8bc1246af59, $GPGGA,125912.00,4437.5825,N,12402.8909,W,2,11,0.8,22.1,M,-21.8,M,,*6D
2023-07-20T12:59:13.2446444Z, 6cda8203-a249-e411-b0cc-f8bc1246af59, $GPGGA,125913.00,4437.5824,N,12402.8909,W,2,11,0.8,22.1,M,-21.8,M,,*6D
2023-07-20T12:59:14.2741916Z, 6cda8203-a249-e411-b0cc-f8bc1246af59, $GPGGA,125914.00,4437.5824,N,12402.8909,W,2,11,0.8,22.2,M,-21.8,M,,*69
2023-07-20T12:59:15.2538752Z, 6cda8203-a249-e411-b0cc-f8bc1246af59, $GPGGA,125915.00,4437.5823,N,12402.8910,W,2,11,0.8,22.2,M,-21.8,M,,*67
2023-07-20T12:59:16.6548366Z, 6cda8203-a249-e411-b0cc-f8bc1246af59, $GPGGA,125916.00,4437.5823,N,12402.8909,W,2,11,0.8,22.3,M,-21.8,M,,*6D
2023-07-20T12:59:17.2542070Z, 6cda8203-a249-e411-b0cc-f8bc1246af59, $GPGGA,125917.00,4437.5822,N,12402.8909,W,2,11,0.8,22.3,M,-21.8,M,,*6D
2023-07-20T12:59:19.0942862Z, 6cda8203-a249-e411-b0cc-f8bc1246af59, $GPGGA,125918.00,4437.5822,N,12402.8908,W,2,11,0.8,22.3,M,-21.8,M,,*63
2023-07-20T12:59:19.4149351Z, 6cda8203-a249-e411-b0cc-f8bc1246af59, $GPGGA,125919.00,4437.5821,N,12402.8908,W,2,11,0.8,22.3,M,-21.8,M,,*61
2023-07-20T12:59:20.2544704Z, 6cda8203-a249-e411-b0cc-f8bc1246af59, $GPGGA,125920.00,4437.5820,N,12402.8908,W,2,11,0.8,22.3,M,-21.8,M,,*6A
2023-07-20T12:59:21.4144367Z, 6cda8203-a249-e411-b0cc-f8bc1246af59, $GPGGA,125921.00,4437.5819,N,12402.8907,W,2,11,0.8,22.2,M,-21.8,M,,*6F
2023-07-20T12:59:22.9248946Z, 6cda8203-a249-e411-b0cc-f8bc1246af59, $GPGGA,125922.00,4437.5818,N,12402.8907,W,2,11,0.8,22.2,M,-21.8,M,,*6D
2023-07-20T12:59:24.0947984Z, 6cda8203-a249-e411-b0cc-f8bc1246af59, $GPGGA,125923.00,4437.5818,N,12402.8907,W,2,11,0.8,22.2,M,-21.8,M,,*6C
2023-07-20T12:59:24.4154413Z, 6cda8203-a249-e411-b0cc-f8bc1246af59, $GPGGA,125924.00,4437.5817,N,12402.8906,W,2,11,0.8,22.1,M,-21.8,M,,*66
2023-07-20T12:59:25.2946029Z, 6cda8203-a249-e411-b0cc-f8bc1246af59, $GPGGA,125925.00,4437.5815,N,12402.8907,W,2,11,0.8,22.1,M,-21.8,M,,*64
2023-07-20T12:59:26.2853014Z, 6cda8203-a249-e411-b0cc-f8bc1246af59, $GPGGA,125926.00,4437.5815,N,12402.8906,W,2,11,0.8,22.0,M,-21.8,M,,*67
2023-07-20T12:59:27.2650809Z, 6cda8203-a249-e411-b0cc-f8bc1246af59, $GPGGA,125927.00,4437.5814,N,12402.8906,W,2,11,0.8,22.0,M,-21.8,M,,*67
2023-07-20T12:59:28.2547666Z, 6cda8203-a249-e411-b0cc-f8bc1246af59, $GPGGA,125928.00,4437.5813,N,12402.8905,W,2,11,0.8,22.0,M,-21.8,M,,*6C
2023-07-20T12:59:29.8052505Z, 6cda8203-a249-e411-b0cc-f8bc1246af59, $GPGGA,125929.00,4437.5813,N,12402.8905,W,2,11,0.8,22.0,M,-21.8,M,,*6D
2023-07-20T12:59:31.0956161Z, 6cda8203-a249-e411-b0cc-f8bc1246af59, $GPGGA,125930.00,4437.5813,N,12402.8904,W,2,11,0.8,22.0,M,-21.8,M,,*64
2023-07-20T12:59:31.4152626Z, 6cda8203-a249-e411-b0cc-f8bc1246af59, $GPGGA,125931.00,4437.5813,N,12402.8904,W,2,11,0.8,22.0,M,-21.8,M,,*65
2023-07-20T12:59:33.0959484Z, 6cda8203-a249-e411-b0cc-f8bc1246af59, $GPGGA,125932.00,4437.5813,N,12402.8903,W,2,11,0.8,22.0,M,-21.8,M,,*61
2023-07-20T12:59:33.4155890Z, 6cda8203-a249-e411-b0cc-f8bc1246af59, $GPGGA,125933.00,4437.5813,N,12402.8903,W,2,11,0.8,22.0,M,-21.8,M,,*60
2023-07-20T12:59:35.2754851Z, 6cda8203-a249-e411-b0cc-f8bc1246af59, $GPGGA,125934.00,4437.5813,N,12402.8903,W,2,11,0.8,22.1,M,-21.8,M,,*66
2023-07-20T12:59:35.6658118Z, 6cda8203-a249-e411-b0cc-f8bc1246af59, $GPGGA,125935.00,4437.5812,N,12402.8902,W,2,11,0.8,22.1,M,-21.8,M,,*67
2023-07-20T12:59:37.0955935Z, 6cda8203-a249-e411-b0cc-f8bc1246af59, $GPGGA,125936.00,4437.5812,N,12402.8902,W,2,11,0.8,22.2,M,-21.8,M,,*67
2023-07-20T12:59:37.4166202Z, 6cda8203-a249-e411-b0cc-f8bc1246af59, $GPGGA,125937.00,4437.5812,N,12402.8902,W,2,11,0.8,22.2,M,-21.8,M,,*66
2023-07-20T12:59:39.0960702Z, 6cda8203-a249-e411-b0cc-f8bc1246af59, $GPGGA,125938.00,4437.5812,N,12402.8902,W,2,11,0.8,22.2,M,-21.8,M,,*69
2023-07-20T12:59:39.4162073Z, 6cda8203-a249-e411-b0cc-f8bc1246af59, $GPGGA,125939.00,4437.5811,N,12402.8902,W,2,11,0.8,22.2,M,-21.8,M,,*6B
2023-07-20T12:59:41.0958996Z, 6cda8203-a249-e411-b0cc-f8bc1246af59, $GPGGA,125940.00,4437.5811,N,12402.8901,W,2,11,0.8,22.3,M,-21.8,M,,*67
2023-07-20T12:59:41.4166197Z, 6cda8203-a249-e411-b0cc-f8bc1246af59, $GPGGA,125941.00,4437.5811,N,12402.8902,W,2,11,0.8,22.3,M,-21.8,M,,*65
2023-07-20T12:59:42.2161396Z, 6cda8203-a249-e411-b0cc-f8bc1246af59, $GPGGA,125942.00,4437.5811,N,12402.8901,W,2,11,0.8,22.4,M,-21.8,M,,*62
2023-07-20T12:59:44.0959400Z, 6cda8203-a249-e411-b0cc-f8bc1246af59, $GPGGA,125943.00,4437.5811,N,12402.8901,W,2,11,0.8,22.4,M,-21.8,M,,*63
2023-07-20T12:59:44.4165996Z, 6cda8203-a249-e411-b0cc-f8bc1246af59, $GPGGA,125944.00,4437.5811,N,12402.8900,W,2,11,0.8,22.4,M,-21.8,M,,*65
2023-07-20T12:59:46.0962771Z, 6cda8203-a249-e411-b0cc-f8bc1246af59, $GPGGA,125945.00,4437.5811,N,12402.8899,W,2,11,0.8,22.4,M,-21.8,M,,*65
2023-07-20T12:59:46.4169347Z, 6cda8203-a249-e411-b0cc-f8bc1246af59, $GPGGA,125946.00,4437.5811,N,12402.8898,W,2,11,0.8,22.4,M,-21.8,M,,*67
2023-07-20T12:59:48.0965993Z, 6cda8203-a249-e411-b0cc-f8bc1246af59, $GPGGA,125947.00,4437.5811,N,12402.8898,W,2,11,0.8,22.5,M,-21.8,M,,*67
2023-07-20T12:59:48.4162271Z, 6cda8203-a249-e411-b0cc-f8bc1246af59, $GPGGA,125948.00,4437.5811,N,12402.8898,W,2,11,0.8,22.5,M,-21.8,M,,*68
2023-07-20T12:59:50.0969262Z, 6cda8203-a249-e411-b0cc-f8bc1246af59, $GPGGA,125949.00,4437.5811,N,12402.8897,W,2,11,0.8,22.5,M,-21.8,M,,*66
2023-07-20T12:59:50.4165656Z, 6cda8203-a249-e411-b0cc-f8bc1246af59, $GPGGA,125950.00,4437.5811,N,12402.8896,W,2,11,0.8,22.5,M,-21.8,M,,*6F
2023-07-20T12:59:51.3763646Z, 6cda8203-a249-e411-b0cc-f8bc1246af59, $GPGGA,125951.00,4437.5812,N,12402.8895,W,2,11,0.8,22.6,M,-21.8,M,,*6D
2023-07-20T12:59:53.2074479Z, 6cda8203-a249-e411-b0cc-f8bc1246af59, $GPGGA,125952.00,4437.5812,N,12402.8894,W,2,11,0.8,22.6,M,-21.8,M,,*6F
2023-07-20T12:59:53.5270961Z, 6cda8203-a249-e411-b0cc-f8bc1246af59, $GPGGA,125953.00,4437.5812,N,12402.8894,W,2,11,0.8,22.7,M,-21.8,M,,*6F
2023-07-20T12:59:55.0972438Z, 6cda8203-a249-e411-b0cc-f8bc1246af59, $GPGGA,125954.00,4437.5813,N,12402.8893,W,2,11,0.8,22.7,M,-21.8,M,,*6E
2023-07-20T12:59:55.4569034Z, 6cda8203-a249-e411-b0cc-f8bc1246af59, $GPGGA,125955.00,4437.5813,N,12402.8892,W,2,11,0.8,22.7,M,-21.8,M,,*6E
2023-07-20T12:59:57.0967483Z, 6cda8203-a249-e411-b0cc-f8bc1246af59, $GPGGA,125956.00,4437.5814,N,12402.8891,W,2,11,0.8,22.7,M,-21.8,M,,*69
2023-07-20T12:59:57.4174075Z, 6cda8203-a249-e411-b0cc-f8bc1246af59, $GPGGA,125957.00,4437.5815,N,12402.8890,W,2,11,0.8,22.8,M,-21.8,M,,*67
2023-07-20T12:59:59.0970822Z, 6cda8203-a249-e411-b0cc-f8bc1246af59, $GPGGA,125958.00,4437.5816,N,12402.8889,W,2,11,0.8,22.8,M,-21.8,M,,*63
2023-07-20T12:59:59.4177319Z, 6cda8203-a249-e411-b0cc-f8bc1246af59, $GPGGA,125959.00,4437.5817,N,12402.8888,W,2,11,0.8,22.9,M,-21.8,M,,*63
2023-07-20T13:00:01.0974212Z, 6cda8203-a249-e411-b0cc-f8bc1246af59, $GPGGA,130000.00,4437.5818,N,12402.8888,W,2,11,0.8,23.0,M,-21.8,M,,*65
2023-07-20T13:00:01.4180560Z, 6cda8203-a249-e411-b0cc-f8bc1246af59, $GPGGA,130001.00,4437.5818,N,12402.8888,W,2,11,0.8,23.0,M,-21.8,M,,*64
2023-07-20T13:00:03.0977413Z, 6cda8203-a249-e411-b0cc-f8bc1246af59, $GPGGA,130002.00,4437.5819,N,12402.8887,W,2,11,0.8,23.1,M,-21.8,M,,*68
2023-07-20T13:00:03.8574653Z, 6cda8203-a249-e411-b0cc-f8bc1246af59, $GPGGA,130003.00,4437.5820,N,12402.8887,W,2,11,0.8,23.2,M,-21.8,M,,*60
2023-07-20T13:00:05.0980700Z, 6cda8203-a249-e411-b0cc-f8bc1246af59, $GPGGA,130004.00,4437.5822,N,12402.8887,W,2,11,0.8,23.2,M,-21.8,M,,*65
2023-07-20T13:00:05.4177054Z, 6cda8203-a249-e411-b0cc-f8bc1246af59, $GPGGA,130005.00,4437.5822,N,12402.8887,W,2,11,0.8,23.3,M,-21.8,M,,*65
2023-07-20T13:00:06.3675928Z, 6cda8203-a249-e411-b0cc-f8bc1246af59, $GPGGA,130006.00,4437.5823,N,12402.8887,W,2,11,0.8,23.4,M,-21.8,M,,*60
2023-07-20T13:00:08.2077526Z, 6cda8203-a249-e411-b0cc-f8bc1246af59, $GPGGA,130007.00,4437.5825,N,12402.8886,W,2,11,0.8,23.5,M,-21.8,M,,*67
2023-07-20T13:00:08.5383026Z, 6cda8203-a249-e411-b0cc-f8bc1246af59, $GPGGA,130008.00,4437.5826,N,12402.8886,W,2,11,0.8,23.5,M,-21.8,M,,*6B
2023-07-20T13:00:10.0886156Z, 6cda8203-a249-e411-b0cc-f8bc1246af59, $GPGGA,130009.00,4437.5827,N,12402.8886,W,2,11,0.8,23.6,M,-21.8,M,,*68
2023-07-20T13:00:10.4181894Z, 6cda8203-a249-e411-b0cc-f8bc1246af59, $GPGGA,130010.00,4437.5828,N,12402.8886,W,2,11,0.8,23.7,M,-21.8,M,,*6E
2023-07-20T13:00:12.0978521Z, 6cda8203-a249-e411-b0cc-f8bc1246af59, $GPGGA,130011.00,4437.5829,N,12402.8886,W,2,11,0.8,23.8,M,-21.8,M,,*61
2023-07-20T13:00:12.4185168Z, 6cda8203-a249-e411-b0cc-f8bc1246af59, $GPGGA,130012.00,4437.5829,N,12402.8886,W,2,11,0.8,23.9,M,-21.8,M,,*63
2023-07-20T13:00:14.0986355Z, 6cda8203-a249-e411-b0cc-f8bc1246af59, $GPGGA,130013.00,4437.5830,N,12402.8886,W,2,11,0.8,24.0,M,-21.8,M,,*64
2023-07-20T13:00:14.4188820Z, 6cda8203-a249-e411-b0cc-f8bc1246af59, $GPGGA,130014.00,4437.5831,N,12402.8886,W,2,11,0.8,24.0,M,-21.8,M,,*62
2023-07-20T13:00:16.0985586Z, 6cda8203-a249-e411-b0cc-f8bc1246af59, $GPGGA,130015.00,4437.5832,N,12402.8886,W,2,11,0.8,24.1,M,-21.8,M,,*61
2023-07-20T13:00:16.4181827Z, 6cda8203-a249-e411-b0cc-f8bc1246af59, $GPGGA,130016.00,4437.5832,N,12402.8887,W,2,11,0.8,24.1,M,-21.8,M,,*63
2023-07-20T13:00:17.7782615Z, 6cda8203-a249-e411-b0cc-f8bc1246af59, $GPGGA,130017.00,4437.5833,N,12402.8887,W,2,11,0.8,24.2,M,-21.8,M,,*60
2023-07-20T13:00:19.0985407Z, 6cda8203-a249-e411-b0cc-f8bc1246af59, $GPGGA,130018.00,4437.5833,N,12402.8887,W,2,11,0.8,24.3,M,-21.8,M,,*6E
2023-07-20T13:00:19.4191943Z, 6cda8203-a249-e411-b0cc-f8bc1246af59, $GPGGA,130019.00,4437.5834,N,12402.8887,W,2,11,0.8,24.3,M,-21.8,M,,*68
2023-07-20T13:00:21.0988750Z, 6cda8203-a249-e411-b0cc-f8bc1246af59, $GPGGA,130020.00,4437.5834,N,12402.8888,W,2,11,0.8,24.4,M,-21.8,M,,*6A
2023-07-20T13:00:21.4185156Z, 6cda8203-a249-e411-b0cc-f8bc1246af59, $GPGGA,130021.00,4437.5835,N,12402.8887,W,2,11,0.8,24.4,M,-21.8,M,,*65
2023-07-20T13:00:23.0893001Z, 6cda8203-a249-e411-b0cc-f8bc1246af59, $GPGGA,130022.00,4437.5835,N,12402.8888,W,2,11,0.8,24.5,M,-21.8,M,,*68
2023-07-20T13:00:23.4188399Z, 6cda8203-a249-e411-b0cc-f8bc1246af59, $GPGGA,130023.00,4437.5835,N,12402.8888,W,2,11,0.8,24.5,M,-21.8,M,,*69
2023-07-20T13:00:25.0896014Z, 6cda8203-a249-e411-b0cc-f8bc1246af59, $GPGGA,130024.00,4437.5835,N,12402.8888,W,2,11,0.8,24.6,M,-21.8,M,,*6D
2023-07-20T13:00:25.4589898Z, 6cda8203-a249-e411-b0cc-f8bc1246af59, $GPGGA,130025.00,4437.5835,N,12402.8888,W,2,11,0.8,24.6,M,-21.8,M,,*6C
2023-07-20T13:00:26.6388478Z, 6cda8203-a249-e411-b0cc-f8bc1246af59, $GPGGA,130026.00,4437.5835,N,12402.8888,W,2,11,0.8,24.7,M,-21.8,M,,*6E
2023-07-20T13:00:28.1294207Z, 6cda8203-a249-e411-b0cc-f8bc1246af59, $GPGGA,130027.00,4437.5836,N,12402.8887,W,2,11,0.8,24.7,M,-21.8,M,,*63
2023-07-20T13:00:28.4599996Z, 6cda8203-a249-e411-b0cc-f8bc1246af59, $GPGGA,130028.00,4437.5836,N,12402.8887,W,2,11,0.8,24.7,M,-21.8,M,,*6C
2023-07-20T13:00:29.3700448Z, 6cda8203-a249-e411-b0cc-f8bc1246af59, $GPGGA,130029.00,4437.5836,N,12402.8887,W,2,11,0.8,24.7,M,-21.8,M,,*6D
2023-07-20T13:00:31.1294014Z, 6cda8203-a249-e411-b0cc-f8bc1246af59, $GPGGA,130030.00,4437.5836,N,12402.8887,W,2,11,0.8,24.7,M,-21.8,M,,*65
2023-07-20T13:00:31.4599980Z, 6cda8203-a249-e411-b0cc-f8bc1246af59, $GPGGA,130031.00,4437.5836,N,12402.8887,W,2,11,0.8,24.8,M,-21.8,M,,*6B
2023-07-20T13:00:32.9594671Z, 6cda8203-a249-e411-b0cc-f8bc1246af59, $GPGGA,130032.00,4437.5836,N,12402.8887,W,2,11,0.8,24.8,M,-21.8,M,,*68
2023-07-20T13:00:34.0996528Z, 6cda8203-a249-e411-b0cc-f8bc1246af59, $GPGGA,130033.00,4437.5836,N,12402.8887,W,2,11,0.8,24.8,M,-21.8,M,,*69
2023-07-20T13:00:34.4203163Z, 6cda8203-a249-e411-b0cc-f8bc1246af59, $GPGGA,130034.00,4437.5835,N,12402.8887,W,2,11,0.8,24.8,M,-21.8,M,,*6D
2023-07-20T13:00:35.7804756Z, 6cda8203-a249-e411-b0cc-f8bc1246af59, $GPGGA,130035.00,4437.5836,N,12402.8887,W,2,11,0.8,24.8,M,-21.8,M,,*6F
2023-07-20T13:00:37.0997010Z, 6cda8203-a249-e411-b0cc-f8bc1246af59, $GPGGA,130036.00,4437.5835,N,12402.8887,W,2,11,0.8,24.8,M,-21.8,M,,*6F
2023-07-20T13:00:37.4203459Z, 6cda8203-a249-e411-b0cc-f8bc1246af59, $GPGGA,130037.00,4437.5836,N,12402.8887,W,2,11,0.8,24.8,M,-21.8,M,,*6D
2023-07-20T13:00:39.1000306Z, 6cda8203-a249-e411-b0cc-f8bc1246af59, $GPGGA,130038.00,4437.5835,N,12402.8887,W,2,11,0.8,24.8,M,-21.8,M,,*61
2023-07-20T13:00:39.4206834Z, 6cda8203-a249-e411-b0cc-f8bc1246af59, $GPGGA,130039.00,4437.5836,N,12402.8886,W,2,11,0.8,24.8,M,-21.8,M,,*62
2023-07-20T13:00:40.7807912Z, 6cda8203-a249-e411-b0cc-f8bc1246af59, $GPGGA,130040.00,4437.5835,N,12402.8887,W,2,11,0.8,24.9,M,-21.8,M,,*6F
2023-07-20T13:00:41.4608472Z, 6cda8203-a249-e411-b0cc-f8bc1246af59, $GPGGA,130041.00,4437.5835,N,12402.8887,W,2,11,0.8,24.9,M,-21.8,M,,*6E
2023-07-20T13:00:43.1803370Z, 6cda8203-a249-e411-b0cc-f8bc1246af59, $GPGGA,130042.00,4437.5836,N,12402.8887,W,2,11,0.8,24.9,M,-21.8,M,,*6E
2023-07-20T13:00:43.5009794Z, 6cda8203-a249-e411-b0cc-f8bc1246af59, $GPGGA,130043.00,4437.5836,N,12402.8887,W,2,11,0.8,25.0,M,-21.8,M,,*67
2023-07-20T13:00:44.7903768Z, 6cda8203-a249-e411-b0cc-f8bc1246af59, $GPGGA,130044.00,4437.5836,N,12402.8887,W,2,11,0.8,25.0,M,-21.8,M,,*60
2023-07-20T13:00:46.1406549Z, 6cda8203-a249-e411-b0cc-f8bc1246af59, $GPGGA,130045.00,4437.5836,N,12402.8887,W,2,11,0.8,25.0,M,-21.8,M,,*61
2023-07-20T13:00:46.4712005Z, 6cda8203-a249-e411-b0cc-f8bc1246af59, $GPGGA,130046.00,4437.5836,N,12402.8887,W,2,11,0.8,25.1,M,-21.8,M,,*63
2023-07-20T13:00:48.0911980Z, 6cda8203-a249-e411-b0cc-f8bc1246af59, $GPGGA,130047.00,4437.5836,N,12402.8887,W,2,11,0.8,25.1,M,-21.8,M,,*62
2023-07-20T13:00:48.4207836Z, 6cda8203-a249-e411-b0cc-f8bc1246af59, $GPGGA,130048.00,4437.5836,N,12402.8887,W,2,11,0.8,25.2,M,-21.8,M,,*6E
2023-07-20T13:00:49.4105373Z, 6cda8203-a249-e411-b0cc-f8bc1246af59, $GPGGA,130049.00,4437.5836,N,12402.8887,W,2,11,0.8,25.2,M,-21.8,M,,*6F
2023-07-20T13:00:51.1410699Z, 6cda8203-a249-e411-b0cc-f8bc1246af59, $GPGGA,130050.00,4437.5837,N,12402.8887,W,2,11,0.8,25.2,M,-21.8,M,,*66
2023-07-20T13:00:51.4706349Z, 6cda8203-a249-e411-b0cc-f8bc1246af59, $GPGGA,130051.00,4437.5837,N,12402.8887,W,2,11,0.8,25.3,M,-21.8,M,,*66
2023-07-20T13:00:52.7909035Z, 6cda8203-a249-e411-b0cc-f8bc1246af59, $GPGGA,130052.00,4437.5837,N,12402.8888,W,2,11,0.8,25.3,M,-21.8,M,,*6A
2023-07-20T13:00:54.1012074Z, 6cda8203-a249-e411-b0cc-f8bc1246af59, $GPGGA,130053.00,4437.5837,N,12402.8888,W,2,11,0.8,25.4,M,-21.8,M,,*6C
2023-07-20T13:00:54.4208417Z, 6cda8203-a249-e411-b0cc-f8bc1246af59, $GPGGA,130054.00,4437.5837,N,12402.8888,W,2,11,0.8,25.4,M,-21.8,M,,*6B
2023-07-20T13:00:55.2811037Z, 6cda8203-a249-e411-b0cc-f8bc1246af59, $GPGGA,130055.00,4437.5837,N,12402.8889,W,2,11,0.8,25.5,M,-21.8,M,,*6A
2023-07-20T13:00:56.7916078Z, 6cda8203-a249-e411-b0cc-f8bc1246af59, $GPGGA,130056.00,4437.5836,N,12402.8889,W,2,11,0.8,25.5,M,-21.8,M,,*68
2023-07-20T13:00:57.7414880Z, 6cda8203-a249-e411-b0cc-f8bc1246af59, $GPGGA,130057.00,4437.5836,N,12402.8889,W,2,11,0.8,25.6,M,-21.8,M,,*6A
2023-07-20T13:00:59.0917067Z, 6cda8203-a249-e411-b0cc-f8bc1246af59, $GPGGA,130058.00,4437.5836,N,12402.8889,W,2,11,0.8,25.6,M,-21.8,M,,*65
2023-07-20T13:00:59.4212736Z, 6cda8203-a249-e411-b0cc-f8bc1246af59, $GPGGA,130059.00,4437.5836,N,12402.8889,W,2,11,0.8,25.7,M,-21.8,M,,*65
2023-07-20T13:01:00.7913202Z, 6cda8203-a249-e411-b0cc-f8bc1246af59, $GPGGA,130100.00,4437.5836,N,12402.8889,W,2,11,0.8,25.7,M,-21.8,M,,*68
2023-07-20T13:01:02.0917033Z, 6cda8203-a249-e411-b0cc-f8bc1246af59, $GPGGA,130101.00,4437.5836,N,12402.8889,W,2,11,0.8,25.8,M,-21.8,M,,*66
2023-07-20T13:01:02.4222901Z, 6cda8203-a249-e411-b0cc-f8bc1246af59, $GPGGA,130102.00,4437.5835,N,12402.8889,W,2,11,0.8,25.8,M,-21.8,M,,*66
2023-07-20T13:01:03.7923392Z, 6cda8203-a249-e411-b0cc-f8bc1246af59, $GPGGA,130103.00,4437.5835,N,12402.8889,W,2,11,0.8,25.8,M,-21.8,M,,*67
2023-07-20T13:01:04.4723919Z, 6cda8203-a249-e411-b0cc-f8bc1246af59, $GPGGA,130104.00,4437.5835,N,12402.8889,W,2,11,0.8,25.8,M,-21.8,M,,*60
2023-07-20T13:01:06.1521602Z, 6cda8203-a249-e411-b0cc-f8bc1246af59, $GPGGA,130105.00,4437.5835,N,12402.8888,W,2,11,0.8,25.8,M,-21.8,M,,*60
2023-07-20T13:01:06.4717573Z, 6cda8203-a249-e411-b0cc-f8bc1246af59, $GPGGA,130106.00,4437.5835,N,12402.8888,W,2,11,0.8,25.9,M,-21.8,M,,*62
2023-07-20T13:01:07.7422673Z, 6cda8203-a249-e411-b0cc-f8bc1246af59, $GPGGA,130107.00,4437.5835,N,12402.8888,W,2,11,0.8,25.9,M,-21.8,M,,*63
2023-07-20T13:01:08.3427334Z, 6cda8203-a249-e411-b0cc-f8bc1246af59, $GPGGA,130108.00,4437.5835,N,12402.8887,W,2,11,0.8,25.9,M,-21.8,M,,*63
2023-07-20T13:01:09.6619767Z, 6cda8203-a249-e411-b0cc-f8bc1246af59, $GPGGA,130109.00,4437.5835,N,12402.8887,W,2,11,0.8,25.9,M,-21.8,M,,*62
2023-07-20T13:01:11.1525495Z, 6cda8203-a249-e411-b0cc-f8bc1246af59, $GPGGA,130110.00,4437.5835,N,12402.8887,W,2,11,0.8,25.9,M,-21.8,M,,*6A
2023-07-20T13:01:11.4820958Z, 6cda8203-a249-e411-b0cc-f8bc1246af59, $GPGGA,130111.00,4437.5835,N,12402.8887,W,2,11,0.8,25.9,M,-21.8,M,,*6B
2023-07-20T13:01:12.2726839Z, 6cda8203-a249-e411-b0cc-f8bc1246af59, $GPGGA,130112.00,4437.5835,N,12402.8887,W,2,11,0.8,25.9,M,-21.8,M,,*68
2023-07-20T13:01:13.8030247Z, 6cda8203-a249-e411-b0cc-f8bc1246af59, $GPGGA,130113.00,4437.5835,N,12402.8886,W,2,11,0.8,26.0,M,-21.8,M,,*62
2023-07-20T13:01:14.4830828Z, 6cda8203-a249-e411-b0cc-f8bc1246af59, $GPGGA,130114.00,4437.5835,N,12402.8887,W,2,10,0.8,26.0,M,-21.8,M,,*65
2023-07-20T13:01:15.9726532Z, 6cda8203-a249-e411-b0cc-f8bc1246af59, $GPGGA,130115.00,4437.5836,N,12402.8887,W,2,10,0.8,26.1,M,-21.8,M,,*66
2023-07-20T13:01:16.3430394Z, 6cda8203-a249-e411-b0cc-f8bc1246af59, $GPGGA,130116.00,4437.5837,N,12402.8886,W,2,10,0.8,26.1,M,-21.8,M,,*65
2023-07-20T13:01:17.3327382Z, 6cda8203-a249-e411-b0cc-f8bc1246af59, $GPGGA,130117.00,4437.5839,N,12402.8884,W,2,10,0.8,26.1,M,-21.8,M,,*68
2023-07-20T13:01:19.1627756Z, 6cda8203-a249-e411-b0cc-f8bc1246af59, $GPGGA,130118.00,4437.5840,N,12402.8882,W,2,10,0.8,26.1,M,-21.8,M,,*6F
2023-07-20T13:01:19.4834328Z, 6cda8203-a249-e411-b0cc-f8bc1246af59, $GPGGA,130119.00,4437.5841,N,12402.8881,W,2,10,0.8,26.1,M,-21.8,M,,*6C
2023-07-20T13:01:20.7529025Z, 6cda8203-a249-e411-b0cc-f8bc1246af59, $GPGGA,130120.00,4437.5842,N,12402.8880,W,2,10,0.8,26.1,M,-21.8,M,,*64
2023-07-20T13:01:21.3433622Z, 6cda8203-a249-e411-b0cc-f8bc1246af59, $GPGGA,130121.00,4437.5844,N,12402.8879,W,2,10,0.8,26.1,M,-21.8,M,,*65
2023-07-20T13:01:22.3330589Z, 6cda8203-a249-e411-b0cc-f8bc1246af59, $GPGGA,130122.00,4437.5845,N,12402.8877,W,2,10,0.8,26.1,M,-21.8,M,,*69
2023-07-20T13:01:23.7528837Z, 6cda8203-a249-e411-b0cc-f8bc1246af59, $GPGGA,130123.00,4437.5845,N,12402.8877,W,2,10,0.8,26.1,M,-21.8,M,,*68
2023-07-20T13:01:24.3433653Z, 6cda8203-a249-e411-b0cc-f8bc1246af59, $GPGGA,130124.00,4437.5846,N,12402.8877,W,2,10,0.8,26.1,M,-21.8,M,,*6C
2023-07-20T13:01:25.3131293Z, 6cda8203-a249-e411-b0cc-f8bc1246af59, $GPGGA,130125.00,4437.5846,N,12402.8877,W,2,10,0.8,26.1,M,-21.8,M,,*6D
2023-07-20T13:01:26.8041992Z, 6cda8203-a249-e411-b0cc-f8bc1246af59, $GPGGA,130126.00,4437.5847,N,12402.8876,W,2,10,0.8,26.1,M,-21.8,M,,*6E
2023-07-20T13:01:27.4837254Z, 6cda8203-a249-e411-b0cc-f8bc1246af59, $GPGGA,130127.00,4437.5847,N,12402.8876,W,2,10,0.8,26.1,M,-21.8,M,,*6F
2023-07-20T13:01:28.7542601Z, 6cda8203-a249-e411-b0cc-f8bc1246af59, $GPGGA,130128.00,4437.5848,N,12402.8875,W,2,10,0.8,26.1,M,-21.8,M,,*6C
2023-07-20T13:01:30.1033264Z, 6cda8203-a249-e411-b0cc-f8bc1246af59, $GPGGA,130129.00,4437.5849,N,12402.8874,W,2,10,0.8,26.1,M,-21.8,M,,*6D
2023-07-20T13:01:30.4240104Z, 6cda8203-a249-e411-b0cc-f8bc1246af59, $GPGGA,130130.00,4437.5850,N,12402.8874,W,2,10,0.8,26.1,M,-21.8,M,,*6D
2023-07-20T13:01:31.7542250Z, 6cda8203-a249-e411-b0cc-f8bc1246af59, $GPGGA,130131.00,4437.5851,N,12402.8873,W,2,10,0.8,26.1,M,-21.8,M,,*6A
2023-07-20T13:01:32.3536066Z, 6cda8203-a249-e411-b0cc-f8bc1246af59, $GPGGA,130132.00,4437.5851,N,12402.8873,W,2,10,0.8,26.1,M,-21.8,M,,*69
2023-07-20T13:01:33.3343573Z, 6cda8203-a249-e411-b0cc-f8bc1246af59, $GPGGA,130133.00,4437.5851,N,12402.8873,W,2,10,0.8,26.1,M,-21.8,M,,*68
2023-07-20T13:01:34.7641506Z, 6cda8203-a249-e411-b0cc-f8bc1246af59, $GPGGA,130134.00,4437.5851,N,12402.8873,W,2,10,0.8,26.1,M,-21.8,M,,*6F
2023-07-20T13:01:35.3546304Z, 6cda8203-a249-e411-b0cc-f8bc1246af59, $GPGGA,130135.00,4437.5851,N,12402.8874,W,2,10,0.8,26.2,M,-21.8,M,,*6A
2023-07-20T13:01:37.0940503Z, 6cda8203-a249-e411-b0cc-f8bc1246af59, $GPGGA,130136.00,4437.5851,N,12402.8874,W,2,10,0.8,26.2,M,-21.8,M,,*69
2023-07-20T13:01:37.4246222Z, 6cda8203-a249-e411-b0cc-f8bc1246af59, $GPGGA,130137.00,4437.5851,N,12402.8874,W,2,10,0.8,26.2,M,-21.8,M,,*68
2023-07-20T13:01:38.2639798Z, 6cda8203-a249-e411-b0cc-f8bc1246af59, $GPGGA,130138.00,4437.5851,N,12402.8875,W,2,10,0.8,26.2,M,-21.8,M,,*66
2023-07-20T13:01:40.0940382Z, 6cda8203-a249-e411-b0cc-f8bc1246af59, $GPGGA,130139.00,4437.5851,N,12402.8874,W,2,10,0.8,26.2,M,-21.8,M,,*66
2023-07-20T13:01:40.4247440Z, 6cda8203-a249-e411-b0cc-f8bc1246af59, $GPGGA,130140.00,4437.5852,N,12402.8874,W,2,10,0.8,26.2,M,-21.8,M,,*6B
2023-07-20T13:01:41.2651095Z, 6cda8203-a249-e411-b0cc-f8bc1246af59, $GPGGA,130141.00,4437.5852,N,12402.8874,W,2,10,0.8,26.2,M,-21.8,M,,*6A
2023-07-20T13:01:43.0943113Z, 6cda8203-a249-e411-b0cc-f8bc1246af59, $GPGGA,130142.00,4437.5852,N,12402.8874,W,2,10,0.8,26.2,M,-21.8,M,,*69
2023-07-20T13:01:43.4249018Z, 6cda8203-a249-e411-b0cc-f8bc1246af59, $GPGGA,130143.00,4437.5853,N,12402.8874,W,2,10,0.8,26.2,M,-21.8,M,,*69
2023-07-20T13:01:45.0946328Z, 6cda8203-a249-e411-b0cc-f8bc1246af59, $GPGGA,130144.00,4437.5853,N,12402.8874,W,2,10,0.8,26.2,M,-21.8,M,,*6E
2023-07-20T13:01:45.4252183Z, 6cda8203-a249-e411-b0cc-f8bc1246af59, $GPGGA,130145.00,4437.5853,N,12402.8873,W,2,10,0.8,26.2,M,-21.8,M,,*68
2023-07-20T13:01:47.0949727Z, 6cda8203-a249-e411-b0cc-f8bc1246af59, $GPGGA,130146.00,4437.5854,N,12402.8874,W,2,10,0.8,26.1,M,-21.8,M,,*68
2023-07-20T13:01:47.4255522Z, 6cda8203-a249-e411-b0cc-f8bc1246af59, $GPGGA,130147.00,4437.5854,N,12402.8874,W,2,10,0.8,26.1,M,-21.8,M,,*69
2023-07-20T13:01:49.0955310Z, 6cda8203-a249-e411-b0cc-f8bc1246af59, $GPGGA,130148.00,4437.5854,N,12402.8873,W,2,10,0.8,26.1,M,-21.8,M,,*61
2023-07-20T13:01:49.4251016Z, 6cda8203-a249-e411-b0cc-f8bc1246af59, $GPGGA,130149.00,4437.5854,N,12402.8874,W,2,10,0.8,26.1,M,-21.8,M,,*67
2023-07-20T13:01:51.0948369Z, 6cda8203-a249-e411-b0cc-f8bc1246af59, $GPGGA,130150.00,4437.5855,N,12402.8873,W,2,10,0.8,26.1,M,-21.8,M,,*69
2023-07-20T13:01:51.4254187Z, 6cda8203-a249-e411-b0cc-f8bc1246af59, $GPGGA,130151.00,4437.5855,N,12402.8873,W,2,10,0.8,26.1,M,-21.8,M,,*68
2023-07-20T13:01:53.0951721Z, 6cda8203-a249-e411-b0cc-f8bc1246af59, $GPGGA,130152.00,4437.5855,N,12402.8873,W,2,10,0.8,26.1,M,-21.8,M,,*6B
2023-07-20T13:01:53.4257612Z, 6cda8203-a249-e411-b0cc-f8bc1246af59, $GPGGA,130153.00,4437.5855,N,12402.8873,W,2,10,0.8,26.1,M,-21.8,M,,*6A
2023-07-20T13:01:55.0955117Z, 6cda8203-a249-e411-b0cc-f8bc1246af59, $GPGGA,130154.00,4437.5856,N,12402.8873,W,2,10,0.8,26.1,M,-21.8,M,,*6E
2023-07-20T13:01:55.4658768Z, 6cda8203-a249-e411-b0cc-f8bc1246af59, $GPGGA,130155.00,4437.5856,N,12402.8873,W,2,10,0.8,26.1,M,-21.8,M,,*6F
2023-07-20T13:01:57.0958383Z, 6cda8203-a249-e411-b0cc-f8bc1246af59, $GPGGA,130156.00,4437.5856,N,12402.8872,W,2,10,0.8,26.1,M,-21.8,M,,*6D
2023-07-20T13:01:57.4254092Z, 6cda8203-a249-e411-b0cc-f8bc1246af59, $GPGGA,130157.00,4437.5856,N,12402.8872,W,2,10,0.8,26.1,M,-21.8,M,,*6C
2023-07-20T13:01:59.3261667Z, 6cda8203-a249-e411-b0cc-f8bc1246af59, $GPGGA,130158.00,4437.5857,N,12402.8872,W,2,10,0.8,26.0,M,-21.8,M,,*63
2023-07-20T13:01:59.6855732Z, 6cda8203-a249-e411-b0cc-f8bc1246af59, $GPGGA,130159.00,4437.5857,N,12402.8872,W,2,10,0.8,26.0,M,-21.8,M,,*62
2023-07-20T13:02:01.0964893Z, 6cda8203-a249-e411-b0cc-f8bc1246af59, $GPGGA,130200.00,4437.5857,N,12402.8872,W,2,10,0.8,26.0,M,-21.8,M,,*6D
2023-07-20T13:02:01.4260568Z, 6cda8203-a249-e411-b0cc-f8bc1246af59, $GPGGA,130201.00,4437.5857,N,12402.8871,W,2,10,0.8,26.0,M,-21.8,M,,*6F
2023-07-20T13:02:03.0958047Z, 6cda8203-a249-e411-b0cc-f8bc1246af59, $GPGGA,130202.00,4437.5857,N,12402.8871,W,2,10,0.8,26.0,M,-21.8,M,,*6C
2023-07-20T13:02:03.4263881Z, 6cda8203-a249-e411-b0cc-f8bc1246af59, $GPGGA,130203.00,4437.5858,N,12402.8871,W,2,10,0.8,26.0,M,-21.8,M,,*62
2023-07-20T13:02:05.1060714Z, 6cda8203-a249-e411-b0cc-f8bc1246af59, $GPGGA,130204.00,4437.5857,N,12402.8871,W,2,10,0.8,26.0,M,-21.8,M,,*6A
2023-07-20T13:02:05.4267484Z, 6cda8203-a249-e411-b0cc-f8bc1246af59, $GPGGA,130205.00,4437.5858,N,12402.8871,W,2,10,0.8,26.0,M,-21.8,M,,*64
2023-07-20T13:02:07.0964726Z, 6cda8203-a249-e411-b0cc-f8bc1246af59, $GPGGA,130206.00,4437.5858,N,12402.8871,W,2,10,0.8,26.0,M,-21.8,M,,*67
2023-07-20T13:02:07.4260299Z, 6cda8203-a249-e411-b0cc-f8bc1246af59, $GPGGA,130207.00,4437.5858,N,12402.8871,W,2,10,0.8,25.9,M,-21.8,M,,*6C
2023-07-20T13:02:08.3769420Z, 6cda8203-a249-e411-b0cc-f8bc1246af59, $GPGGA,130208.00,4437.5858,N,12402.8870,W,2,10,0.8,25.9,M,-21.8,M,,*62
2023-07-20T13:02:10.0899995Z, 6cda8203-a249-e411-b0cc-f8bc1246af59, $GPGGA,130209.00,4437.5858,N,12402.8871,W,2,10,0.8,25.9,M,-21.8,M,,*62
2023-07-20T13:02:10.4181535Z, 6cda8203-a249-e411-b0cc-f8bc1246af59, $GPGGA,130210.00,4437.5858,N,12402.8870,W,2,10,0.8,25.9,M,-21.8,M,,*6B
2023-07-20T13:02:12.0817816Z, 6cda8203-a249-e411-b0cc-f8bc1246af59, $GPGGA,130211.00,4437.5858,N,12402.8870,W,2,10,0.8,25.9,M,-21.8,M,,*6A
2023-07-20T13:02:12.4113384Z, 6cda8203-a249-e411-b0cc-f8bc1246af59, $GPGGA,130212.00,4437.5858,N,12402.8870,W,2,10,0.8,25.9,M,-21.8,M,,*69
2023-07-20T13:02:14.0821088Z, 6cda8203-a249-e411-b0cc-f8bc1246af59, $GPGGA,130213.00,4437.5858,N,12402.8871,W,2,10,0.8,25.9,M,-21.8,M,,*69
2023-07-20T13:02:14.4116757Z, 6cda8203-a249-e411-b0cc-f8bc1246af59, $GPGGA,130214.00,4437.5858,N,12402.8870,W,2,10,0.8,25.9,M,-21.8,M,,*6F
2023-07-20T13:02:15.3616591Z, 6cda8203-a249-e411-b0cc-f8bc1246af59, $GPGGA,130215.00,4437.5858,N,12402.8871,W,2,10,0.8,25.9,M,-21.8,M,,*6F
2023-07-20T13:02:16.8522144Z, 6cda8203-a249-e411-b0cc-f8bc1246af59, $GPGGA,130216.00,4437.5858,N,12402.8871,W,2,10,0.8,25.9,M,-21.8,M,,*6C
2023-07-20T13:02:18.0818702Z, 6cda8203-a249-e411-b0cc-f8bc1246af59, $GPGGA,130217.00,4437.5859,N,12402.8871,W,2,10,0.8,25.9,M,-21.8,M,,*6C
2023-07-20T13:02:18.4124559Z, 6cda8203-a249-e411-b0cc-f8bc1246af59, $GPGGA,130218.00,4437.5858,N,12402.8871,W,2,10,0.8,25.8,M,-21.8,M,,*63
2023-07-20T13:02:20.0822095Z, 6cda8203-a249-e411-b0cc-f8bc1246af59, $GPGGA,130219.00,4437.5859,N,12402.8871,W,2,10,0.8,25.8,M,-21.8,M,,*63
2023-07-20T13:02:20.4127758Z, 6cda8203-a249-e411-b0cc-f8bc1246af59, $GPGGA,130220.00,4437.5859,N,12402.8871,W,2,10,0.8,25.8,M,-21.8,M,,*69
2023-07-20T13:02:21.3653796Z, 6cda8203-a249-e411-b0cc-f8bc1246af59, $GPGGA,130221.00,4437.5859,N,12402.8871,W,2,10,0.8,25.8,M,-21.8,M,,*68
2023-07-20T13:02:23.0921227Z, 6cda8203-a249-e411-b0cc-f8bc1246af59, $GPGGA,130222.00,4437.5859,N,12402.8871,W,2,10,0.8,25.8,M,-21.8,M,,*6B
2023-07-20T13:02:23.4127671Z, 6cda8203-a249-e411-b0cc-f8bc1246af59, $GPGGA,130223.00,4437.5859,N,12402.8871,W,2,10,0.8,25.8,M,-21.8,M,,*6A
2023-07-20T13:02:24.3626480Z, 6cda8203-a249-e411-b0cc-f8bc1246af59, $GPGGA,130224.00,4437.5859,N,12402.8872,W,2,10,0.8,25.8,M,-21.8,M,,*6E
2023-07-20T13:02:25.2726764Z, 6cda8203-a249-e411-b0cc-f8bc1246af59, $GPGGA,130225.00,4437.5859,N,12402.8872,W,2,10,0.8,25.8,M,-21.8,M,,*6F
2023-07-20T13:02:27.0832598Z, 6cda8203-a249-e411-b0cc-f8bc1246af59, $GPGGA,130226.00,4437.5859,N,12402.8872,W,2,10,0.8,25.8,M,-21.8,M,,*6C
2023-07-20T13:02:27.4128218Z, 6cda8203-a249-e411-b0cc-f8bc1246af59, $GPGGA,130227.00,4437.5859,N,12402.8872,W,2,10,0.8,25.8,M,-21.8,M,,*6D
2023-07-20T13:02:29.0825665Z, 6cda8203-a249-e411-b0cc-f8bc1246af59, $GPGGA,130228.00,4437.5860,N,12402.8872,W,2,10,0.8,25.8,M,-21.8,M,,*68
2023-07-20T13:02:29.4131529Z, 6cda8203-a249-e411-b0cc-f8bc1246af59, $GPGGA,130229.00,4437.5859,N,12402.8872,W,2,10,0.8,25.7,M,-21.8,M,,*6C
2023-07-20T13:02:30.2733928Z, 6cda8203-a249-e411-b0cc-f8bc1246af59, $GPGGA,130230.00,4437.5860,N,12402.8872,W,2,10,0.8,25.7,M,-21.8,M,,*6E
2023-07-20T13:02:31.3626780Z, 6cda8203-a249-e411-b0cc-f8bc1246af59, $GPGGA,130231.00,4437.5861,N,12402.8871,W,2,10,0.8,25.7,M,-21.8,M,,*6D
2023-07-20T13:02:33.0832271Z, 6cda8203-a249-e411-b0cc-f8bc1246af59, $GPGGA,130232.00,4437.5862,N,12402.8871,W,2,10,0.8,25.7,M,-21.8,M,,*6D
2023-07-20T13:02:33.4127808Z, 6cda8203-a249-e411-b0cc-f8bc1246af59, $GPGGA,130233.00,4437.5862,N,12402.8870,W,2,10,0.8,25.7,M,-21.8,M,,*6D
2023-07-20T13:02:34.9132929Z, 6cda8203-a249-e411-b0cc-f8bc1246af59, $GPGGA,130234.00,4437.5863,N,12402.8870,W,2,10,0.8,25.7,M,-21.8,M,,*6B
2023-07-20T13:02:36.0832143Z, 6cda8203-a249-e411-b0cc-f8bc1246af59, $GPGGA,130235.00,4437.5864,N,12402.8870,W,2,10,0.8,25.7,M,-21.8,M,,*6D
2023-07-20T13:02:36.4138015Z, 6cda8203-a249-e411-b0cc-f8bc1246af59, $GPGGA,130236.00,4437.5864,N,12402.8869,W,2,10,0.8,25.7,M,-21.8,M,,*66
2023-07-20T13:02:37.3636696Z, 6cda8203-a249-e411-b0cc-f8bc1246af59, $GPGGA,130237.00,4437.5865,N,12402.8869,W,2,10,0.8,25.7,M,-21.8,M,,*66
2023-07-20T13:02:39.0832087Z, 6cda8203-a249-e411-b0cc-f8bc1246af59, $GPGGA,130238.00,4437.5866,N,12402.8869,W,2,10,0.8,25.7,M,-21.8,M,,*6A
2023-07-20T13:02:39.4137850Z, 6cda8203-a249-e411-b0cc-f8bc1246af59, $GPGGA,130239.00,4437.5866,N,12402.8869,W,2,10,0.8,25.7,M,-21.8,M,,*6B
2023-07-20T13:02:41.1840816Z, 6cda8203-a249-e411-b0cc-f8bc1246af59, $GPGGA,130240.00,4437.5867,N,12402.8869,W,2,10,0.8,25.6,M,-21.8,M,,*65
2023-07-20T13:02:41.6839301Z, 6cda8203-a249-e411-b0cc-f8bc1246af59, $GPGGA,130241.00,4437.5868,N,12402.8869,W,2,10,0.8,25.6,M,-21.8,M,,*6B
2023-07-20T13:02:42.3639923Z, 6cda8203-a249-e411-b0cc-f8bc1246af59, $GPGGA,130242.00,4437.5868,N,12402.8868,W,2,10,0.8,25.6,M,-21.8,M,,*69
2023-07-20T13:02:44.0835110Z, 6cda8203-a249-e411-b0cc-f8bc1246af59, $GPGGA,130243.00,4437.5869,N,12402.8868,W,2,10,0.8,25.6,M,-21.8,M,,*69
2023-07-20T13:02:44.4140965Z, 6cda8203-a249-e411-b0cc-f8bc1246af59, $GPGGA,130244.00,4437.5869,N,12402.8868,W,2,10,0.8,25.6,M,-21.8,M,,*6E
2023-07-20T13:02:45.2743764Z, 6cda8203-a249-e411-b0cc-f8bc1246af59, $GPGGA,130245.00,4437.5870,N,12402.8868,W,2,10,0.8,25.6,M,-21.8,M,,*67
2023-07-20T13:02:47.2338927Z, 6cda8203-a249-e411-b0cc-f8bc1246af59, $GPGGA,130246.00,4437.5870,N,12402.8868,W,2,10,0.8,25.6,M,-21.8,M,,*64
2023-07-20T13:02:47.6441318Z, 6cda8203-a249-e411-b0cc-f8bc1246af59, $GPGGA,130247.00,4437.5871,N,12402.8868,W,2,10,0.8,25.5,M,-21.8,M,,*67
2023-07-20T13:02:48.2744151Z, 6cda8203-a249-e411-b0cc-f8bc1246af59, $GPGGA,130248.00,4437.5871,N,12402.8867,W,2,10,0.8,25.5,M,-21.8,M,,*67
2023-07-20T13:02:49.3945903Z, 6cda8203-a249-e411-b0cc-f8bc1246af59, $GPGGA,130249.00,4437.5872,N,12402.8868,W,2,10,0.8,25.5,M,-21.8,M,,*6A
2023-07-20T13:02:50.2747927Z, 6cda8203-a249-e411-b0cc-f8bc1246af59, $GPGGA,130250.00,4437.5872,N,12402.8867,W,2,10,0.8,25.5,M,-21.8,M,,*6D
2023-07-20T13:02:52.0842820Z, 6cda8203-a249-e411-b0cc-f8bc1246af59, $GPGGA,130251.00,4437.5872,N,12402.8867,W,2,10,0.8,25.5,M,-21.8,M,,*6C
2023-07-20T13:02:52.4148644Z, 6cda8203-a249-e411-b0cc-f8bc1246af59, $GPGGA,130252.00,4437.5873,N,12402.8867,W,2,10,0.8,25.5,M,-21.8,M,,*6E
2023-07-20T13:02:53.8247238Z, 6cda8203-a249-e411-b0cc-f8bc1246af59, $GPGGA,130253.00,4437.5873,N,12402.8866,W,2,10,0.8,25.5,M,-21.8,M,,*6E
2023-07-20T13:02:55.0842685Z, 6cda8203-a249-e411-b0cc-f8bc1246af59, $GPGGA,130254.00,4437.5873,N,12402.8866,W,2,10,0.8,25.4,M,-21.8,M,,*68
2023-07-20T13:02:55.4546603Z, 6cda8203-a249-e411-b0cc-f8bc1246af59, $GPGGA,130255.00,4437.5874,N,12402.8866,W,2,10,0.8,25.4,M,-21.8,M,,*6E
2023-07-20T13:02:56.2850558Z, 6cda8203-a249-e411-b0cc-f8bc1246af59, $GPGGA,130256.00,4437.5875,N,12402.8866,W,2,10,0.8,25.4,M,-21.8,M,,*6C
2023-07-20T13:02:57.2847581Z, 6cda8203-a249-e411-b0cc-f8bc1246af59, $GPGGA,130257.00,4437.5875,N,12402.8865,W,2,10,0.8,25.4,M,-21.8,M,,*6E
2023-07-20T13:02:58.4048548Z, 6cda8203-a249-e411-b0cc-f8bc1246af59, $GPGGA,130258.00,4437.5875,N,12402.8865,W,2,10,0.8,25.4,M,-21.8,M,,*61
2023-07-20T13:03:00.1001928Z, 6cda8203-a249-e411-b0cc-f8bc1246af59, $GPGGA,130259.00,4437.5876,N,12402.8865,W,2,10,0.8,25.4,M,-21.8,M,,*63
2023-07-20T13:03:00.4151859Z, 6cda8203-a249-e411-b0cc-f8bc1246af59, $GPGGA,130300.00,4437.5876,N,12402.8864,W,2,10,0.8,25.4,M,-21.8,M,,*6F
2023-07-20T13:03:01.4048798Z, 6cda8203-a249-e411-b0cc-f8bc1246af59, $GPGGA,130301.00,4437.5876,N,12402.8864,W,2,10,0.8,25.4,M,-21.8,M,,*6E
2023-07-20T13:03:03.0855924Z, 6cda8203-a249-e411-b0cc-f8bc1246af59, $GPGGA,130302.00,4437.5877,N,12402.8863,W,2,10,0.8,25.3,M,-21.8,M,,*6C
2023-07-20T13:03:03.4151640Z, 6cda8203-a249-e411-b0cc-f8bc1246af59, $GPGGA,130303.00,4437.5877,N,12402.8863,W,2,10,0.8,25.3,M,-21.8,M,,*6D
2023-07-20T13:03:04.2872875Z, 6cda8203-a249-e411-b0cc-f8bc1246af59, $GPGGA,130304.00,4437.5878,N,12402.8863,W,2,10,0.8,25.3,M,-21.8,M,,*65
2023-07-20T13:03:06.1851151Z, 6cda8203-a249-e411-b0cc-f8bc1246af59, $GPGGA,130305.00,4437.5878,N,12402.8862,W,2,10,0.8,25.3,M,-21.8,M,,*65
2023-07-20T13:03:06.6451651Z, 6cda8203-a249-e411-b0cc-f8bc1246af59, $GPGGA,130306.00,4437.5878,N,12402.8862,W,2,10,0.8,25.3,M,-21.8,M,,*66
2023-07-20T13:03:07.2854230Z, 6cda8203-a249-e411-b0cc-f8bc1246af59, $GPGGA,130307.00,4437.5878,N,12402.8862,W,2,10,0.8,25.3,M,-21.8,M,,*67
2023-07-20T13:03:08.4055775Z, 6cda8203-a249-e411-b0cc-f8bc1246af59, $GPGGA,130308.00,4437.5878,N,12402.8861,W,2,10,0.8,25.3,M,-21.8,M,,*6B
2023-07-20T13:03:10.0862915Z, 6cda8203-a249-e411-b0cc-f8bc1246af59, $GPGGA,130309.00,4437.5878,N,12402.8861,W,2,10,0.8,25.3,M,-21.8,M,,*6A
2023-07-20T13:03:10.4158517Z, 6cda8203-a249-e411-b0cc-f8bc1246af59, $GPGGA,130310.00,4437.5878,N,12402.8861,W,2,10,0.8,25.2,M,-21.8,M,,*63
2023-07-20T13:03:11.2861912Z, 6cda8203-a249-e411-b0cc-f8bc1246af59, $GPGGA,130311.00,4437.5879,N,12402.8861,W,2,10,0.8,25.2,M,-21.8,M,,*63
2023-07-20T13:03:12.9260729Z, 6cda8203-a249-e411-b0cc-f8bc1246af59, $GPGGA,130312.00,4437.5879,N,12402.8860,W,2,10,0.8,25.2,M,-21.8,M,,*61
2023-07-20T13:03:13.4059905Z, 6cda8203-a249-e411-b0cc-f8bc1246af59, $GPGGA,130313.00,4437.5879,N,12402.8860,W,2,10,0.8,25.2,M,-21.8,M,,*60
2023-07-20T13:03:14.2857818Z, 6cda8203-a249-e411-b0cc-f8bc1246af59, $GPGGA,130314.00,4437.5879,N,12402.8860,W,2,10,0.8,25.1,M,-21.8,M,,*64
2023-07-20T13:03:16.0860346Z, 6cda8203-a249-e411-b0cc-f8bc1246af59, $GPGGA,130315.00,4437.5879,N,12402.8860,W,2,10,0.8,25.1,M,-21.8,M,,*65
2023-07-20T13:03:16.4166147Z, 6cda8203-a249-e411-b0cc-f8bc1246af59, $GPGGA,130316.00,4437.5878,N,12402.8860,W,2,10,0.8,25.1,M,-21.8,M,,*67
2023-07-20T13:03:17.2967588Z, 6cda8203-a249-e411-b0cc-f8bc1246af59, $GPGGA,130317.00,4437.5879,N,12402.8859,W,2,10,0.8,25.1,M,-21.8,M,,*6D
2023-07-20T13:03:18.9366558Z, 6cda8203-a249-e411-b0cc-f8bc1246af59, $GPGGA,130318.00,4437.5878,N,12402.8859,W,2,10,0.8,25.0,M,-21.8,M,,*62
2023-07-20T13:03:19.2960829Z, 6cda8203-a249-e411-b0cc-f8bc1246af59, $GPGGA,130319.00,4437.5878,N,12402.8859,W,2,10,0.8,25.0,M,-21.8,M,,*63
2023-07-20T13:03:21.0863485Z, 6cda8203-a249-e411-b0cc-f8bc1246af59, $GPGGA,130320.00,4437.5878,N,12402.8859,W,2,10,0.8,25.0,M,-21.8,M,,*69
2023-07-20T13:03:21.4169233Z, 6cda8203-a249-e411-b0cc-f8bc1246af59, $GPGGA,130321.00,4437.5878,N,12402.8859,W,2,10,0.8,25.0,M,-21.8,M,,*68
2023-07-20T13:03:22.2970825Z, 6cda8203-a249-e411-b0cc-f8bc1246af59, $GPGGA,130322.00,4437.5878,N,12402.8859,W,2,10,0.8,24.9,M,-21.8,M,,*63
2023-07-20T13:03:23.2967665Z, 6cda8203-a249-e411-b0cc-f8bc1246af59, $GPGGA,130323.00,4437.5879,N,12402.8859,W,2,10,0.8,24.9,M,-21.8,M,,*63
2023-07-20T13:03:24.4168926Z, 6cda8203-a249-e411-b0cc-f8bc1246af59, $GPGGA,130324.00,4437.5878,N,12402.8859,W,2,10,0.8,24.9,M,-21.8,M,,*65
2023-07-20T13:03:25.7969281Z, 6cda8203-a249-e411-b0cc-f8bc1246af59, $GPGGA,130325.00,4437.5879,N,12402.8859,W,2,10,0.8,24.8,M,-21.8,M,,*64
2023-07-20T13:03:26.2967646Z, 6cda8203-a249-e411-b0cc-f8bc1246af59, $GPGGA,130326.00,4437.5879,N,12402.8859,W,2,10,0.8,24.8,M,-21.8,M,,*67
